~Version
 VERS              .         2.0                           : CWLS LOG ASCII STANDARD - VERSION 2.0
 WRAP              .         NO                            : ONE LINE PER DEPTH STEP
 DLM               .         SPACE                         : DELIMITING CHARACTER(SPACE TAB OR COMMA)
~Well Information
#_______________________________________________________________________________
#
#PARAMETER_NAME    .UNIT     VALUE                         : DESCRIPTION
#_______________________________________________________________________________
STRT               .M        2659.2                        : First reference value
STOP               .M        2769.000055                   : Last reference value
STEP               .M        0.2000001                     : Step increment
NULL               .         -9999                         : Missing value
COMP               .                                       : Company
WELL               .         616                           : Well name
FLD                .                                       : Field
LOC                .                                       : Location
CNTY               .                                       : County
STAT               .                                       : State
CTRY               .                                       : Country
SRVC               .                                       : Service Company
DATE               .                                       : Date
API                .                                       : API number
PROJECT_UPGRADE_TIME .         2021-03-18T21_24_50           : 
group              .         Good                          : 
~Parameter Information Block
#_______________________________________________________________________________
#
#PARAMETER_NAME    .UNIT     VALUE                         : DESCRIPTION
#_______________________________________________________________________________
SET                .         D1165_D                       : 
OTHER              .         Программное обеспечение станции MONITOR-386EX 25/12/99 15_08_10   BGF V52 22/08/01 16_56_30   3.2_BGF_N_3070031: 
OTHER_10           .         Тарировки_                    : 
OTHER_11           .         TM.GRD = 0.00403*TM$.UE + -1.19: 
OTHER_12           .         MN.ATM = (7.1e-006*TM.GRD + 0.02017)*(MN$.UE + -3.03*TM.GRD + -1833): 
OTHER_13           .         Id error                      : 
OTHER_2            .         Kedr.exe версия 3.4.2.51      : 
OTHER_3            .         KedrData.dll версия 3.4.2.24  : 
OTHER_4            .         Драйвер версия 2.1.1.8        : 
OTHER_5            .         Мнемоники версия 3.3 S        : 
OTHER_6            .         Прибор_ КСА-М1                : 
OTHER_7            .         Номер прибора_ 265            : 
OTHER_8            .         Режим_ КСА-М1                 : 
OTHER_9            .         Форма_ ТЕРМОМЕТР              : 
PROJECT_UPGRADE_TIME .         2021-03-18T21_24_49           : 
TLFamily_DEPT      .         Measured Depth                : 
TLFamily_GK        .         Gamma Ray                     : 
TLFamily_GK$       .                                       : 
TLFamily_LM        .         Casing Collar locator         : 
TLFamily_METKA     .                                       : 
TLFamily_MN        .                                       : 
TLFamily_MN$       .                                       : 
TLFamily_RCOR      .                                       : 
TLFamily_SPID      .         Spontaneous Potential         : 
TLFamily_STD       .                                       : 
TLFamily_TENS      .         Cable Tension                 : 
TLFamily_TIME      .         Time                          : 
TLFamily_TM        .         Temperature                   : 
TLFamily_TM$       .         Temperature                   : 
TLFamily_VGD       .         Gas Volume                    : 
group              .         prim                          : 
~Curve Information
#_______________________________________________________________________________
#
#LOGNAME           .UNIT     LOG_ID                        : DESCRIPTION
#_______________________________________________________________________________
DEPT               .M                                      : 1 Глубина, м -    0.0 см 
GK                 .MKR/H                                  : 15 Гамма-активность, мкр./ч -  110.0 см 
GK$                .UE                                     : 12 Гамма-активность, усл.ед. -  110.0 см 
LM                 .                                       : 10 Локатор муфт,  -   20.0 см 
METKA              .                                       : 3 Метки,  -    0.0 см 
MN                 .ATM                                    : 14 Давление, атм. -  160.0 см 
MN$                .UE                                     : 8 Давление, усл.ед. -  160.0 см 
RCOR               .CM/KM                                  : 5 Коррекция по ролику, см/км -    0.0 см 
SPID               .M/H                                    : 2 Скорость, м/час -    0.0 см 
STD                .                                       : 11 Приток,  -  170.0 см 
TENS               .T                                      : 6 Натяжение кабеля, т -    0.0 см 
TIME               .S                                      : 4 Время, сек -    0.0 см 
TM                 .GRD                                    : 13 Температура, °C -  180.0 см 
TM$                .UE                                     : 7 Температура, усл.ед. -  180.0 см 
VGD                .                                       : 9 Влагомер,  -  170.0 см 
~Ascii
# ...
2757.200049 7.47       314        1          0          361.85     19494      -1400      633        32373      0          21553.34   90.392     22725      6557      
2757.400049 6.94       284        1          0          359.26     19369      -1400      636        32372      0          21554.44   90.396     22726      6557      
2757.600049 6.74       284        1          0          360.024    19406      -1400      637        32374      0          21555.55   90.4       22727      6558      
2757.800049 6.68       284        1          0          360.292    19419      -1400      638        32373      0          21556.65   90.404     22728      6558      
2758.000049 6.66       284        1          0          360.193    19414      -1400      640        32373      0          21557.81   90.404     22728      6558      
2758.200049 7.11       323        1          0          359.09     19361      -1400      644        32373      0          21558.89   90.408     22729      6556      
2758.40005 7.41       323        1          0          360.193    19414      -1400      654        32372      0          21560.01   90.408     22729      6558      
2758.60005 7.57       331        1          0          361.734    19488      -1400      646        32373      0          21561.16   90.412     22730      6558      
2758.80005 7.69       332        1561       0          359.325    19372      -1400      644        32373      0          21562.26   90.414     22731      6557      
2759.00005 7.74       332        843        0          360.645    19436      -1400      643        32372      0          21563.38   90.424     22733      6558      
2759.20005 7.43       310        164        0          360.957    19450      -1400      653        32373      0          21564.45   90.446     22739      6557      
2759.40005 7.31       310        1          0          358.594    19337      -1400      645        32373      0          21565.64   90.482     22748      6559      
2759.60005 7.65       335        1          0          359.639    19387      -1400      649        32373      0          21566.69   90.523     22757      6557      
2759.80005 7.77       335        1          0          358.402    19327      -1400      647        32373      0          21567.79   90.561     22767      6558      
2760.00005 8.21       371        1          2          361.473    19475      -1400      642        32373      0          21568.95   90.598     22776      6559      
2760.20005 8.52       371        1          0          359.871    19398      -1400      640        32374      0          21570.05   90.635     22785      6558      
2760.400051 8.54       361        1          0          360.658    19435      -1400      645        32371      0          21571.16   90.684     22797      6559      
2760.600051 8.38       355        1          0          362.335    19516      -1400      650        32373      0          21572.26   90.753     22815      6559      
2760.800051 8.22       341        1          0          359.576    19383      -1400      647        32374      0          21573.42   90.843     22837      6559      
2761.000051 7.92       332        1          0          360.436    19424      -1400      645        32373      0          21574.52   90.916     22855      6559      
2761.200051 7.82       332        1          0          360.724    19438      -1400      648        32373      0          21575.62   90.988     22873      6559      
2761.400051 7.85       337        1          0          361.008    19451      -1400      646        32373      0          21576.78   91.031     22884      6560      
2761.600051 7.87       337        1          0          359.59     19383      -1400      646        32373      0          21577.88   91.067     22892      6558      
2761.800051 8.24       375        1          0          360.715    19437      -1400      646        32373      0          21578.98   91.091     22899      6560      
2762.000051 8.59       375        1          0          362.067    19502      -1400      644        32373      0          21580.08   91.109     22903      6560      
2762.200051 8.69       373        1          0          359.633    19385      -1400      637        32373      0          21581.24   91.123     22907      6559      
2762.400052 8.71       373        1          0          361.072    19454      -1400      643        32373      0          21582.35   91.133     22909      6560      
2762.600052 8.55       351        1          0          361.043    19453      -1400      651        32373      0          21583.45   91.144     22912      6560      
2762.800052 7.99       329        1          0          359.148    19362      -1400      645        32373      0          21584.61   91.154     22914      6562      
2763.000052 7.8        329        1          0          360.129    19409      -1400      639        32373      0          21585.71   91.16      22916      6561      
2763.200052 7.29       297        1          0          358.879    19349      -1400      639        32373      0          21586.81   91.167     22917      6561      
2763.400052 7.07       297        1          0          361.902    19494      -1400      639        32372      0          21587.91   91.177     22920      6562      
2763.600052 7.03       300        1          0          360.159    19410      -1400      639        32372      0          21589.07   91.183     22921      6561      
2763.800052 7.02       300        1          0          360.858    19444      -1400      640        32373      0          21590.17   91.19      22923      6561      
2764.000052 7.07       306        1          0          362.773    19536      -1400      651        32372      0          21591.22   91.195     22924      6562      
2764.200052 7.13       306        1          0          360.169    19411      -1400      644        32372      0          21592.4    91.201     22926      6563      
2764.400053 7.13       304        1          0          360.219    19413      -1400      636        32373      0          21593.54   91.21      22928      6562      
2764.600053 6.99       296        1          0          361.372    19468      -1400      643        32373      0          21594.63   91.214     22929      6562      
2764.800053 6.99       301        1          0          361.135    19457      -1400      642        32373      0          21595.74   91.222     22931      6563      
2765.000053 7.14       309        1          0          359.605    19383      -1400      641        32373      0          21596.86   91.23      22933      6562      
2765.200053 7.2        309        1          0          361.058    19453      -1400      647        32373      0          21598      91.238     22935      6563      
2765.400053 7.63       340        1          0          362.408    19518      -1400      645        32373      0          21599.06   91.243     22936      6563      
2765.600053 7.83       340        1          0          361.158    19458      -1400      644        32372      0          21600.19   91.249     22938      6562      
2765.800053 8.04       356        1          0          360.946    19448      -1400      632        32373      0          21601.36   91.254     22939      6563      
2766.000053 8.23       356        1          0          362.041    19500      -1400      639        32373      0          21602.47   91.257     22940      6563      
2766.200053 8.11       335        1          0          360.151    19410      -1400      639        32373      0          21603.57   91.259     22940      6564      
2766.400054 7.93       335        1          0          360.65     19433      -1400      639        32373      0          21604.73   91.266     22942      6564      
2766.600054 7.85       332        1          0          359.962    19400      -1400      639        32373      0          21605.83   91.27      22943      6565      
2766.800054 7.42       308        1          0          362.102    19503      -1400      640        32373      0          21606.94   91.274     22944      6565      
