~Version
 VERS              .         2.0                           : CWLS LOG ASCII STANDARD - VERSION 2.0
 WRAP              .         NO                            : ONE LINE PER DEPTH STEP
 DLM               .         SPACE                         : DELIMITING CHARACTER(SPACE TAB OR COMMA)
~Well Information
#_______________________________________________________________________________
#
#PARAMETER_NAME    .UNIT     VALUE                         : DESCRIPTION
#_______________________________________________________________________________
STRT               .M        2658                          : First reference value
STOP               .M        2762                          : Last reference value
STEP               .M        0.2                           : Step increment
NULL               .         -9999                         : Missing value
COMP               .                                       : Company
WELL               .         616                           : Well name
FLD                .                                       : Field
LOC                .                                       : Location
CNTY               .                                       : County
STAT               .                                       : State
CTRY               .                                       : Country
SRVC               .                                       : Service Company
DATE               .                                       : Date
API                .                                       : API number
PROJECT_UPGRADE_TIME .         2021-03-18T21_24_50           : 
group              .         Good                          : 
~Parameter Information Block
#_______________________________________________________________________________
#
#PARAMETER_NAME    .UNIT     VALUE                         : DESCRIPTION
#_______________________________________________________________________________
SET                .         D8103_D                       : 
OTHER              .         Программное обеспечение станции MONITOR-386EX 25/12/99 15_08_10   BGF V52 22/08/01 16_56_30   4_SNGF_BGF_N_011645: 
OTHER_10           .         Тарировки_                    : 
OTHER_11           .         TM.GRD = 0.00412*TM$.UE + -2.13: 
OTHER_12           .         MN.ATM = (5.87652e-006*TM.GRD + 0.01993)*(MN$.UE + -2.72*TM.GRD + -1925): 
OTHER_13           .         GK.MKR/H = GK$.UE / 57.4657   : 
OTHER_2            .         Kedr.exe версия 3.4.2.51      : 
OTHER_3            .         KedrData.dll версия 3.4.2.24  : 
OTHER_4            .         Драйвер версия 2.1.0.2        : 
OTHER_5            .         Мнемоники версия 3.3 S        : 
OTHER_6            .         Прибор_ АКП4-90               : 
OTHER_7            .         Номер прибора_ 53             : 
OTHER_8            .         Режим_ АКП4_90                : 
OTHER_9            .         Форма_ ПК-53ое                : 
PROJECT_UPGRADE_TIME .         2021-03-18T21_24_50           : 
TLFamily_DEPT      .         Measured Depth                : 
TLFamily_GK        .         Gamma Ray                     : 
TLFamily_GK$       .                                       : 
TLFamily_LM        .         Casing Collar locator         : 
TLFamily_METKA     .                                       : 
TLFamily_METKA_1   .                                       : 
TLFamily_MN        .                                       : 
TLFamily_MN$       .                                       : 
TLFamily_RCOR      .                                       : 
TLFamily_SPID      .         Spontaneous Potential         : 
TLFamily_TENS      .         Cable Tension                 : 
TLFamily_TIME      .         Time                          : 
TLFamily_TM        .         Temperature                   : 
TLFamily_TM$       .         Temperature                   : 
group              .         prim                          : 
~Curve Information
#_______________________________________________________________________________
#
#LOGNAME           .UNIT     LOG_ID                        : DESCRIPTION
#_______________________________________________________________________________
DEPT               .M                                      : 1 Глубина, м -    0.0 см 
GK                 .MKR/H                                  : 13 Гамма-активность, мкр./ч -   65.0 см 
GK$                .UE                                     : 10 Гамма-активность, усл.ед. -   65.0 см 
LM                 .                                       : 9 Локатор муфт,  -   30.0 см 
METKA              .                                       : 3 Метки,  -    0.0 см 
METKA_1            .                                       : 14 Маркеры - 65 см 
MN                 .ATM                                    : 12 Давление, атм. -  140.0 см 
MN$                .UE                                     : 8 Давление, усл.ед. -  140.0 см 
RCOR               .CM/KM                                  : 5 Коррекция по ролику, см/км -    0.0 см 
SPID               .M/H                                    : 2 Скорость, м/час -    0.0 см 
TENS               .T                                      : 6 Натяжение кабеля, т -    0.0 см 
TIME               .S                                      : 4 Время, сек -    0.0 см 
TM                 .GRD                                    : 11 Температура, °C -  145.0 см 
TM$                .UE                                     : 7 Температура, усл.ед. -  145.0 см 
~Ascii
# ...
2751.6     5.55       319        237        0          0          252.389    14589      -10        -332       0.8        2978.96    59.229     14893     
2751.8     5.61       322        425        0          0          252.394    14589      -10        -333       0.8        2976.83    59.353     14923     
2752       5.55       319        420        0          0          252.423    14590      -10        -335       0.8        2974.65    59.461     14949     
2752.2     5.46       314        587        0          0          252.433    14591      -10        -332       0.8        2972.46    59.524     14964     
2752.4     5.08       292        489        0          0          252.463    14592      -10        -340       0.8        2970.33    59.592     14981     
2752.6     4.97       285        304        0          0          252.473    14593      -10        -340       0.8        2968.26    59.721     15012     
2752.8     5.17       297        609        0          0          252.513    14595      -10        -337       0.8        2966.17    59.82      15037     
2753       5.07       291        398        0          0          252.546    14597      -10        -328       0.8        2964.08    59.876     15050     
2753.2     6.07       349        382        0          0          252.533    14596      -10        -308       0.8        2962.08    59.95      15068     
2753.4     6.14       353        288        0          0          252.553    14597      -10        -308       0.8        2959.7     60.002     15081     
2753.6     6.12       352        155        0          0          252.588    14599      -10        -317       0.8        2957.41    60.064     15096     
2753.8     5.67       326        682        0          0          252.599    14599      -10        -316       0.8        2955.1     60.103     15105     
2754       6.09       350        422        0          0          252.613    14600      -10        -319       0.8        2952.82    60.144     15115     
2754.2     6.11       351        974        0          0          252.633    14601      -10        -317       0.8        2950.53    60.206     15130     
2754.4     5.42       311        1020       0          0          252.687    14604      -10        -326       0.8        2948.11    60.255     15142     
2754.6     4.76       273        714        0          0          252.673    14603      -10        -331       0.8        2945.89    60.298     15152     
2754.8     5.43       312        1245       0          0          252.698    14604      -10        -330       0.79       2943.7     60.377     15172     
2755       6.14       353        681        0          0          252.752    14607      -10        -333       0.8        2941.51    60.453     15190     
2755.2     5.74       330        546        0          0          252.752    14607      -10        -343       0.8        2939.35    60.51      15204     
2755.4     5.8        333        890        0          0          252.759    14607      -10        -341       0.8        2937.23    60.539     15211     
2755.6     5.91       339        1461       0          0          252.792    14609      -10        -341       0.8        2935.04    60.56      15216     
2755.8     5.85       336        884        0          0          252.825    14611      -10        -346       0.8        2933.03    60.564     15217     
2756       5.42       311        484        0          0          252.822    14610      -10        -335       0.8        2930.97    60.572     15219     
2756.2     5.92       340        532        0          0          252.832    14611      -10        -321       0.8        2928.94    60.564     15217     
2756.4     6.02       346        464        0          0          252.872    14613      -10        -303       0.78       2927.04    60.539     15211     
2756.6     5.39       310        490        0          0          252.892    14614      -10        -309       0.78       2924.56    60.495     15200     
2756.8     5.28       303        876        0          0          252.862    14613      -10        -308       0.78       2922.22    60.441     15187     
2757       4.95       284        1030       0          0          252.932    14616      -10        -307       0.78       2919.8     60.41      15179     
2757.2     5.14       295        461        0          0          252.952    14617      -10        -305       0.78       2917.52    60.375     15171     
2757.4     6.04       347        521        0          0          252.952    14617      -10        -301       0.78       2915.23    60.341     15163     
2757.6     6.05       348        919        0          0          252.991    14619      -10        -305       0.78       2912.82    60.315     15156     
2757.8     5.3        305        408        0          0          253.011    14620      -10        -306       0.78       2910.41    60.286     15149     
2758       5.1        293        383        0          0          253.031    14621      -10        -315       0.78       2908       60.26      15143     
2758.2     5.18       298        460        0          0          253.005    14620      -10        -317       0.78       2905.71    60.229     15136     
2758.4     4.66       268        1751       0          0          253.051    14622      -10        -301       0.78       2903.41    60.21      15131     
2758.6     4.14       238        1335       0          0          253.091    14624      -10        -306       0.78       2901       60.21      15131     
2758.8     4.45       256        876        0          0          253.091    14624      -10        -306       0.76       2898.66    60.244     15139     
2759       4.46       256        1137       0          0          253.111    14625      -10        -298       0.77       2896.3     60.294     15151     
2759.2     4.58       263        878        0          0          253.171    14628      -10        -305       0.73       2893.89    60.35      15165     
2759.4     5.1        293        1          0          0          253.191    14629      -10        -292       0.73       2891.61    60.412     15180     
2759.6     6.4        368        1          0          0          253.171    14628      -10        -296       0.73       2889.32    60.479     15196     
2759.8     6.53       375        1          0          0          253.231    14631      -10        -288       0.71       2887.04    60.528     15208     
2760       5.49       316        1          0          0          253.224    14631      -10        -274       0.71       2884.76    60.554     15215     
2760.2     5.12       294        1          0          0          253.241    14632      -10        -234       0.67       2882.47    60.56      15216     
2760.4     5.62       323        1          0          0          253.244    14632      -10        -184       0.59       2880.06    60.56      15216     
2760.6     6.01       345        1          2          0          253.31     14635      -10        -77        0.54       2877.78    60.582     15221     
2760.8     5.67       326        1          0          0          253.27     14633      -9999      -9999      -9999      -9999      60.599     15226     
2761       5.61       322        1          -9999      0          253.29     14634      -9999      -9999      -9999      -9999      60.613     15229     
2761.2     5.81       334        -9999      -9999      0          253.33     14636      -9999      -9999      -9999      -9999      60.629     15233     
2761.4     -9999      -9999      -9999      -9999      1          253.33     14636      -9999      -9999      -9999      -9999      60.645     15237     
2761.6     -9999      -9999      -9999      -9999      0          253.31     14635      -9999      -9999      -9999      -9999      60.657     15240     
2761.8     -9999      -9999      -9999      -9999      0          253.337    14636      -9999      -9999      -9999      -9999      60.682     15246     
