~Version
 VERS              .         2.0                           : CWLS LOG ASCII STANDARD - VERSION 2.0
 WRAP              .         NO                            : ONE LINE PER DEPTH STEP
 DLM               .         SPACE                         : DELIMITING CHARACTER(SPACE TAB OR COMMA)
~Well Information
#_______________________________________________________________________________
#
#PARAMETER_NAME    .UNIT     VALUE                         : DESCRIPTION
#_______________________________________________________________________________
STRT               .M        0.2                           : First reference value
STOP               .M        2774.2                        : Last reference value
STEP               .M        0.2                           : Step increment
NULL               .         -9999                         : Missing value
COMP               .                                       : Company
WELL               .         616                           : Well name
FLD                .                                       : Field
LOC                .                                       : Location
CNTY               .                                       : County
STAT               .                                       : State
CTRY               .                                       : Country
SRVC               .                                       : Service Company
DATE               .                                       : Date
API                .                                       : API number
PROJECT_UPGRADE_TIME .         2021-03-18T21_24_50           : 
group              .         Good                          : 
~Parameter Information Block
#_______________________________________________________________________________
#
#PARAMETER_NAME    .UNIT     VALUE                         : DESCRIPTION
#_______________________________________________________________________________
SET                .         D1799_D_2                     : 
NPR                .                                       : 
OTHER              .         Программное обеспечение станции MONITOR-386EX 25/12/99 15_08_10   BGF V52 22/08/01 16_56_30   3.1_SNGF___BGF_N_092049: 
OTHER_10           .         Тарировки_                    : 
OTHER_11           .         TM.GRD = 0.00403*TM$.UE + -1.07: 
OTHER_12           .         MN.ATM = (9.34907e-006*TM.GRD + 0.02171)*(MN$.UE + -7.93*TM.GRD + -1787): 
OTHER_13           .         GK.MKR/H = LM. / 42.4676      : 
OTHER_14           .         GK.FLT = 0.1*GK.MKR/H[-1] + (1-0.1)*GK.MKR/H[0]: 
OTHER_2            .         Kedr.exe версия 3.4.2.51      : 
OTHER_3            .         KedrData.dll версия 3.4.2.24  : 
OTHER_4            .         Драйвер версия 2.1.1.3        : 
OTHER_5            .         Мнемоники версия 3.3 S        : 
OTHER_6            .         Прибор_ КСА-Т4                : 
OTHER_7            .         Номер прибора_ 03             : 
OTHER_8            .         Режим_ КСА-Т4                 : 
OTHER_9            .         Форма_ КВА.                   : 
PR                 .                                       : 
PROJECT_UPGRADE_TIME .         2021-03-18T21_24_49           : 
PRTY               .         ПП-603-1                      : N партии
SRV                .                                       : 
SRVC               .         Карпов                        : Начальник партии
TLFamily_DEPT      .         Measured Depth                : 
TLFamily_LM        .         Casing Collar locator         : 
TLFamily_MN        .                                       : 
TLFamily_TM        .         Temperature                   : 
group              .         second                        : 
~Curve Information
#_______________________________________________________________________________
#
#LOGNAME           .UNIT     LOG_ID                        : DESCRIPTION
#_______________________________________________________________________________
DEPT               .M                                      : Depth curve 
LM                 .е.ацп                                  : Локатор муфт,е.ацп 
MN                 .атм                                    : Манометрия, атм 
TM                 .град.C                                 : Термограмма по стволу скважины,град.C 
~Ascii
# ...
1638.2     2098.981   144.755    50.776    
1638.4     1941.968   144.784    50.779    
1638.6     1676.981   144.79     50.786    
1638.8     1521.991   144.805    50.791    
1639       1448.004   144.814    50.792    
1639.2     1480.984   144.852    50.795    
1639.4     1347.815   144.872    50.798    
1639.6     8023.669   144.893    50.802    
1639.8     5313.784   144.892    50.806    
1640       3544.956   144.912    50.81     
1640.2     3183.925   144.937    50.814    
1640.4     2567.026   144.957    50.818    
1640.6     2775.988   144.978    50.822    
1640.8     2680.074   144.999    50.828    
1641       3282       145        50.836    
1641.2     3281.919   145.018    50.842    
1641.4     2617.912   145.037    50.846    
1641.6     1896.989   145.058    50.849    
1641.8     1809.179   145.078    50.854    
1642       3274.971   145.099    50.861    
1642.2     3038.94    145.12     50.865    
1642.4     2549.989   145.13     50.865    
1642.6     2456.91    145.139    50.868    
1642.8     1722.953   145.17     50.872    
1643       1337.956   145.195    50.873    
1643.2     979.988    145.202    50.876    
1643.4     877.993    145.222    50.88     
1643.6     816.986    145.245    50.884    
1643.8     701.028    145.283    50.885    
1644       929.982    145.282    50.888    
1644.2     778.988    145.284    50.891    
1644.4     683.994    145.326    50.895    
1644.6     638.997    145.325    50.899    
1644.8     618.014    145.346    50.903    
1645       732.005    145.367    50.905    
1645.2     771.999    145.387    50.908    
1645.4     760.991    145.408    50.913    
1645.6     687        145.412    50.914    
1645.8     686.995    145.427    50.918    
1646       647.011    145.448    50.921    
1646.2     732.999    145.47     50.921    
1646.4     720.999    145.492    50.925    
1646.6     709.994    145.512    50.926    
1646.8     662.999    145.532    50.929    
1647       651.269    145.554    50.937    
1647.2     2845.023   145.574    50.937    
1647.4     3031.948   145.587    50.944    
1647.6     2608.93    145.594    50.945    
1647.8     2039.942   145.615    50.949    
1648       1568.963   145.635    50.952    
1648.2     1268.967   145.657    50.956    
1648.4     996.985    145.673    50.96     
1648.6     873.994    145.675    50.964    
1648.8     825.007    145.696    50.968    
1649       883.997    145.718    50.972    
1649.2     860.002    145.739    50.973    
1649.4     880.004    145.759    50.975    
1649.6     909.042    145.78     50.979    
1649.8     1248.993   145.801    50.983    
1650       1188.976   145.823    50.987    
1650.2     992.01     145.845    50.991    
1650.4     1074.244   145.847    50.995    
1650.6     3055       145.864    50.999    
1650.8     3055.388   145.885    51.002    
1651       6206.73    145.92     51.003    
1651.2     4008.845   145.934    51.01     
1651.4     2749.912   145.948    51.01     
1651.6     2038.057   145.956    51.01     
1651.8     2498.934   145.979    51.014    
1652       1959.948   146        51.018    
1652.2     1536.96    146.016    51.021    
1652.4     1210.973   146.051    51.025    
1652.6     989.981    146.064    51.032    
1652.8     839.018    146.07     51.034    
1653       983.98     146.09     51.037    
1653.2     824.989    146.111    51.041    
1653.4     736.99     146.13     51.045    
1653.6     658.031    146.131    51.048    
1653.8     906.009    146.151    51.052    
1654       979.016    146.173    51.054    
1654.2     1106.003   146.195    51.056    
1654.4     1130.993   146.215    51.06     
1654.6     1071       146.235    51.064    
1654.8     1070.991   146.238    51.067    
1655       994        146.254    51.071    
1655.2     991.032    146.275    51.075    
1655.4     1249.993   146.297    51.079    
1655.6     1192.99    146.317    51.082    
1655.8     1110       146.338    51.082    
1656       1113.011   146.359    51.086    
1656.2     1201.989   146.379    51.086    
1656.4     1110.994   146.4      51.09     
1656.6     1064.053   146.413    51.094    
1656.8     1496.959   146.42     51.094    
1657       1161.003   146.44     51.098    
1657.2     1185.079   146.46     51.101    
1657.4     1827.968   146.481    51.105    
1657.6     1571.956   146.5      51.106    
1657.8     1212.039   146.502    51.109    
1658       1524.968   146.543    51.113    
1658.2     1266.984   146.543    51.117    
1658.4     1134.003   146.585    51.12     
1658.6     1155.992   146.586    51.126    
1658.8     1090.028   146.586    51.131    
1659       1318.993   146.619    51.132    
1659.2     1261.981   146.647    51.136    
1659.4     1104.992   146.667    51.14     
1659.6     1042       146.673    51.143    
1659.8     1041.987   146.685    51.147    
1660       939.006    146.708    51.151    
1660.2     988.983    146.732    51.156    
1660.4     853.999    146.751    51.16     
1660.6     847.988    146.771    51.163    
1660.8     746.999    146.793    51.167    
1661       734.999    146.803    51.167    
1661.2     729.006    146.812    51.171    
1661.4     773.993    146.832    51.178    
1661.6     720.012    146.858    51.182    
1661.8     817.491    146.89     51.183    
1662       4780.805   146.895    51.189    
1662.2     3204.893   146.915    51.194    
1662.4     2343.93    146.936    51.195    
1662.6     1776.959   146.959    51.198    
1662.8     1445.965   146.98     51.202    
1663       1163.997   146.999    51.205    
1663.2     1141.98    146.998    51.209    
1663.4     981.021    147.018    51.211    
1663.6     1148       147.04     51.214    
1663.8     1147.959   147.061    51.219    
1664       821        147.064    51.22     
1664.2     820.992    147.096    51.224    
1664.4     757.205    147.107    51.227    
1664.6     2412.022   147.122    51.227    
1664.8     2587.926   147.142    51.228    
1665       1988.939   147.162    51.232    
1665.2     1499.969   147.183    51.235    
1665.4     1249.984   147.195    51.239    
1665.6     1120.006   147.212    51.243    
1665.8     1167.986   147.245    51.247    
1666       1055.989   147.267    51.247    
1666.2     963.995    147.282    51.254    
1666.4     923.016    147.285    51.258    
1666.6     1050.986   147.306    51.26     
1666.8     936        147.325    51.264    
1667       936.986    147.329    51.268    
1667.2     828.005    147.369    51.27     
1667.4     866.984    147.368    51.274    
1667.6     739.028    147.388    51.277    
1667.8     966.986    147.411    51.28     
1668       856.989    147.43     51.281    
1668.2     764.992    147.45     51.285    
1668.4     701        147.47     51.289    
1668.6     701.02     147.492    51.292    
1668.8     864.999    147.499    51.296    
1669       856        147.526    51.297    
1669.2     856.011    147.542    51.304    
1669.4     944.007    147.554    51.308    
1669.6     1000.984   147.576    51.308    
1669.8     873.021    147.595    51.312    
1670       1044.992   147.607    51.315    
1670.2     981.987    147.63     51.32     
1670.4     877.989    147.651    51.324    
1670.6     792.981    147.659    51.328    
1670.8     642.002    147.68     51.332    
1671       660.011    147.701    51.336    
1671.2     750        147.722    51.339    
1671.4     752.989    147.738    51.343    
1671.6     667.013    147.74     51.344    
1671.8     773        147.761    51.347    
1672       775.014    147.783    51.353    
1672.2     887.031    147.805    51.356    
1672.4     1131.997   147.823    51.36     
1672.6     1111.038   147.845    51.364    
1672.8     1414.589   147.867    51.366    
1673       6137.235   147.887    51.37     
1673.2     8023       147.889    51.374    
1673.4     8022.677   147.907    51.378    
1673.6     5430.776   147.927    51.38     
1673.8     3633.85    147.948    51.381    
1674       2430.908   147.969    51.385    
1674.2     1693.942   147.99     51.389    
1674.4     1224.982   147.998    51.393    
