~Version
 VERS              .         2.0                           : CWLS LOG ASCII STANDARD - VERSION 2.0
 WRAP              .         NO                            : ONE LINE PER DEPTH STEP
 DLM               .         SPACE                         : DELIMITING CHARACTER(SPACE TAB OR COMMA)
~Well Information
#_______________________________________________________________________________
#
#PARAMETER_NAME    .UNIT     VALUE                         : DESCRIPTION
#_______________________________________________________________________________
STRT               .M        2310.8                        : First reference value
STOP               .M        2792.2                        : Last reference value
STEP               .M        0.2                           : Step increment
NULL               .         -9999                         : Missing value
COMP               .                                       : Company
WELL               .         616                           : Well name
FLD                .                                       : Field
LOC                .                                       : Location
CNTY               .                                       : County
STAT               .                                       : State
CTRY               .                                       : Country
SRVC               .                                       : Service Company
DATE               .                                       : Date
API                .                                       : API number
PROJECT_UPGRADE_TIME .         2021-03-18T21_24_50           : 
group              .         Good                          : 
~Parameter Information Block
#_______________________________________________________________________________
#
#PARAMETER_NAME    .UNIT     VALUE                         : DESCRIPTION
#_______________________________________________________________________________
SET                .         D2660_D                       : 
OTHER              .         Программное обеспечение станции MONITOR-386EX 25/12/99 15_08_10   BGF V50 26/12/00 07_26_01   3.1_SNGF___BGF_N_092085: 
OTHER_10           .         Тарировки_                    : 
OTHER_2            .         Kedr.exe версия 3.3.2.32      : 
OTHER_3            .         KedrData.dll версия 3.3.2.17  : 
OTHER_4            .         Драйвер версия 2.1.0.1        : 
OTHER_5            .         Мнемоники версия 3.3 S        : 
OTHER_6            .         Прибор_ ПС                    : 
OTHER_7            .         Номер прибора_ 348\072        : 
OTHER_8            .         Режим_ ПС                     : 
OTHER_9            .         Форма_ ПС                     : 
PROJECT_UPGRADE_TIME .         2021-03-18T21_24_49           : 
TLFamily_DEPT      .         Measured Depth                : 
TLFamily_METKA     .                                       : 
TLFamily_PS        .         Spontaneous Potential         : 
TLFamily_RCOR      .                                       : 
TLFamily_SPID      .         Spontaneous Potential         : 
TLFamily_TENS      .         Cable Tension                 : 
TLFamily_TIME      .         Time                          : 
group              .         prim                          : 
~Curve Information
#_______________________________________________________________________________
#
#LOGNAME           .UNIT     LOG_ID                        : DESCRIPTION
#_______________________________________________________________________________
DEPT               .M                                      : 1 Глубина, м -    0.0 см 
METKA              .                                       : 3 Метки,  -    0.0 см 
PS                 .mV                                     : 7 ПС, мВ - 1210.0 см 
RCOR               .CM/KM                                  : 5 Коррекция по ролику, см/км -    0.0 см 
SPID               .M/H                                    : 2 Скорость, м/час -    0.0 см 
TENS               .T                                      : 6 Натяжение кабеля, т -    0.0 см 
TIME               .S                                      : 4 Время, сек -    0.0 см 
~Ascii
# ...
2331.6     0          442.09     -400       -1568      0          30679.11  
2331.8     0          493.03     -400       -1540      0          30678.65  
2332       0          505.88     -400       -1540      0          30678.17  
2332.2     0          511.51     -400       -1546      0          30677.71  
2332.4     0          513.05     -400       -1597      0          30677.25  
2332.6     0          510.82     -400       -1563      0          30676.8   
2332.8     0          508.39     -400       -1541      0          30676.34  
2333       0          501.79     -400       -1553      0          30675.87  
2333.2     0          503.04     -400       -1582      0          30675.41  
2333.4     0          505.39     -400       -1476      0          30674.96  
2333.6     0          505.11     -400       -1539      0          30674.51  
2333.8     0          507.58     -400       -1586      0          30673.99  
2334       0          509.84     -400       -1573      0          30673.54  
2334.2     0          512.36     -400       -1554      0          30673.08  
2334.4     0          513.13     -400       -1591      0          30672.63  
2334.6     0          513.49     -400       -1540      0          30672.2   
2334.8     0          514.24     -400       -1540      0          30671.73  
2335       0          517.19     -400       -1540      0          30671.24  
2335.2     0          519.76     -400       -1541      0          30670.79  
2335.4     0          518.43     -400       -1550      0          30670.33  
2335.6     0          517.26     -400       -1586      0          30669.87  
2335.8     0          515.52     -400       -1479      0          30669.43  
2336       0          517.68     -400       -1573      0          30668.96  
2336.2     0          518.08     -400       -1568      0          30668.48  
2336.4     0          518.85     -400       -1541      0          30668.04  
2336.6     0          519.56     -400       -1549      0          30667.59  
2336.8     0          520.02     -400       -1593      0          30667.1   
2337       0          519.27     -400       -1540      0          30666.65  
2337.2     0          517.62     -400       -1542      0          30666.19  
2337.4     0          516.33     -400       -1561      0          30665.73  
2337.6     0          518.22     -400       -1586      0          30665.26  
2337.8     0          519.01     -400       -1548      0          30664.81  
2338       0          518.25     -400       -1595      0          30664.37  
2338.2     0          518.64     -400       -1543      0          30663.89  
2338.4     0          519.55     -400       -1540      0          30663.44  
2338.6     0          519.66     -400       -1541      0          30662.99  
2338.8     0          517.97     -400       -1553      0          30662.5   
2339       0          517.11     -400       -1593      0          30662.05  
2339.2     0          517.01     -400       -1540      0          30661.58  
2339.4     0          517.56     -400       -1542      0          30661.12  
2339.6     0          516.59     -400       -1566      0          30660.67  
2339.8     1          518.28     -400       -1600      0          30660.22  
2340       0          518.87     -400       -1600      0          30659.76  
2340.2     0          520.53     -400       -1600      0          30659.31  
2340.4     0          521.05     -400       -1596      0          30658.84  
2340.6     0          520.07     -400       -1558      0          30658.38  
2340.8     0          520.38     -400       -1518      0          30657.96  
2341       0          520.38     -400       -1484      0          30657.51  
2341.2     0          517.15     -400       -1549      0          30657     
2341.4     0          516.22     -400       -1600      0          30656.55  
2341.6     0          516.68     -400       -1600      0          30656.08  
2341.8     0          517        -400       -1599      0          30655.62  
2342       0          516.33     -400       -1585      0          30655.17  
2342.2     0          516.38     -400       -1549      0          30654.72  
2342.4     0          515.77     -400       -1595      0          30654.27  
2342.6     0          517.83     -400       -1546      0          30653.83  
2342.8     0          519.65     -400       -1579      0          30653.34  
2343       0          517.33     -400       -1599      0          30652.89  
2343.2     0          510.78     -400       -1586      0          30652.44  
2343.4     0          498.36     -400       -1540      0          30652.01  
2343.6     0          391.56     -400       -1545      0          30651.54  
2343.8     0          312.24     -400       -1597      0          30651.07  
2344       0          415.96     -400       -1634      0          30650.63  
2344.2     0          485.68     -400       -1683      0          30650.14  
2344.4     0          507.54     -400       -1737      0          30649.73  
2344.6     0          515.69     -400       -1790      0          30649.29  
2344.8     0          521.55     -400       -1788      0          30648.9   
2345       0          524.58     -400       -1775      0          30648.49  
2345.2     0          526.52     -400       -1730      0          30648.09  
2345.4     0          528.92     -400       -1730      0          30647.69  
2345.6     0          529.79     -400       -1731      0          30647.28  
2345.8     0          530.24     -400       -1744      0          30646.85  
2346       0          531.16     -400       -1790      0          30646.46  
2346.2     0          531.3      -400       -1790      0          30646.05  
2346.4     0          532.01     -400       -1790      0          30645.64  
2346.6     0          532.54     -400       -1790      0          30645.25  
2346.8     0          533.57     -400       -1790      0          30644.85  
2347       0          533.29     -400       -1790      0          30644.46  
2347.2     0          533.64     -400       -1790      0          30644.04  
2347.4     0          533.22     -400       -1790      0          30643.64  
2347.6     0          533.48     -400       -1792      0          30643.25  
2347.8     0          533.15     -400       -1810      0          30642.86  
2348       0          532.89     -400       -1832      0          30642.46  
2348.2     0          532.6      -400       -1668      0          30642.05  
2348.4     0          532.69     -400       -1729      0          30641.66  
2348.6     0          531.96     -400       -1791      0          30641.26  
2348.8     0          532.26     -400       -1798      0          30640.85  
2349       0          532.11     -400       -1860      0          30640.42  
2349.2     0          529.64     -400       -1858      0          30640.02  
2349.4     0          531.45     -400       -1847      0          30639.63  
2349.6     0          532.7      -400       -1790      0          30639.24  
2349.8     1          533.62     -400       -1790      0          30638.86  
2350       0          534.07     -400       -1790      0          30638.47  
2350.2     0          534.13     -400       -1790      0          30638.07  
2350.4     0          534.59     -400       -1790      0          30637.63  
2350.6     0          534.67     -400       -1790      0          30637.27  
2350.8     0          534.73     -400       -1790      0          30636.87  
2351       0          534.6      -400       -1790      0          30636.47  
2351.2     0          534.65     -400       -1790      0          30636.06  
2351.4     0          534.8      -400       -1790      0          30635.64  
2351.6     0          535.15     -400       -1790      0          30635.24  
2351.8     0          535.37     -400       -1790      0          30634.86  
2352       0          535.26     -400       -1791      0          30634.48  
2352.2     0          535.47     -400       -1800      0          30634.07  
