~Version
 VERS              .         2.0                           : CWLS LOG ASCII STANDARD - VERSION 2.0
 WRAP              .         NO                            : ONE LINE PER DEPTH STEP
 DLM               .         SPACE                         : DELIMITING CHARACTER(SPACE TAB OR COMMA)
~Well Information
#_______________________________________________________________________________
#
#PARAMETER_NAME    .UNIT     VALUE                         : DESCRIPTION
#_______________________________________________________________________________
STRT               .M        9                             : First reference value
STOP               .M        197.4                         : Last reference value
STEP               .M        0.2                           : Step increment
NULL               .         -9999                         : Missing value
COMP               .                                       : Company
WELL               .         616                           : Well name
FLD                .                                       : Field
LOC                .                                       : Location
CNTY               .                                       : County
STAT               .                                       : State
CTRY               .                                       : Country
SRVC               .                                       : Service Company
DATE               .                                       : Date
API                .                                       : API number
PROJECT_UPGRADE_TIME .         2021-03-18T21_24_50           : 
group              .         Good                          : 
~Parameter Information Block
#_______________________________________________________________________________
#
#PARAMETER_NAME    .UNIT     VALUE                         : DESCRIPTION
#_______________________________________________________________________________
SET                .         616                           : 
CONF               .         00                            : 
END                .         0                             : 
ERR                .         0                             : 
GS00               .M        0195.38                       : 
GS01               .M        0006.66                       : 
MM00               .M        0080.00                       : 
NOKG               .         0                             : 
NPR                .         980402                        : 
PART               .         Палагутин                     : 
PROJECT_UPGRADE_TIME .         2021-03-18T21_24_49           : 
PRZK               .         Шакиров                       : 
TLFamily_AZIMUTH   .         True Dip Azimuth              : 
TLFamily_DEPTH     .         Measured Depth                : 
TLFamily_METKA     .                                       : 
TLFamily_ROLL      .                                       : 
TLFamily_SPEED     .         Spontaneous Potential         : 
TLFamily_ZENIT     .                                       : 
VPRG               .         310                           : 
WAY                .         UP                            : 
group              .         prim                          : 
~Curve Information
#_______________________________________________________________________________
#
#LOGNAME           .UNIT     LOG_ID                        : DESCRIPTION
#_______________________________________________________________________________
DEPTH              .M                                      :  
AZIMUTH            .DEG                                    :  
METKA              .                                       :  
ROLL               .DEG                                    :  
SPEED              .M/H                                    :  
ZENIT              .DEG                                    :  
~Ascii
# ...
131        245.59     0          281.01     540        9.07      
131.2      245.04     0          279.98     504        8.97      
131.4      245.14     0          279.43     504        9.05      
131.6      245.43     0          279.06     540        9.19      
131.8      244.53     0          278.55     540        9.06      
132        244.39     0          278.58     504        9.06      
132.2      245.8      1          278.15     468        9.27      
132.4      245.64     0          277.37     504        9.26      
132.6      244.17     0          276.82     540        8.98      
132.8      245.58     0          276.05     504        9.29      
133        246.09     0          275.73     540        9.44      
133.2      245.56     0          275.16     540        9.2       
133.4      247.32     0          274.36     504        9.49      
133.6      251        0          273.45     540        9.67      
133.8      274.81     0          272.67     540        9.54      
134        266.26     0          272.32     504        9.62      
134.2      248.13     0          271.6      468        9.76      
134.4      313.49     0          271.34     504        9.81      
134.6      256.95     0          271.1      540        9.79      
134.8      248.55     0          271.28     504        9.78      
135        246.06     0          272.06     504        9.91      
135.2      245.26     0          273.49     504        9.72      
135.4      245.59     0          273.87     504        9.88      
135.6      244.85     0          274.31     540        9.74      
135.8      244.96     0          276.11     540        9.84      
136        245.06     0          278.12     540        9.85      
136.2      244.79     0          279.39     468        9.77      
136.4      245.36     0          280.28     540        9.84      
136.6      245.31     0          280.38     540        9.91      
136.8      245.69     0          280.8      504        9.94      
137        246.15     0          280.43     504        9.97      
137.2      247.32     0          279.96     504        10.13     
137.4      245.81     0          280.07     540        10.01     
137.6      245.77     0          281.1      504        9.99      
137.8      248.29     0          280.27     504        10.3      
138        247.32     0          276.77     504        10.4      
138.2      245.75     0          275.38     540        10.2      
138.4      246.07     0          275.12     504        10.36     
138.6      246.59     0          274.84     576        10.43     
138.8      245.97     0          274.67     540        10.33     
139        246.02     0          275.38     504        10.39     
139.2      246.26     0          275.85     504        10.45     
139.4      246.22     0          275.59     540        10.46     
139.6      246.06     0          274.75     504        10.47     
139.8      246.02     0          274.42     540        10.52     
140        245.79     0          274.91     504        10.54     
140.2      245.7      0          275.35     468        10.46     
140.4      246.43     0          274.91     540        10.53     
140.6      246.46     0          274.2      540        10.61     
140.8      245.66     0          273.86     540        10.54     
141        245.99     0          274.85     504        10.61     
141.2      246        0          276.72     540        10.69     
141.4      246.15     0          277.92     540        10.63     
141.6      246.48     0          278.43     540        10.68     
141.8      246.6      0          279.42     540        10.77     
142        246.06     0          279.63     504        10.69     
142.2      245.6      1          279.4      468        10.66     
142.4      245.99     0          280.45     540        10.87     
142.6      246.18     0          282.7      540        10.91     
142.8      245.95     0          284.17     540        10.82     
143        246.12     0          285.06     504        10.92     
143.2      245.9      0          286.1      504        10.96     
143.4      246.38     0          287.13     504        10.94     
143.6      246.61     0          287.57     540        10.97     
143.8      246.72     0          287.67     540        11.08     
144        246.67     0          287.73     504        11.07     
144.2      246.76     0          288.48     468        11.07     
144.4      247.3      0          288.8      540        11.14     
144.6      247.57     0          287.94     504        11.16     
144.8      247.23     0          287.4      540        11.18     
145        247.7      0          286.64     504        11.19     
145.2      247.91     0          286.05     504        11.27     
145.4      249.38     0          285.94     504        11.42     
145.6      250.75     0          285.3      540        11.42     
145.8      254.81     0          284.67     504        11.39     
146        298.01     0          284.42     504        11.58     
146.2      198.08     0          284.15     504        11.77     
146.4      145.53     0          283.78     576        11.54     
146.6      211.75     0          283.32     540        11.69     
146.8      253.22     0          282.35     540        12.04     
147        248.97     0          282.98     504        11.7      
147.2      247.42     0          286.33     504        11.72     
147.4      247.5      0          289.28     540        11.75     
147.6      247.74     0          291.41     504        11.75     
147.8      247.12     0          293.22     540        11.65     
148        247.14     0          295.18     540        11.69     
148.2      247.69     0          297.06     432        11.72     
148.4      247.89     0          297.82     540        11.64     
148.6      248.4      0          296.87     540        11.73     
148.8      247.69     0          296.31     504        11.74     
149        247.23     0          296.74     504        11.68     
149.2      247.78     0          297        540        11.68     
149.4      248.38     0          296.48     540        11.77     
149.6      248.03     0          295.61     504        11.71     
149.8      247.45     0          294.82     540        11.65     
150        247.68     0          293.43     468        11.73     
150.2      249.53     0          291.19     468        12.09     
150.4      247.8      0          289.06     540        11.95     
150.6      247.7      0          288.45     504        11.98     
150.8      247.82     0          287.75     540        12.08     
151        248.09     0          287.67     540        12.13     
151.2      247.58     0          287.67     468        12.12     
151.4      246.74     0          287.96     540        12        
151.6      248.11     0          287.82     540        12.21     
151.8      247.67     0          287.63     540        12.18     
152        246.29     0          288.2      468        11.95     
152.2      247.77     1          287.72     504        12.24     
152.4      248.41     0          288.27     504        12.44     
152.6      246.92     0          289.33     540        12.18     
152.8      247.9      0          290.15     504        12.4      
153        246.93     0          291.13     504        12.27     
153.2      248.21     0          291.38     540        12.38     
153.4      247.27     0          291.35     540        12.23     
153.6      247.97     0          291.41     504        12.4      
153.8      248.15     0          291.05     540        12.43     
154        247.22     0          290.79     504        12.23     
154.2      249.16     0          289.11     540        12.62     
154.4      247.77     2          287.92     576        12.41     
154.6      247.95     0          291.36     504        12.5      
154.8      247.73     0          291        504        12.47     
155        247.29     0          290.85     504        12.4      
155.2      247.58     0          290.85     504        12.49     
