~Version
 VERS              .         2.0                           : CWLS LOG ASCII STANDARD - VERSION 2.0
 WRAP              .         NO                            : ONE LINE PER DEPTH STEP
 DLM               .         SPACE                         : DELIMITING CHARACTER(SPACE TAB OR COMMA)
~Well Information
#_______________________________________________________________________________
#
#PARAMETER_NAME    .UNIT     VALUE                         : DESCRIPTION
#_______________________________________________________________________________
STRT               .M        2700.4                        : First reference value
STOP               .M        2799                          : Last reference value
STEP               .M        0.2000002                     : Step increment
NULL               .         -9999                         : Missing value
COMP               .                                       : Company
WELL               .         616                           : Well name
FLD                .                                       : Field
LOC                .                                       : Location
CNTY               .                                       : County
STAT               .                                       : State
CTRY               .                                       : Country
SRVC               .                                       : Service Company
DATE               .                                       : Date
API                .                                       : API number
PROJECT_UPGRADE_TIME .         2021-03-18T21_24_50           : 
group              .         Good                          : 
~Parameter Information Block
#_______________________________________________________________________________
#
#PARAMETER_NAME    .UNIT     VALUE                         : DESCRIPTION
#_______________________________________________________________________________
SET                .         D2658_D                       : 
OTHER              .         Программное обеспечение станции MONITOR-386EX 25/12/99 15_08_10   BGF V50 26/12/00 07_26_01   3.1_SNGF___BGF_N_092085: 
OTHER_10           .         Тарировки_                    : 
OTHER_11           .         <_techsia_sc_> Постоянная времени фильтра ПС  0.5 сек, kf=0.139292: 
OTHER_2            .         Kedr.exe версия 3.3.2.32      : 
OTHER_3            .         KedrData.dll версия 3.3.2.17  : 
OTHER_4            .         Драйвер версия 2.1.0.7        : 
OTHER_5            .         Мнемоники версия 3.3 S        : 
OTHER_6            .         Прибор_ К1a-723м              : 
OTHER_7            .         Номер прибора_ 348/72         : 
OTHER_8            .         Режим_ K1A-723M               : 
OTHER_9            .         Форма_ БКЗ                    : 
PROJECT_UPGRADE_TIME .         2021-03-18T21_24_49           : 
TLFamily_BK        .         Lateral Log Resistivity       : 
TLFamily_DEPT      .         Measured Depth                : 
TLFamily_GZ1       .         Extra Shallow Resistivity     : 
TLFamily_GZ2       .         Shallow Resistivity           : 
TLFamily_GZ3       .         Medium Resistivity            : 
TLFamily_GZ4       .         Deep Resistivity              : 
TLFamily_GZ5       .         Extra Deep Resistivity        : 
TLFamily_GZ6       .         Medium Resistivity Inverted   : 
TLFamily_IBK       .                                       : 
TLFamily_IK        .         Conductivity                  : 
TLFamily_IPR       .                                       : 
TLFamily_METKA     .                                       : 
TLFamily_PS        .         Spontaneous Potential         : 
TLFamily_PZ        .         Potential Resistivity         : 
TLFamily_RCOR      .                                       : 
TLFamily_RES       .         Mud Resistivity               : 
TLFamily_SPID      .         Spontaneous Potential         : 
TLFamily_TENS      .         Cable Tension                 : 
TLFamily_TIME      .         Time                          : 
TLFamily_UBK       .         Uranium Concentration         : 
group              .         prim                          : 
~Curve Information
#_______________________________________________________________________________
#
#LOGNAME           .UNIT     LOG_ID                        : DESCRIPTION
#_______________________________________________________________________________
DEPT               .M                                      : 1 Глубина, м -    0.0 см 
BK                 .OHMM                                   : 20 БК, Ом*м - 1768.0 см 
GZ1                .OHMM                                   : 12 A0.4M0.1N, Ом*м - 1295.0 см 
GZ2                .OHMM                                   : 11 A1.0M0.1N, Ом*м - 1355.0 см 
GZ3                .OHMM                                   : 9 A2.0M0.5N, Ом*м - 1475.0 см 
GZ4                .OHMM                                   : 8 A4.0M0.5N, Ом*м - 1025.0 см 
GZ5                .OHMM                                   : 7 A8.0M1.0N, Ом*м - 1450.0 см 
GZ6                .OHMM                                   : 10 N0.5M2.0A, Ом*м - 1025.0 см 
IBK                .A                                      : 18 Ток БК, А - 1768.0 см 
IK                 .MSM/M                                  : 14 ИК, мСм/м - 1961.0 см 
IPR                .MA                                     : 17 Ток прибора, мA -    0.0 см 
METKA              .                                       : 3 Метки,  -    0.0 см 
PS                 .mV                                     : 16 ПС, мВ - 1210.0 см 
PZ                 .OHMM                                   : 13 N11M0.5A, Ом*м - 1225.0 см 
RCOR               .CM/KM                                  : 5 Коррекция по ролику, см/км -    0.0 см 
RES                .OHMM                                   : 15 Резистивиметр, Ом*м -  600.0 см 
SPID               .M/H                                    : 2 Скорость, м/час -    0.0 см 
TENS               .T                                      : 6 Натяжение кабеля, т -    0.0 см 
TIME               .S                                      : 4 Время, сек -    0.0 см 
UBK                .V                                      : 19 Напр. БК, В - 1768.0 см 
~Ascii
# ...
2767       21.21      18.7       23         25.4       27.6       24.8       25.1       0.011      83.4       426.667    0          580.01     14.2       -260       2.763      -1781      0          28217.8    0.94      
2767.2     21.19      27.3       27         25.4       28.5       23.9       22.5       0.011      83.4       426        0          580.49     12.7       -260       2.761      -1773      0          28217.39   0.935     
2767.4     9.05       21.5       18.2       17.7       20.6       20.7       15.4       0.025      86.4       427.333    0          580.38     11.5       -260       2.763      -1760      0          28216.99   0.939     
2767.6     7.86       15.7       13.5       10.1       11.6       14.7       9.8        0.029      93.4       426.512    0          580.95     10.9       -260       2.761      -1760      0          28216.61   0.945     
2767.8     7.16       12.4       13.4       7.1        7.9        9.1        8.4        0.031      101.4      424        0          580.95     11         -260       2.763      -1778      0          28216.2    0.938     
2768       7.42       10.7       13.6       6.1        6.4        6.7        8.4        0.029      106.6      425.6      0          581.18     11.2       -260       2.76       -1769      0          28215.79   0.915     
2768.2     7.66       9.5        13.5       5.3        5.5        5.7        8.5        0.027      109.1      424.8      0          581.07     11         -260       2.762      -1753      0          28215.41   0.886     
2768.4     7.85       9          11.6       4.9        4.9        5.2        8.1        0.026      110.6      427        0          580.27     10.8       -260       2.759      -1722      0          28214.99   0.86      
2768.6     8.17       9.1        10.4       4.8        4.7        5          8.1        0.024      111.4      425.366    0          579.19     10.4       -260       2.761      -1664      0          28214.57   0.84      
2768.8     7.75       9.6        9.9        5.5        4.5        4.9        8.2        0.025      111.1      426        0          578.88     10.2       -260       2.76       -1651      0          28214.19   0.832     
2769       7.31       9.6        9.9        6.8        4.5        4.8        8.4        0.027      110.3      426        0          580.52     10.4       -260       2.761      -1644      0          28213.77   0.832     
2769.2     7.28       9.4        10.2       8.5        4.4        5.2        8.8        0.027      110.8      425.2      0          581.5      10.6       -260       2.762      -1631      0          28213.34   0.832     
2769.4     7.03       8.9        9.9        10.7       4.7        5.3        9.1        0.028      111.7      424        0          581.55     10.8       -260       2.763      -1608      0          28212.94   0.828     
2769.6     7.82       8.7        9.4        11.3       4.6        5.5        9.3        0.025      111.2      425.366    0          579.93     10.9       -260       2.76       -1558      0          28212.49   0.826     
2769.8     8.04       9.1        9.5        10.9       4.7        5.5        9.5        0.024      110.6      426        1          578.5      10.9       -260       2.757      -1520      0          28212.05   0.825     
2770       8.18       9.5        9.2        10.4       4.7        5.5        9.5        0.024      108.4      425.333    0          578.12     10.8       -260       2.76       -1481      0          28211.33   0.825     
2770.2     7.86       9.8        9.2        10         4.7        5.4        9.7        0.025      109.1      426        0          578.28     10.9       -260       2.759      -1470      0          28210.91   0.826     
2770.4     7.96       9.8        9.2        9.7        4.6        5.3        9.8        0.025      109.3      426        0          578.23     10.7       -260       2.759      -1471      0          28210.39   0.827     
2770.6     7.44       9.7        9.3        9.4        4.6        5.3        10.1       0.026      110        426        0          578.26     10.6       -260       2.761      -1472      0          28209.89   0.827     
2770.8     8.06       9.4        9.6        9.1        4.9        5.3        10.4       0.024      110.6      426        0          578.91     10.5       -260       2.762      -1474      0          28209.45   0.828     
2771       7.73       9.8        10         9.1        5.7        5.4        10.3       0.025      109.5      426.667    0          579.98     10.4       -260       2.763      -1477      0          28208.94   0.829     
2771.2     7.27       9.7        10         9.1        6.9        5.5        9.9        0.027      109.2      426        0          580.92     10.4       -260       2.762      -1485      0          28208.44   0.834     
2771.4     7.7        9.4        9.7        9          8.6        5.6        8.8        0.026      108.1      426        0          581.63     10.5       -260       2.76       -1500      0          28207.97   0.843     
2771.6     7.54       9.5        9.9        8.9        10.1       5.5        8.1        0.027      107.4      428        0          581.01     11.1       -260       2.759      -1486      0          28207.51   0.861     
2771.8     7.23       9.3        9.4        8.6        10.3       5.7        8          0.029      104.8      424.994    0          581.1      11.9       -260       2.761      -1472      0          28207.01   0.88      
2772       7.12       9          8.8        8.4        9.7        5.6        7.9        0.03       103.6      428        0          579.54     12.9       -260       2.763      -1474      0          28206.54   0.901     
2772.2     8.07       8.4        8.1        8          9.1        5.7        8.1        0.027      99.8       426        0          577.86     13.9       -260       2.762      -1478      0          28206.13   0.924     
2772.4     8.44       8.8        8.2        7.9        8.8        6.2        8.6        0.026      96.3       426        0          575.76     14.4       -260       2.762      -1487      0          28205.56   0.938     
2772.6     8.83       9.3        8.5        8.7        9.2        7          9.5        0.025      91.9       426        0          575.11     15.4       -260       2.762      -1503      0          28205.1    0.937     
2772.8     10.99      10.1       10         10.3       10.8       8.2        11.6       0.02       88.6       426        0          575.17     15.6       -260       2.76       -1462      0          28204.6    0.94      
2773       10.86      12.4       13         12.1       12.8       9.7        13.5       0.021      85.6       426.667    0          576.69     14.1       -260       2.758      -1486      0          28204.14   0.951     
2773.2     12.31      13.2       13.7       14.4       15.3       10.9       16         0.019      84.5       427.333    0          578.87     14         -260       2.76       -1494      0          28203.63   0.965     
2773.4     15.28      16.4       17.3       16.2       17.5       11         17.8       0.015      84.7       426        0          580.84     14         -260       2.763      -1473      0          28203.14   0.969     
2773.6     10.51      19.1       19.2       15.4       17.6       10.3       16.8       0.022      85.4       427.35     0          581.17     13.4       -260       2.763      -1476      0          28202.67   0.973     
2773.8     8.2        16         14.5       11.6       14.1       9.3        13.2       0.028      88.3       425.344    0          580.2      12.8       -260       2.764      -1482      0          28202.19   0.969     
2774       8.3        13.7       12.1       8.7        9.8        7.5        10         0.027      93.3       424        0          577.59     12.3       -260       2.761      -1494      0          28201.7    0.956     
2774.2     8.59       11.7       11.5       7.6        8.1        6.2        9.2        0.026      97.2       426        0          575.98     11.9       -260       2.762      -1520      0          28201.21   0.938     
