~Version
 VERS              .         2.0                           : CWLS LOG ASCII STANDARD - VERSION 2.0
 WRAP              .         NO                            : ONE LINE PER DEPTH STEP
 DLM               .         SPACE                         : DELIMITING CHARACTER(SPACE TAB OR COMMA)
~Well Information
#_______________________________________________________________________________
#
#PARAMETER_NAME    .UNIT     VALUE                         : DESCRIPTION
#_______________________________________________________________________________
STRT               .M        46                            : First reference value
STOP               .M        2756.6                        : Last reference value
STEP               .M        0.2                           : Step increment
NULL               .         -9999                         : Missing value
COMP               .                                       : Company
WELL               .         616                           : Well name
FLD                .                                       : Field
LOC                .                                       : Location
CNTY               .                                       : County
STAT               .                                       : State
CTRY               .                                       : Country
SRVC               .                                       : Service Company
DATE               .                                       : Date
API                .                                       : API number
PROJECT_UPGRADE_TIME .         2021-03-18T21_24_50           : 
group              .         Good                          : 
~Parameter Information Block
#_______________________________________________________________________________
#
#PARAMETER_NAME    .UNIT     VALUE                         : DESCRIPTION
#_______________________________________________________________________________
SET                .         D4390_D                       : 
OTHER              .         Запись производится в присутствии: 
OTHER_10           .         Максимальная температура      : 
OTHER_100          .         GK.FLT = 0.1*GR.UR/H[-1] + (1-0.1)*GR.UR/H[0]: 
OTHER_11           .         Тип промывочной жидкости      : 
OTHER_12           .         Сопротивление ПЖ (Ом*м) при 20°C: 
OTHER_13           .         Плотность ПЖ(г/см3)           : 
OTHER_14           .         Вязкость ПЖ(с)                : 
OTHER_15           .         Водоотдача ПЖ(см3/30мин)      : 
OTHER_16           .         Уровень ПЖ                    : 
OTHER_17           .         Нефть ПЖ (%)                  : 
OTHER_18           .         Барит ПЖ (%)                  : 
OTHER_19           .         Гематит ПЖ (%)                : 
OTHER_2            .         Заказчик ННСН  ЦДНГ-1         : 
OTHER_20           .         КМЦ ПЖ (%)                    : 
OTHER_21           .         Разгазирование ПЖ (да,нет)    : 
OTHER_22           .         Подъемник                     : 
OTHER_23           .         Лаборатория                   : 
OTHER_24           .         Тип кабеля                    : 
OTHER_25           .         Длина кабеля (м)              : 
OTHER_26           .         Цена последней метки          : 
OTHER_27           .         Цена контрольной метки        : 
OTHER_28           .         Диаметр долота (мм)           : 
OTHER_29           .         Глубина бурения (м)           : 
OTHER_3            .         Площадь                       : 
OTHER_30           .         Искусственный забой (м)       : 
OTHER_31           .         Диаметр колонны (мм)          : 
OTHER_32           .         Толщина колонны (мм)          : 
OTHER_33           .         Башмак колонны (м)            : 
OTHER_34           .         Диаметр НКТ (мм)              : 
OTHER_35           .         Толщина НКТ (мм)              : 
OTHER_36           .         Воронка НКТ (м)               : 
OTHER_37           .         Дата цементожа                : 
OTHER_38           .         Тип, количество(т) и плотность цемента: 
OTHER_39           .         Интервалы перфорации (м)      : 
OTHER_4            .         Категория                     : 
OTHER_40           .         Направление, диаметр (мм)     : 
OTHER_41           .         Направление, глубина (м)      : 
OTHER_42           .         Кондуктор, диаметр (мм)       : 
OTHER_43           .         Кондуктор, глубина (м)        : 
OTHER_44           .         Техническая колонна, диаметр (мм): 
OTHER_45           .         Техническая колонна, глубина (м): 
OTHER_46           .         Эксплуатационная колонна, диаметр (мм): 
OTHER_47           .         Эксплуатационная колонна, глубина (м): 
OTHER_48           .         Программа Кедр-02 версия 3.4  : 
OTHER_49           .         Операционная система Windows NT 5.1 build 2600 Service Pack 2: 
OTHER_5            .         Назначение исследований       : 
OTHER_50           .         Программное обеспечение станции MONITOR-386EX 25/12/99 15_08_10   BGF V54 20/09/05 15_32_17   3.3__BGF_9030071: 
OTHER_51           .         Kedr.exe версия 3.4.2.74      : 
OTHER_52           .         KedrData.dll версия 3.4.2.29  : 
OTHER_53           .         Мнемоники версия 3.18 S       : 
OTHER_54           .         Драйвер версия 2.1.1.4        : 
OTHER_55           .         LasInf.dll 4.3.0.35           : 
OTHER_56           .         Прибор_ КСА-Т4                : 
OTHER_57           .         Номер прибора_ 160            : 
OTHER_58           .         Режим_ КСА-Т4                 : 
OTHER_59           .         Форма_ С.А.Б.                 : 
OTHER_6            .         Альтитуда стола ротора        : 
OTHER_60           .         Тарировки_                    : 
OTHER_61           .         <_techsia_sc_> Дата тарировки температуры 25.05.2010: 
OTHER_62           .         Ручной ввод коэффициентов     : 
OTHER_63           .         TM.DEGC = 0.00402*RTM.E.ACP + -0.994: 
OTHER_64           .         <_techsia_sc_> Дата тарировки давления 25.05.2010: 
OTHER_65           .         Ручной ввод коэффициентов     : 
OTHER_66           .         MN.ATM = (2.27521e-006*TM.DEGC + 0.02078)*(RMN.E.ACP + 6.2*TM.DEGC + -1688): 
OTHER_67           .         <_techsia_sc_> Дата тарировки ГК 25.05.2010: 
OTHER_68           .         Ручной ввод коэффициентов     : 
OTHER_69           .         GR.UR/H = RGR.IMP/MIN / 45.5144: 
OTHER_7            .         Вид исследований 3  6         : 
OTHER_70           .         GK.FLT = 0.1*GR.UR/H[-1] + (1-0.1)*GR.UR/H[0]: 
OTHER_71           .         <_techsia_sc_> Дата тарировки температуры 25.05.2010: 
OTHER_72           .         Ручной ввод коэффициентов     : 
OTHER_73           .         TM.DEGC = 0.00402*RTM.E.ACP + -0.994: 
OTHER_74           .         <_techsia_sc_> Дата тарировки давления 25.05.2010: 
OTHER_75           .         Ручной ввод коэффициентов     : 
OTHER_76           .         MN.ATM = (2.27521e-006*TM.DEGC + 0.02078)*(RMN.E.ACP + 6.2*TM.DEGC + -1688): 
OTHER_77           .         <_techsia_sc_> Дата тарировки ГК 25.05.2010: 
OTHER_78           .         Ручной ввод коэффициентов     : 
OTHER_79           .         GR.UR/H = RGR.IMP/MIN / 45.5144: 
OTHER_8            .         Начало бурения интервала каротажа: 
OTHER_80           .         GK.FLT = 0.1*GR.UR/H[-1] + (1-0.1)*GR.UR/H[0]: 
OTHER_81           .         <_techsia_sc_> Дата тарировки температуры 25.05.2010: 
OTHER_82           .         Ручной ввод коэффициентов     : 
OTHER_83           .         TM.DEGC = 0.00402*RTM.E.ACP + -0.994: 
OTHER_84           .         <_techsia_sc_> Дата тарировки давления 25.05.2010: 
OTHER_85           .         Ручной ввод коэффициентов     : 
OTHER_86           .         MN.ATM = (2.27521e-006*TM.DEGC + 0.02078)*(RMN.E.ACP + 6.2*TM.DEGC + -1688): 
OTHER_87           .         <_techsia_sc_> Дата тарировки ГК 25.05.2010: 
OTHER_88           .         Ручной ввод коэффициентов     : 
OTHER_89           .         GR.UR/H = RGR.IMP/MIN / 45.5144: 
OTHER_9            .         Окончание бурения интервала каротажа: 
OTHER_90           .         GK.FLT = 0.1*GR.UR/H[-1] + (1-0.1)*GR.UR/H[0]: 
OTHER_91           .         <_techsia_sc_> Дата тарировки температуры 25.05.2010: 
OTHER_92           .         Ручной ввод коэффициентов     : 
OTHER_93           .         TM.DEGC = 0.00402*RTM.E.ACP + -0.994: 
OTHER_94           .         <_techsia_sc_> Дата тарировки давления 25.05.2010: 
OTHER_95           .         Ручной ввод коэффициентов     : 
OTHER_96           .         MN.ATM = (2.27521e-006*TM.DEGC + 0.02078)*(RMN.E.ACP + 6.2*TM.DEGC + -1688): 
OTHER_97           .         <_techsia_sc_> Дата тарировки ГК 25.05.2010: 
OTHER_98           .         Ручной ввод коэффициентов     : 
OTHER_99           .         GR.UR/H = RGR.IMP/MIN / 45.5144: 
PROJECT_UPGRADE_TIME .         2021-03-18T21_24_50           : 
TLFamily_CCLC      .                                       : 
TLFamily_DEPT      .         Measured Depth                : 
TLFamily_GK        .         Gamma Ray                     : 
TLFamily_GR        .         Gamma Ray                     : 
TLFamily_METKA     .                                       : 
TLFamily_MN        .                                       : 
TLFamily_RCOR      .                                       : 
TLFamily_RGR       .                                       : 
TLFamily_RMN       .                                       : 
TLFamily_RTEN      .                                       : 
TLFamily_RTM       .                                       : 
TLFamily_SPEE      .         Cable Speed                   : 
TLFamily_TIME      .         Time                          : 
TLFamily_TM        .         Temperature                   : 
group              .         prim                          : 
~Curve Information
#_______________________________________________________________________________
#
#LOGNAME           .UNIT     LOG_ID                        : DESCRIPTION
#_______________________________________________________________________________
DEPT               .M                                      : 1 Глубина, м -    0.0 см 
CCLC               .E.ACP                                  : 9 Локатор муфт,  -   20.0 см 
GK                 .FLT                                    : 14 Гамма-активность фильтрованная, мкр./ч -  110.0 см 
GR                 .UR/H                                   : 13 Гамма-активность, мкр./ч -  110.0 см 
METKA              .CU                                     : 3 Метки,  -    0.0 см 
MN                 .ATM                                    : 12 Давление, атм. -  160.0 см 
RCOR               .CM/KM                                  : 5 Коррекция по ролику, см/км -    0.0 см 
RGR                .IMP/MIN                                : 10 Гамма-активность, усл.ед. -  110.0 см 
RMN                .E.ACP                                  : 8 Давление, усл.ед. -  160.0 см 
RTEN               .T                                      : 6 Натяжение кабеля, т -    0.0 см 
RTM                .E.ACP                                  : 7 Температура, усл.ед. -  170.0 см 
SPEE               .M/H                                    : 2 Скорость, м/час -    0.0 см 
TIME               .S                                      : 4 Время, сек -    0.0 см 
TM                 .DEGC                                   : 11 Температура, °C -  170.0 см 
~Ascii
# ...
950.8      638        6.72       6.72       0          87.503     -576       306        5721       0.06       6901       1646       1980.46    26.749    
951        5311       6.15       6.15       0          87.529     -576       280        5722       0.06       6902       1648       1980.92    26.754    
951.2      2407       6.15       6.15       0          87.53      -576       280        5722       0.06       6904       1650       1981.38    26.759    
951.4      1901       6.15       6.15       0          87.549     -576       280        5723       0.06       6905       1647       1981.82    26.763    
951.6      1444       6.15       6.15       0          87.56      -576       280        5723       0.06       6906       1645       1982.22    26.768    
951.8      1208       6.15       6.15       0          87.587     -576       280        5725       0.06       6907       1644       1982.67    26.774    
952        847        6.15       6.15       0          87.617     -576       280        5726       0.06       6910       1644       1983.11    26.783    
952.2      624        6.26       6.26       0          87.618     -576       285        5726       0.06       6912       1643       1983.55    26.791    
952.4      625        6.26       6.26       0          87.627     -576       285        5726       0.06       6914       1643       1983.98    26.798    
952.6      551        6.26       6.26       0          87.654     -576       285        5728       0.06       6915       1643       1984.42    26.804    
952.8      697        6.26       6.26       0          87.662     -576       285        5728       0.06       6916       1644       1984.88    26.808    
953        615        6.26       6.26       0          87.685     -576       285        5729       0.06       6917       1646       1985.32    26.81     
953.2      680        6.38       6.38       0          87.705     -576       291        5730       0.06       6918       1644       1985.74    26.815    
953.4      653        6.75       6.75       0          87.714     -576       307        5730       0.06       6919       1642       1986.21    26.82     
953.6      720        6.75       6.75       0          87.727     -576       307        5731       0.06       6920       1642       1986.65    26.825    
953.8      655        6.75       6.75       0          87.746     -576       307        5732       0.06       6922       1641       1987.08    26.83     
954        550        6.75       6.75       0          87.772     -576       307        5733       0.06       6923       1641       1987.51    26.838    
954.2      613        6.75       6.75       0          87.792     -576       307        5734       0.06       6925       1641       1987.95    26.846    
954.4      563        6.49       6.49       0          87.804     -576       295        5735       0.06       6927       1641       1988.4     26.852    
954.6      505        6.28       6.28       0          87.798     -576       286        5734       0.06       6927       1641       1988.83    26.853    
954.8      509        6.28       6.28       0          87.852     -576       286        5737       0.06       6928       1641       1989.26    26.857    
955        788        6.28       6.28       0          87.857     -576       286        5737       0.06       6929       1641       1989.71    26.859    
955.2      665        6.28       6.28       0          87.866     -576       286        5737       0.06       6930       1641       1990.15    26.864    
955.4      605        6.15       6.15       0          87.892     -576       280        5739       0.06       6931       1638       1990.59    26.869    
955.6      810        6.06       6.06       0          87.9       -576       276        5739       0.06       6932       1638       1991.03    26.874    
955.8      1212       6.06       6.06       0          87.922     -576       276        5740       0.06       6933       1641       1991.47    26.878    
956        1192       6.06       6.06       2          87.927     -575       276        5740       0.06       6935       1644       1991.88    26.883    
956.2      1208       6.06       6.06       0          87.953     -575       276        5741       0.06       6936       1647       1992.31    26.888    
956.4      1051       6.06       6.06       0          87.966     -575       276        5742       0.06       6938       1648       1992.76    26.897    
956.6      806        6.16       6.16       0          87.984     -575       280        5743       0.06       6939       1645       1993.19    26.901    
956.8      735        6.17       6.17       0          87.989     -575       281        5743       0.06       6939       1645       1993.62    26.903    
957        581        6.17       6.17       0          88.016     -575       281        5744       0.06       6941       1647       1994.08    26.91     
957.2      655        6.17       6.17       0          88.041     -575       281        5746       0.06       6942       1644       1994.51    26.913    
957.4      625        6.17       6.17       0          88.067     -575       281        5747       0.06       6943       1643       1994.95    26.917    
957.6      577        6.17       6.17       0          88.074     -575       281        5747       0.06       6945       1645       1995.37    26.923    
957.8      712        6.15       6.15       0          88.075     -575       280        5747       0.06       6946       1647       1995.84    26.931    
958        756        6.15       6.15       0          88.118     -575       280        5749       0.06       6948       1649       1996.28    26.938    
958.2      737        6.15       6.15       0          88.128     -575       280        5749       0.06       6950       1651       1996.72    26.944    
958.4      776        6.15       6.15       0          88.141     -575       280        5750       0.06       6952       1649       1997.15    26.953    
958.6      666        6.15       6.15       0          88.16      -575       280        5751       0.06       6954       1647       1997.6     26.959    
958.8      836        6.13       6.13       0          88.165     -575       279        5751       0.06       6955       1644       1998.04    26.967    
959        841        5.89       5.89       0          88.191     -575       268        5752       0.06       6957       1645       1998.47    26.972    
959.2      839        5.89       5.89       0          88.206     -575       268        5753       0.06       6958       1647       1998.87    26.977    
959.4      713        5.89       5.89       0          88.206     -575       268        5753       0.06       6958       1647       1999.3     26.977    
959.6      1167       5.89       5.89       0          88.226     -575       268        5754       0.06       6958       1646       1999.78    26.979    
959.8      1109       5.89       5.89       0          88.252     -575       268        5755       0.06       6959       1646       2000.22    26.981    
960        1089       5.53       5.53       0          88.269     -575       252        5756       0.06       6959       1645       2000.66    26.981    
960.2      1377       5.01       5.01       0          88.283     -575       228        5757       0.06       6960       1645       2001.1     26.985    
960.4      1222       5.01       5.01       0          88.309     -575       228        5758       0.06       6961       1644       2001.52    26.99     
960.6      1341       5.01       5.01       0          88.333     -575       228        5759       0.06       6962       1644       2001.95    26.993    
960.8      1267       5.01       5.01       0          88.337     -575       228        5759       0.06       6963       1645       2002.4     26.998    
961        7334       5.01       5.01       0          88.356     -575       228        5760       0.06       6965       1647       2002.84    27.004    
