~Version
 VERS              .         2.0                           : CWLS LOG ASCII STANDARD - VERSION 2.0
 WRAP              .         NO                            : ONE LINE PER DEPTH STEP
 DLM               .         SPACE                         : DELIMITING CHARACTER(SPACE TAB OR COMMA)
~Well Information
#_______________________________________________________________________________
#
#PARAMETER_NAME    .UNIT     VALUE                         : DESCRIPTION
#_______________________________________________________________________________
STRT               .M        21.55                         : First reference value
STOP               .M        2764.75                       : Last reference value
STEP               .M        0.2                           : Step increment
NULL               .         -9999                         : Missing value
COMP               .                                       : Company
WELL               .         616                           : Well name
FLD                .                                       : Field
LOC                .                                       : Location
CNTY               .                                       : County
STAT               .                                       : State
CTRY               .                                       : Country
SRVC               .                                       : Service Company
DATE               .                                       : Date
API                .                                       : API number
PROJECT_UPGRADE_TIME .         2021-03-18T21_24_50           : 
group              .         Good                          : 
~Parameter Information Block
#_______________________________________________________________________________
#
#PARAMETER_NAME    .UNIT     VALUE                         : DESCRIPTION
#_______________________________________________________________________________
SET                .         D7028_D_2                     : 
NPR                .         155                           : Номер прибора
OTHER              .         Kedr.exe версия 2.1.2.32      : 
OTHER_10           .         TM.GRD = 0.00404*TM$.UE + 0.07: 
OTHER_11           .         MN.ATM = (6.33279e-006*TM.GRD + 0.02401)*(MN$.UE + 2.72*TM.GRD + -2018): 
OTHER_12           .         GK.MKR/H = GK$.UE / 43.5489 + 0: 
OTHER_13           .         RES.SM = 0.00476*CRES.UE - 1.51709: 
OTHER_14           .         PL.GSM3 = 0 + 0 * (PL.UE / 1) +  0 * (PL.UE / 1)^2: 
OTHER_15           .         Постоянная времени ГГП = 6 сек: 
OTHER_16           .         Постоянная времени ГК = 6 сек : 
OTHER_2            .         KedrData.dll версия 3.2.2.14  : 
OTHER_3            .         LasInf.dll версия 3.2.0.13    : 
OTHER_4            .         Драйвер версия 1.2.0.5        : 
OTHER_5            .         Прибор_ КСА-M1                : 
OTHER_6            .         Номер прибора_ 155+р204       : 
OTHER_7            .         Режим_ КСА-М1 + ГГП + Резистивиметр: 
OTHER_8            .         Форма_ 223\2                  : 
OTHER_9            .         Тарировки_                    : 
PR                 .         КСА-Т7 М1                     : Тип прибора
PROJECT_UPGRADE_TIME .         2021-03-18T21_24_50           : 
PRTY               .         ПП-223_2                      : Номер партии
SRV                .         ЦКРС                          : Заказчик
SRVC               .         Лузин  А.Б.                   : Начальник партии
TLFamily_DEPT      .         Measured Depth                : 
TLFamily_LM        .         Casing Collar locator         : 
TLFamily_MN        .                                       : 
TLFamily_SPID      .         Spontaneous Potential         : 
TLFamily_TM        .         Temperature                   : 
group              .         second                        : 
~Curve Information
#_______________________________________________________________________________
#
#LOGNAME           .UNIT     LOG_ID                        : DESCRIPTION
#_______________________________________________________________________________
DEPT               .M                                      : Depth curve 
LM                 .е.ацп                                  : Локация муфт 
MN                 .атм                                    : Манометрия, атм 
SPID               .м/ч                                    : Скорость записи,м/час 
TM                 .град.С                                 : Термометрия,град.С 
~Ascii
# ...
926.75     2346.973   84.07      -1843.997  33.04     
926.95     1921.98    84.1       -1803.999  33.04     
927.15     1606.022   84.11      -1790      33.04     
927.35     1947.968   84.13      -1790.004  33.05     
927.55     1449.022   84.15      -1856      33.05     
927.75     1799.046   84.16      -1859.996  33.06     
927.95     2521.961   84.18      -1794.004  33.06     
928.15     1905.004   84.19      -1860      33.07     
928.35     1970.974   84.21      -1855.996  33.07     
928.55     1561.027   84.23      -1790.001  33.08     
928.75     1992.059   84.24      -1800.004  33.08     
928.95     2923.093   84.26      -1859.999  33.08     
929.15     4380.156   84.28      -1845.997  33.09     
929.35     6825.717   84.31      -1806.003  33.1      
929.55     2388.973   84.31      -1859.999  33.1      
929.75     1969.038   84.33      -1836.999  33.1      
929.95     2570.956   84.36      -1817.003  33.11     
930.15     1875.031   84.38      -1860      33.11     
930.35     2361.982   84.37      -1859.998  33.12     
930.55     2082.012   84.41      -1827.998  33.13     
930.75     2269.978   84.41      -1790      33.13     
930.95     1924.992   84.44      -1790      33.14     
931.15     1804.016   84.46      -1790      33.14     
931.35     2052.013   84.47      -1790      33.15     
931.55     2258.967   84.49      -1797.004  33.15     
931.75     1746.031   84.51      -1859.999  33.15     
931.95     2223.991   84.52      -1847.996  33.16     
932.15     2091.018   84.55      -1790      33.17     
932.35     2371.945   84.56      -1790      33.17     
932.55     1507.032   84.57      -1790.002  33.18     
932.75     2000.013   84.6       -1818.003  33.18     
932.95     2208.989   84.61      -1859.998  33.19     
933.15     2032.02    84.64      -1828      33.19     
933.35     2340.981   84.66      -1823.002  33.2      
933.55     2046.963   84.67      -1859.997  33.2      
933.75     1476.026   84.71      -1821.001  33.21     
933.95     1881.02    84.71      -1832.999  33.21     
934.15     2191.991   84.72      -1816.998  33.21     
934.35     2049.022   84.73      -1790      33.22     
934.55     2398.948   84.75      -1790.003  33.22     
934.75     1594.035   84.79      -1842.001  33.23     
934.95     2145.956   84.81      -1859.996  33.23     
935.15     1463.021   84.81      -1803.999  33.24     
935.35     1794.017   84.83      -1790      33.25     
935.55     2059.01    84.84      -1790.004  33.25     
935.75     2212.983   84.86      -1855.996  33.26     
935.95     1955.022   84.88      -1794      33.26     
936.15     2292.003   84.9       -1790      33.27     
936.35     2336.967   84.92      -1794.004  33.27     
936.55     1829.986   84.93      -1860      33.28     
936.75     1614.042   84.95      -1860      33.28     
936.95     2269.01    84.96      -1860      33.29     
937.15     2418.972   84.96      -1860      33.29     
937.35     1986       85         -1860      33.3      
937.55     1988.026   85.03      -1860      33.3      
937.75     2388.983   85.01      -1859.999  33.31     
937.95     2126.004   85.06      -1843.998  33.32     
938.15     2185.983   85.08      -1811.003  33.32     
938.35     1919.997   85.1       -1859.999  33.32     
938.55     1870.963   85.11      -1838.999  33.33     
938.75     1295.03    85.13      -1831.003  33.34     
938.95     1761.997   85.13      -1871.995  33.34     
939.15     1718.039   85.16      -1790.002  33.34     
939.35     2329.005   85.18      -1819.003  33.34     
939.55     2401.016   85.2       -1860      33.35     
939.75     2652.084   85.21      -1859.998  33.36     
939.95     3953.101   85.23      -1827      33.37     
940.15     5515.185   85.23      -1825.002  33.37     
940.35     8382.611   85.25      -1860      33.38     
940.55     2361.021   85.29      -1860      33.38     
940.75     2692.962   85.3       -1860      33.38     
940.95     2109.015   85.31      -1860      33.39     
941.15     2338.997   85.33      -1860      33.4      
941.35     2297.96    85.34      -1859.999  33.4      
941.55     1684.004   85.37      -1843.997  33.4      
941.75     1753.008   85.39      -1790      33.41     
941.95     1874.005   85.42      -1790.001  33.41     
942.15     1956.021   85.43      -1808.003  33.41     
942.35     2279.974   85.43      -1860      33.42     
942.55     1875.009   85.44      -1859.998  33.43     
942.75     2017.982   85.45      -1831.999  33.43     
942.95     1736.992   85.5       -1819.003  33.44     
943.15     1614.005   85.5       -1859.998  33.45     
943.35     1689.022   85.52      -1825      33.45     
943.55     2026.022   85.55      -1825.002  33.45     
943.75     2368.039   85.56      -1860      33.46     
943.95     2964.945   85.58      -1859.997  33.47     
944.15     2120.978   85.59      -1817.998  33.47     
944.35     1779.026   85.61      -1790      33.47     
944.55     2172.981   85.62      -1790.003  33.48     
944.75     1884.984   85.64      -1839.001  33.48     
944.95     1646.05    85.69      -1860      33.49     
945.15     2409.964   85.7       -1859.996  33.49     
945.35     1855.005   85.7       -1804.003  33.5      
945.55     1934.007   85.72      -1846.001  33.51     
945.75     2038.992   85.73      -1860      33.51     
945.95     1914.024   85.74      -1859.996  33.51     
946.15     2287.982   85.75      -1794      33.51     
946.35     2007.002   85.79      -1790      33.52     
946.55     2031.977   85.8       -1790.005  33.53     
946.75     1676.99    85.82      -1860      33.53     
946.95     1521.029   85.85      -1860      33.54     
947.15     1961.999   85.85      -1852.996  33.54     
947.35     1952.015   85.87      -1790.001  33.55     
947.55     2188.013   85.88      -1801.003  33.55     
947.75     2381.962   85.9       -1848.996  33.55     
947.95     1792.038   85.94      -1789.999  33.55     
948.15     2370.043   85.93      -1775      33.56     
948.35     3027.949   85.97      -1768.006  33.56     
948.55     2240       85.97      -1860.002  33.57     
948.75     2246.998   85.98      -1884.999  33.57     
948.95     2210       86         -1863.995  33.57     
949.15     2204.004   86.02      -1790      33.58     
949.35     2257.981   86.03      -1790.002  33.59     
949.55     1973.998   86.05      -1825      33.59     
949.75     1942.994   86.07      -1822.998  33.6      
949.95     1844.011   86.08      -1790.003  33.6      
950.15     2012.997   86.1       -1832.002  33.61     
950.35     1963.017   86.11      -1860      33.61     
950.55     2216.014   86.14      -1859.997  33.62     
950.75     2431.018   86.17      -1815.998  33.62     
950.95     2709.089   86.18      -1790      33.63     
951.15     4073.152   86.2       -1790      33.63     
951.35     6392.688   86.21      -1790      33.64     
951.55     1625.006   86.22      -1790      33.64     
951.75     1721.033   86.24      -1790      33.65     
951.95     2222.977   86.26      -1790      33.65     
952.15     1867.006   86.29      -1790      33.66     
952.35     1965.011   86.31      -1790.002  33.66     
952.55     2130.032   86.32      -1825.002  33.67     
952.75     2617.96    86.34      -1859.995  33.67     
952.95     2003.988   86.37      -1781.002  33.67     
953.15     1826.994   86.38      -1814.003  33.68     
953.35     1730.031   86.4       -1859.996  33.67     
953.55     2197.996   86.42      -1805.003  33.69     
953.75     2141.005   86.42      -1849.001  33.69     
953.95     2214.972   86.44      -1860      33.7      
954.15     1786.009   86.47      -1859.996  33.71     
954.35     1925.02    86.47      -1797.004  33.71     
954.55     2229.991   86.49      -1853      33.71     
954.75     2089.012   86.51      -1859.995  33.72     
954.95     2266.986   86.52      -1790.005  33.72     
955.15     2055.005   86.54      -1860      33.73     
955.35     2125.988   86.57      -1860      33.73     
955.55     1948.978   86.59      -1855.996  33.74     
955.75     1617.036   86.6       -1790      33.75     
