~Version
 VERS              .         2.0                           : CWLS LOG ASCII STANDARD - VERSION 2.0
 WRAP              .         NO                            : ONE LINE PER DEPTH STEP
 DLM               .         SPACE                         : DELIMITING CHARACTER(SPACE TAB OR COMMA)
~Well Information
#_______________________________________________________________________________
#
#PARAMETER_NAME    .UNIT     VALUE                         : DESCRIPTION
#_______________________________________________________________________________
STRT               .M        0.2                           : First reference value
STOP               .M        2774.2                        : Last reference value
STEP               .M        0.2                           : Step increment
NULL               .         -9999                         : Missing value
COMP               .                                       : Company
WELL               .         616                           : Well name
FLD                .                                       : Field
LOC                .                                       : Location
CNTY               .                                       : County
STAT               .                                       : State
CTRY               .                                       : Country
SRVC               .                                       : Service Company
DATE               .                                       : Date
API                .                                       : API number
PROJECT_UPGRADE_TIME .         2021-03-18T21_24_50           : 
group              .         Good                          : 
~Parameter Information Block
#_______________________________________________________________________________
#
#PARAMETER_NAME    .UNIT     VALUE                         : DESCRIPTION
#_______________________________________________________________________________
SET                .         D1799_D_2                     : 
NPR                .                                       : 
OTHER              .         Программное обеспечение станции MONITOR-386EX 25/12/99 15_08_10   BGF V52 22/08/01 16_56_30   3.1_SNGF___BGF_N_092049: 
OTHER_10           .         Тарировки_                    : 
OTHER_11           .         TM.GRD = 0.00403*TM$.UE + -1.07: 
OTHER_12           .         MN.ATM = (9.34907e-006*TM.GRD + 0.02171)*(MN$.UE + -7.93*TM.GRD + -1787): 
OTHER_13           .         GK.MKR/H = LM. / 42.4676      : 
OTHER_14           .         GK.FLT = 0.1*GK.MKR/H[-1] + (1-0.1)*GK.MKR/H[0]: 
OTHER_2            .         Kedr.exe версия 3.4.2.51      : 
OTHER_3            .         KedrData.dll версия 3.4.2.24  : 
OTHER_4            .         Драйвер версия 2.1.1.3        : 
OTHER_5            .         Мнемоники версия 3.3 S        : 
OTHER_6            .         Прибор_ КСА-Т4                : 
OTHER_7            .         Номер прибора_ 03             : 
OTHER_8            .         Режим_ КСА-Т4                 : 
OTHER_9            .         Форма_ КВА.                   : 
PR                 .                                       : 
PROJECT_UPGRADE_TIME .         2021-03-18T21_24_49           : 
PRTY               .         ПП-603-1                      : N партии
SRV                .                                       : 
SRVC               .         Карпов                        : Начальник партии
TLFamily_DEPT      .         Measured Depth                : 
TLFamily_LM        .         Casing Collar locator         : 
TLFamily_MN        .                                       : 
TLFamily_TM        .         Temperature                   : 
group              .         second                        : 
~Curve Information
#_______________________________________________________________________________
#
#LOGNAME           .UNIT     LOG_ID                        : DESCRIPTION
#_______________________________________________________________________________
DEPT               .M                                      : Depth curve 
LM                 .е.ацп                                  : Локатор муфт,е.ацп 
MN                 .атм                                    : Манометрия, атм 
TM                 .град.C                                 : Термограмма по стволу скважины,град.C 
~Ascii
# ...
182.2      669.999    17.935     18.998    
182.4      603        17.957     19.002    
182.6      568        17.975     19.008    
182.8      601.001    17.981     19.014    
183        673.999    18.017     19.018    
183.2      622.999    18.019     19.025    
183.4      581        18.041     19.03     
183.6      612        18.065     19.034    
183.8      603        18.101     19.041    
184        597        18.107     19.047    
184.2      590        18.129     19.051    
184.4      599        18.149     19.059    
184.6      601        18.162     19.067    
184.8      585        18.171     19.072    
185        557        18.191     19.076    
185.2      535.002    18.213     19.083    
185.4      646.001    18.244     19.088    
185.6      702.999    18.268     19.092    
185.8      613.999    18.278     19.096    
186        565        18.301     19.101    
186.2      585        18.309     19.109    
186.4      570.001    18.321     19.113    
186.6      611        18.343     19.117    
186.8      623        18.379     19.121    
187        624.999    18.394     19.125    
187.2      566        18.408     19.13     
187.4      550        18.429     19.137    
187.6      557        18.45      19.141    
187.8      588.002    18.471     19.145    
188        707        18.495     19.149    
188.2      684        18.517     19.154    
188.4      661        18.52      19.158    
188.6      665        18.558     19.162    
188.8      644.001    18.583     19.166    
189        702        18.583     19.172    
189.2      717        18.603     19.179    
189.4      710.999    18.624     19.181    
189.6      669.999    18.645     19.184    
189.8      614        18.666     19.191    
190        594.001    18.67      19.195    
190.2      633        18.709     19.203    
190.4      663        18.726     19.209    
190.6      639        18.751     19.213    
190.8      623        18.76      19.217    
191        614        18.782     19.221    
191.2      610.999    18.803     19.225    
191.4      561        18.824     19.229    
191.6      549.047    18.835     19.233    
191.8      3821.043   18.859     19.237    
192        6840.965   18.878     19.242    
192.2      4390.978   18.89      19.246    
192.4      2862.986   18.912     19.25     
192.6      1886.992   18.933     19.254    
192.8      1311.995   18.941     19.258    
193        958.997    18.954     19.263    
193.2      768.999    18.991     19.27     
193.4      670        19.02      19.274    
193.6      688        19.025     19.278    
193.8      661.999    19.041     19.281    
194        600.001    19.063     19.283    
194.2      637.999    19.084     19.287    
194.4      559        19.105     19.292    
194.6      558        19.126     19.299    
194.8      557.001    19.13      19.304    
195        614.001    19.147     19.313    
195.2      694        19.168     19.319    
195.4      660        19.19      19.323    
195.6      635        19.212     19.327    
195.8      635        19.235     19.332    
196        636        19.256     19.338    
196.2      665.002    19.277     19.342    
196.4      801.999    19.278     19.344    
196.6      766        19.298     19.35     
196.8      757        19.321     19.356    
197        737.999    19.362     19.36     
197.2      680.999    19.363     19.365    
197.4      629.001    19.384     19.371    
197.6      683        19.403     19.377    
197.8      710        19.405     19.381    
198        726.999    19.435     19.385    
198.2      659.001    19.466     19.393    
198.4      719        19.478     19.398    
198.6      707        19.508     19.402    
198.8      727.001    19.514     19.406    
199        785.998    19.529     19.41     
199.2      681.999    19.541     19.414    
199.4      604        19.578     19.418    
199.6      577.999    19.592     19.422    
199.8      543.001    19.601     19.43     
200        614        19.623     19.435    
200.2      598        19.644     19.439    
200.4      585        19.665     19.447    
200.6      587        19.687     19.451    
200.8      564        19.709     19.455    
201        585.999    19.718     19.455    
201.2      541.001    19.731     19.459    
201.4      609.999    19.752     19.463    
201.6      531        19.773     19.467    
201.8      518        19.796     19.471    
202        509.999    19.818     19.476    
202.2      451        19.824     19.48     
202.4      477        19.855     19.484    
202.6      487        19.865     19.489    
202.8      501        19.882     19.495    
203        520.071    19.904     19.498    
203.2      5189.972   19.944     19.506    
203.4      3352.984   19.95      19.511    
203.6      2288.99    19.968     19.513    
203.8      1599.993   19.989     19.517    
204        1163.996   20.013     19.521    
204.2      884.998    20.034     19.525    
204.4      730.999    20.034     19.529    
204.6      639        20.056     19.533    
204.8      633.999    20.077     19.54     
205        587.999    20.098     19.546    
205.2      545        20.12      19.55     
205.4      538.001    20.139     19.556    
205.6      578.001    20.141     19.562    
205.8      628.999    20.162     19.566    
206        556.999    20.183     19.573    
206.2      522        20.201     19.578    
206.4      524        20.207     19.582    
206.6      499        20.246     19.589    
206.8      475.005    20.264     19.594    
207        801.003    20.269     19.599    
207.2      1011       20.291     19.6      
207.4      982.997    20.313     19.606    
207.6      792.998    20.335     19.611    
207.8      646.999    20.348     19.615    
208        580.999    20.357     19.62     
208.2      507        20.378     19.624    
208.4      492.999    20.407     19.628    
208.6      448.999    20.441     19.635    
208.8      405        20.454     19.64     
209        429        20.462     19.647    
209.2      447.999    20.474     19.652    
209.4      415        20.497     19.656    
209.6      420        20.528     19.661    
209.8      409        20.55      19.665    
210        429        20.558     19.669    
210.2      413        20.575     19.678    
210.4      401.001    20.615     19.682    
210.6      447        20.621     19.686    
210.8      450        20.621     19.689    
211        441.001    20.64      19.692    
211.2      488        20.663     19.698    
211.4      479        20.706     19.703    
211.6      505        20.728     19.707    
211.8      521        20.727     19.711    
212        537        20.747     19.717    
212.2      532        20.771     19.723    
212.4      549        20.79      19.727    
212.6      532.999    20.791     19.731    
212.8      489        20.813     19.735    
213        500        20.834     19.739    
213.2      484        20.855     19.743    
213.4      469.999    20.879     19.748    
213.6      425        20.895     19.752    
213.8      431        20.901     19.756    
214        439.066    20.922     19.76     
214.2      4594.032   20.944     19.764    
214.4      6617.962   20.965     19.768    
214.6      4226       20.985     19.776    
214.8      4225.976   21.007     19.78     
215        2731.985   21.021     19.784    
215.2      1788.993   21.028     19.788    
215.4      1342.992   21.051     19.797    
215.6      864.999    21.072     19.801    
215.8      783.998    21.094     19.809    
216        667        21.114     19.813    
216.2      636        21.134     19.817    
216.4      606        21.155     19.825    
216.6      584.999    21.176     19.829    
216.8      532.999    21.199     19.833    
217        485        21.209     19.838    
217.2      457        21.222     19.842    
217.4      459        21.243     19.846    
217.6      481        21.278     19.85     
217.8      506.001    21.294     19.854    
218        537.001    21.294     19.858    
218.2      587        21.306     19.863    
218.4      567        21.327     19.871    
