~Version
 VERS              .         2.0                           : CWLS LOG ASCII STANDARD - VERSION 2.0
 WRAP              .         NO                            : ONE LINE PER DEPTH STEP
 DLM               .         SPACE                         : DELIMITING CHARACTER(SPACE TAB OR COMMA)
~Well Information
#_______________________________________________________________________________
#
#PARAMETER_NAME    .UNIT     VALUE                         : DESCRIPTION
#_______________________________________________________________________________
STRT               .M        2656                          : First reference value
STOP               .M        2756.3999                     : Last reference value
STEP               .M        0.1999998                     : Step increment
NULL               .         -9999                         : Missing value
COMP               .                                       : Company
WELL               .         616                           : Well name
FLD                .                                       : Field
LOC                .                                       : Location
CNTY               .                                       : County
STAT               .                                       : State
CTRY               .                                       : Country
SRVC               .                                       : Service Company
DATE               .                                       : Date
API                .                                       : API number
PROJECT_UPGRADE_TIME .         2021-03-18T21_24_50           : 
group              .         Good                          : 
~Parameter Information Block
#_______________________________________________________________________________
#
#PARAMETER_NAME    .UNIT     VALUE                         : DESCRIPTION
#_______________________________________________________________________________
SET                .         D4404_D                       : 
OTHER              .         Запись производится в присутствии: 
OTHER_10           .         Максимальная температура      : 
OTHER_11           .         Тип промывочной жидкости      : 
OTHER_12           .         Сопротивление ПЖ (Ом*м) при 20°C: 
OTHER_13           .         Плотность ПЖ(г/см3)           : 
OTHER_14           .         Вязкость ПЖ(с)                : 
OTHER_15           .         Водоотдача ПЖ(см3/30мин)      : 
OTHER_16           .         Уровень ПЖ                    : 
OTHER_17           .         Нефть ПЖ (%)                  : 
OTHER_18           .         Барит ПЖ (%)                  : 
OTHER_19           .         Гематит ПЖ (%)                : 
OTHER_2            .         Заказчик ННСН  ЦДНГ-1         : 
OTHER_20           .         КМЦ ПЖ (%)                    : 
OTHER_21           .         Разгазирование ПЖ (да,нет)    : 
OTHER_22           .         Подъемник                     : 
OTHER_23           .         Лаборатория                   : 
OTHER_24           .         Тип кабеля                    : 
OTHER_25           .         Длина кабеля (м)              : 
OTHER_26           .         Цена последней метки          : 
OTHER_27           .         Цена контрольной метки        : 
OTHER_28           .         Диаметр долота (мм)           : 
OTHER_29           .         Глубина бурения (м)           : 
OTHER_3            .         Площадь                       : 
OTHER_30           .         Искусственный забой (м)       : 
OTHER_31           .         Диаметр колонны (мм)          : 
OTHER_32           .         Толщина колонны (мм)          : 
OTHER_33           .         Башмак колонны (м)            : 
OTHER_34           .         Диаметр НКТ (мм)              : 
OTHER_35           .         Толщина НКТ (мм)              : 
OTHER_36           .         Воронка НКТ (м)               : 
OTHER_37           .         Дата цементожа                : 
OTHER_38           .         Тип, количество(т) и плотность цемента: 
OTHER_39           .         Интервалы перфорации (м)      : 
OTHER_4            .         Категория                     : 
OTHER_40           .         Направление, диаметр (мм)     : 
OTHER_41           .         Направление, глубина (м)      : 
OTHER_42           .         Кондуктор, диаметр (мм)       : 
OTHER_43           .         Кондуктор, глубина (м)        : 
OTHER_44           .         Техническая колонна, диаметр (мм): 
OTHER_45           .         Техническая колонна, глубина (м): 
OTHER_46           .         Эксплуатационная колонна, диаметр (мм): 
OTHER_47           .         Эксплуатационная колонна, глубина (м): 
OTHER_48           .         Программа Кедр-02 версия 3.4  : 
OTHER_49           .         Операционная система Windows NT 5.1 build 2600 Service Pack 2: 
OTHER_5            .         Назначение исследований       : 
OTHER_50           .         Программное обеспечение станции MONITOR-386EX 25/12/99 15_08_10   BGF V54 20/09/05 15_32_17   3.3__BGF_9030071: 
OTHER_51           .         Kedr.exe версия 3.4.2.74      : 
OTHER_52           .         KedrData.dll версия 3.4.2.29  : 
OTHER_53           .         Мнемоники версия 3.18 S       : 
OTHER_54           .         Драйвер версия 2.1.1.4        : 
OTHER_55           .         LasInf.dll 4.3.0.35           : 
OTHER_56           .         Прибор_ КСА-Т4                : 
OTHER_57           .         Номер прибора_ 160            : 
OTHER_58           .         Режим_ КСА-Т4                 : 
OTHER_59           .         Форма_ С.А.Б.                 : 
OTHER_6            .         Альтитуда стола ротора        : 
OTHER_60           .         Тарировки_                    : 
OTHER_61           .         <_techsia_sc_> Дата тарировки температуры 25.05.2010: 
OTHER_62           .         Ручной ввод коэффициентов     : 
OTHER_63           .         TM.DEGC = 0.00402*RTM.E.ACP + -0.994: 
OTHER_64           .         <_techsia_sc_> Дата тарировки давления 25.05.2010: 
OTHER_65           .         Ручной ввод коэффициентов     : 
OTHER_66           .         MN.ATM = (2.27521e-006*TM.DEGC + 0.02078)*(RMN.E.ACP + 6.2*TM.DEGC + -1688): 
OTHER_67           .         <_techsia_sc_> Дата тарировки ГК 25.05.2010: 
OTHER_68           .         Ручной ввод коэффициентов     : 
OTHER_69           .         GR.UR/H = RGR.IMP/MIN / 45.5144: 
OTHER_7            .         Вид исследований 3  6         : 
OTHER_70           .         GK.FLT = 0.1*GR.UR/H[-1] + (1-0.1)*GR.UR/H[0]: 
OTHER_8            .         Начало бурения интервала каротажа: 
OTHER_9            .         Окончание бурения интервала каротажа: 
PROJECT_UPGRADE_TIME .         2021-03-18T21_24_50           : 
TLFamily_CCLC      .                                       : 
TLFamily_DEPT      .         Measured Depth                : 
TLFamily_GK        .         Gamma Ray                     : 
TLFamily_GR        .         Gamma Ray                     : 
TLFamily_METKA     .                                       : 
TLFamily_MN        .                                       : 
TLFamily_RCOR      .                                       : 
TLFamily_RGR       .                                       : 
TLFamily_RMN       .                                       : 
TLFamily_RTEN      .                                       : 
TLFamily_RTM       .                                       : 
TLFamily_SPEE      .         Cable Speed                   : 
TLFamily_TIME      .         Time                          : 
TLFamily_TM        .         Temperature                   : 
group              .         prim                          : 
~Curve Information
#_______________________________________________________________________________
#
#LOGNAME           .UNIT     LOG_ID                        : DESCRIPTION
#_______________________________________________________________________________
DEPT               .M                                      : 1 Глубина, м -    0.0 см 
CCLC               .E.ACP                                  : 9 Локатор муфт,  -   20.0 см 
GK                 .FLT                                    : 14 Гамма-активность фильтрованная, мкр./ч -  110.0 см 
GR                 .UR/H                                   : 13 Гамма-активность, мкр./ч -  110.0 см 
METKA              .CU                                     : 3 Метки,  -    0.0 см 
MN                 .ATM                                    : 12 Давление, атм. -  160.0 см 
RCOR               .CM/KM                                  : 5 Коррекция по ролику, см/км -    0.0 см 
RGR                .IMP/MIN                                : 10 Гамма-активность, усл.ед. -  110.0 см 
RMN                .E.ACP                                  : 8 Давление, усл.ед. -  160.0 см 
RTEN               .T                                      : 6 Натяжение кабеля, т -    0.0 см 
RTM                .E.ACP                                  : 7 Температура, усл.ед. -  170.0 см 
SPEE               .M/H                                    : 2 Скорость, м/час -    0.0 см 
TIME               .S                                      : 4 Время, сек -    0.0 см 
TM                 .DEGC                                   : 11 Температура, °C -  170.0 см 
~Ascii
# ...
2676.799979 492        5.45       5.45       0          240.188    -1118      248        12783      0.21       15721      578        127.7      62.203    
2676.999979 5614       5.6        5.6        0          240.199    -1118      255        12784      0.21       15705      578        128.95     62.141    
2677.199979 1563       5.6        5.6        0          240.233    -1118      255        12786      0.21       15691      578        130.26     62.084    
2677.399979 557        5.58       5.58       0          240.237    -1118      254        12787      0.21       15680      579        131.48     62.038    
2677.599978 352        5.58       5.58       0          240.256    -1118      254        12788      0.21       15668      578        132.74     61.993    
2677.799978 317        5.16       5.16       0          240.277    -1118      235        12789      0.21       15660      578        133.97     61.959    
2677.999978 391        5.16       5.16       0          240.293    -1118      235        12790      0.21       15651      578        135.25     61.922    
2678.199978 248        5.01       5.01       0          240.308    -1118      228        12791      0.21       15643      579        136.52     61.891    
2678.399978 279        5.01       5.01       0          240.34     -1118      228        12793      0.21       15631      580        137.75     61.843    
2678.599977 559        5.43       5.43       0          240.355    -1118      247        12794      0.21       15619      579        138.97     61.794    
2678.799977 660        5.43       5.43       0          240.368    -1118      247        12795      0.21       15607      579        140.23     61.745    
2678.999977 514        5.36       5.36       0          240.377    -1118      244        12796      0.21       15593      578        141.53     61.691    
2679.199977 748        5.36       5.36       0          240.399    -1118      244        12797      0.21       15582      577        142.75     61.646    
2679.399977 566        5.23       5.23       0          240.417    -1118      238        12798      0.21       15570      577        144.02     61.596    
2679.599976 469        5.23       5.23       0          240.437    -1118      238        12800      0.21       15557      577        145.27     61.545    
2679.799976 334        5.23       5.23       0          240.454    -1118      238        12801      0.21       15542      577        146.51     61.485    
2679.999976 251        5.23       5.23       0          240.466    -1118      238        12802      0.21       15529      578        147.8      61.434    
2680.199976 271        5.43       5.43       0          240.479    -1118      247        12803      0.21       15516      578        149.05     61.38     
2680.399976 195        5.43       5.43       0          240.493    -1118      247        12804      0.21       15503      578        150.25     61.328    
2680.599975 217        6.04       6.04       0          240.507    -1118      275        12805      0.21       15493      578        151.52     61.289    
2680.799975 113        6.04       6.04       0          240.521    -1118      275        12806      0.21       15483      579        152.78     61.248    
2680.999975 139        6.37       6.37       0          240.553    -1118      290        12808      0.21       15468      580        154.03     61.189    
2681.199975 189        6.37       6.37       0          240.572    -1118      290        12809      0.21       15454      581        155.25     61.132    
2681.399975 163        6.31       6.31       0          240.591    -1118      287        12811      0.21       15440      580        156.48     61.075    
2681.599974 142        6.31       6.31       0          240.593    -1118      287        12811      0.21       15430      580        157.81     61.033    
2681.799974 172        5.91       5.91       0          240.63     -1118      269        12813      0.21       15418      581        159.03     60.985    
2681.999974 120        5.91       5.91       0          240.642    -1118      269        12814      0.21       15411      581        160.27     60.957    
2682.199974 120        6.09       6.09       0          240.653    -1118      277        12815      0.21       15394      580        161.51     60.891    
2682.399974 83         6.09       6.09       0          240.67     -1118      277        12816      0.21       15380      580        162.73     60.834    
2682.599973 101        6.5        6.5        0          240.689    -1118      296        12818      0.21       15368      580        164.05     60.784    
2682.799973 205        6.5        6.5        0          240.712    -1118      296        12819      0.21       15353      580        165.25     60.726    
2682.999973 245        6.92       6.92       0          240.724    -1118      315        12820      0.21       15339      580        166.5      60.67     
2683.199973 257        6.92       6.92       0          240.747    -1118      315        12822      0.21       15326      579        167.77     60.618    
2683.399973 176        6.9        6.9        0          240.75     -1118      314        12822      0.21       15314      579        169.04     60.566    
2683.599972 255        6.9        6.9        0          240.785    -1118      314        12824      0.21       15303      579        170.28     60.523    
2683.799972 221        6.66       6.66       0          240.783    -1118      303        12824      0.21       15289      579        171.55     60.469    
2683.999972 323        6.66       6.66       0          240.811    -1118      303        12826      0.21       15278      579        172.8      60.424    
2684.199972 213        7.32       7.32       0          240.822    -1118      333        12827      0.21       15264      579        174.03     60.366    
2684.399972 275        7.32       7.32       0          240.836    -1118      333        12828      0.21       15249      579        175.33     60.308    
2684.599971 255        7.4        7.4        0          240.871    -1118      337        12830      0.21       15239      580        176.52     60.265    
2684.799971 260        7.4        7.4        0          240.886    -1118      337        12831      0.21       15228      579        177.78     60.225    
2684.999971 221        7.56       7.56       0          240.9      -1118      344        12832      0.21       15219      579        179.05     60.187    
2685.199971 197        7.56       7.56       0          240.935    -1118      344        12834      0.21       15208      578        180.3      60.14     
2685.399971 153        7.56       7.56       0          240.945    -1118      344        12835      0.21       15197      580        181.56     60.099    
2685.59997 140        7.56       7.56       0          240.959    -1118      344        12836      0.21       15184      580        182.79     60.045    
2685.79997 191        7.29       7.29       0          240.969    -1118      332        12837      0.21       15166      581        184.02     59.973    
2685.99997 337        7.29       7.29       0          240.982    -1118      332        12838      0.21       15149      580        185.34     59.906    
2686.19997 240        7.51       7.51       0          241.016    -1118      342        12840      0.21       15138      580        186.54     59.86     
2686.39997 562        7.51       7.51       0          241.01     -1118      342        12840      0.21       15126      580        187.81     59.814    
2686.599969 3218       7.54       7.54       0          241.036    -1118      343        12842      0.21       15114      579        189        59.764    
2686.799969 1336       7.54       7.54       0          241.054    -1118      343        12843      0.21       15098      580        190.27     59.7      
2686.999969 378        8.59       8.59       0          241.074    -1118      391        12844      0.21       15084      579        191.59     59.645    
