~Version
 VERS              .         2.0                           : CWLS LOG ASCII STANDARD - VERSION 2.0
 WRAP              .         NO                            : ONE LINE PER DEPTH STEP
 DLM               .         SPACE                         : DELIMITING CHARACTER(SPACE TAB OR COMMA)
~Well Information
#_______________________________________________________________________________
#
#PARAMETER_NAME    .UNIT     VALUE                         : DESCRIPTION
#_______________________________________________________________________________
STRT               .M        827.6                         : First reference value
STOP               .M        1707.2                        : Last reference value
STEP               .M        0.2                           : Step increment
NULL               .         -9999                         : Missing value
COMP               .                                       : Company
WELL               .         616                           : Well name
FLD                .                                       : Field
LOC                .                                       : Location
CNTY               .                                       : County
STAT               .                                       : State
CTRY               .                                       : Country
SRVC               .                                       : Service Company
DATE               .                                       : Date
API                .                                       : API number
PROJECT_UPGRADE_TIME .         2021-03-18T21_24_50           : 
group              .         Good                          : 
~Parameter Information Block
#_______________________________________________________________________________
#
#PARAMETER_NAME    .UNIT     VALUE                         : DESCRIPTION
#_______________________________________________________________________________
SET                .         616_8                         : 
CONF               .         00                            : 
END                .         0                             : 
ERR                .         0                             : 
GS00               .M        1705.33                       : 
GS01               .M        0825.11                       : 
MM00               .M        0210.00                       : 
NOKG               .         0                             : 
NPR                .         980615                        : 
PART               .         Бутенко                       : 
PROJECT_UPGRADE_TIME .         2021-03-18T21_24_49           : 
PRZK               .         Шакиров                       : 
TLFamily_AZIMUTH   .         True Dip Azimuth              : 
TLFamily_DEPTH     .         Measured Depth                : 
TLFamily_METKA     .                                       : 
TLFamily_ROLL      .                                       : 
TLFamily_SPEED     .         Spontaneous Potential         : 
TLFamily_ZENIT     .                                       : 
VPRG               .         310                           : 
WAY                .         UP                            : 
group              .         prim                          : 
~Curve Information
#_______________________________________________________________________________
#
#LOGNAME           .UNIT     LOG_ID                        : DESCRIPTION
#_______________________________________________________________________________
DEPTH              .M                                      :  
AZIMUTH            .DEG                                    :  
METKA              .                                       :  
ROLL               .DEG                                    :  
SPEED              .M/H                                    :  
ZENIT              .DEG                                    :  
~Ascii
# ...
1120.4     253.41     0          154.95     648        31.61     
1120.6     255.66     0          154.61     648        32.14     
1120.8     255.47     0          154.5      648        32.16     
1121       254.88     0          154.37     648        31.96     
1121.2     255.5      0          154.34     612        32.14     
1121.4     253.87     0          154.3      648        31.75     
1121.6     256.64     0          154.35     612        32.22     
1121.8     255.45     0          154.68     648        31.7      
1122       261.58     1          153.1      648        32.28     
1122.2     267        0          152.33     612        32.31     
1122.4     296.86     0          152.97     648        32.09     
1122.6     285.02     0          153.69     684        32.43     
1122.8     191.26     0          154.6      648        32.11     
1123       84.46      0          156.52     648        32.57     
1123.2     319.36     0          168.2      648        32.04     
1123.4     275.27     0          187.85     648        31.89     
1123.6     263.6      0          200        612        32.69     
1123.8     258.93     0          208.71     648        32.23     
1124       254.02     0          216.56     648        31.84     
1124.2     255.31     0          232.77     648        31.71     
1124.4     254.27     0          253.05     648        32.41     
1124.6     252.04     0          284.22     612        33        
1124.8     250.5      0          319.29     648        32.64     
1125       251.78     0          359.03     684        31.54     
1125.2     250.82     0          43.45      648        31.2      
1125.4     256.6      0          79.48      648        32.39     
1125.6     251.41     0          102.35     612        31.91     
1125.8     254.74     0          117.4      612        32.53     
1126       252.94     0          130.9      648        32.22     
1126.2     255.38     0          139.12     648        32.05     
1126.4     256.57     0          141.76     612        32.38     
1126.6     248.29     0          148.25     648        32.11     
1126.8     252.65     0          153.63     648        31.76     
1127       255.57     0          153.82     612        32.21     
1127.2     255.05     0          153.38     648        32.12     
1127.4     253.92     0          152.55     648        31.83     
1127.6     256.04     0          151.67     648        32.38     
1127.8     253.65     0          151.6      648        31.92     
1128       255.39     0          151.78     576        32.3      
1128.2     255.41     0          151.79     648        32.31     
1128.4     253.2      0          151.93     648        31.91     
1128.6     256.05     0          152.59     648        32.54     
1128.8     254.32     0          153.16     648        32.14     
1129       253.29     0          153.66     612        32.01     
1129.2     255.77     0          154.02     648        32.47     
1129.4     253.97     0          153.75     648        32        
1129.6     255.42     0          153.21     648        32.4      
1129.8     255.31     0          152.77     648        32.38     
1130       252.3      0          152.78     612        31.7      
1130.2     256.64     0          153.45     648        32.63     
1130.4     254.58     0          153.84     612        32.17     
1130.6     254.78     0          153.69     648        32.21     
1130.8     255.19     0          153.33     648        32.28     
1131       253.76     0          152.93     648        31.96     
1131.2     255.46     0          152.82     648        32.38     
1131.4     253.85     0          152.71     648        31.98     
1131.6     254.44     0          152.41     648        32.14     
1131.8     256.05     0          152.36     648        32.53     
1132       254.23     1          152.8      648        32.13     
1132.2     255.43     0          153.35     684        32.43     
1132.4     254.33     0          153.9      612        32.12     
1132.6     256.04     0          154.34     648        32.49     
1132.8     253.77     0          154.53     648        32.04     
1133       254.77     0          154.45     648        32.19     
1133.2     256.79     0          154.18     648        32.54     
1133.4     253.59     0          154.04     648        31.85     
1133.6     256.03     0          154.14     612        32.35     
1133.8     255.91     0          154.25     648        32.2      
1134       256.13     0          154.23     648        32.07     
1134.2     259.12     0          153.92     648        32.27     
1134.4     264.74     0          152.43     648        32.17     
1134.6     288.3      0          152.01     612        32.85     
1134.8     341.07     0          153.13     648        32.03     
1135       172.82     0          153.61     648        32.38     
1135.2     215.74     0          153.55     648        32.48     
1135.4     329.61     0          153.56     648        32.31     
1135.6     286.11     0          153.84     648        32.57     
1135.8     262.91     0          154.48     612        32.26     
1136       260.78     0          154.52     648        32.84     
1136.2     255.78     0          153.93     648        32.28     
1136.4     255.14     0          153.08     648        32.16     
1136.6     257.11     0          152.61     648        32.64     
1136.8     254.47     0          152.2      612        32.04     
1137       255.39     0          152.62     648        32.39     
1137.2     255.15     0          153.6      648        32.2      
1137.4     255.97     0          153.99     648        32.38     
1137.6     255.3      0          153.9      648        32.29     
1137.8     252.73     0          153.86     648        31.78     
1138       255.78     0          153.88     612        32.38     
1138.2     254.22     0          153.71     648        32.05     
1138.4     254.16     0          153.51     648        31.93     
1138.6     256.69     0          153.35     648        32.48     
1138.8     254.78     0          152.66     648        32.1      
1139       256.63     0          153.12     612        32.58     
1139.2     254.14     0          154.36     648        32.09     
1139.4     255.62     0          154.42     648        32.37     
1139.6     254.26     0          154.1      648        32.09     
1139.8     254.16     0          153.88     648        32.07     
1140       255.87     0          153.98     612        32.51     
1140.2     253.94     0          154.13     648        32        
1140.4     255.28     0          154.18     648        32.34     
1140.6     254.31     0          154.11     648        32.09     
1140.8     255.49     0          154.02     648        32.34     
1141       255.18     0          153.83     648        32.19     
1141.2     253.64     0          153.54     648        31.89     
1141.4     255.56     0          153.73     648        32.47     
1141.6     253.08     0          154.34     648        31.83     
1141.8     255.32     0          154.5      648        32.31     
1142       254.79     0          154.19     648        32.15     
1142.2     253.69     1          153.6      648        31.97     
1142.4     254.91     0          153        684        32.3      
1142.6     253.64     0          152.83     612        32.02     
1142.8     255.73     0          152.87     648        32.5      
1143       253.09     0          153.1      648        31.9      
1143.2     254.03     0          153.68     648        32.21     
1143.4     256.17     0          154.36     612        32.55     
1143.6     252.6      0          154.63     648        31.81     
1143.8     254.9      0          154.53     648        32.34     
1144       254.1      0          154.32     648        32.09     
1144.2     255.19     0          154.07     648        32.37     
1144.4     254.81     0          154.44     648        32.34     
1144.6     253.57     0          154.71     648        31.95     
