~Version
 VERS              .         2.0                           : CWLS LOG ASCII STANDARD - VERSION 2.0
 WRAP              .         NO                            : ONE LINE PER DEPTH STEP
 DLM               .         SPACE                         : DELIMITING CHARACTER(SPACE TAB OR COMMA)
~Well Information
#_______________________________________________________________________________
#
#PARAMETER_NAME    .UNIT     VALUE                         : DESCRIPTION
#_______________________________________________________________________________
STRT               .M        19.65                         : First reference value
STOP               .M        2766.85                       : Last reference value
STEP               .M        0.2                           : Step increment
NULL               .         -9999                         : Missing value
COMP               .                                       : Company
WELL               .         616                           : Well name
FLD                .                                       : Field
LOC                .                                       : Location
CNTY               .                                       : County
STAT               .                                       : State
CTRY               .                                       : Country
SRVC               .                                       : Service Company
DATE               .                                       : Date
API                .                                       : API number
PROJECT_UPGRADE_TIME .         2021-03-18T21_24_50           : 
group              .         Good                          : 
~Parameter Information Block
#_______________________________________________________________________________
#
#PARAMETER_NAME    .UNIT     VALUE                         : DESCRIPTION
#_______________________________________________________________________________
SET                .         D7016_D_2                     : 
NPR                .         155                           : Номер прибора
OTHER              .         Kedr.exe версия 2.1.2.32      : 
OTHER_10           .         TM.GRD = 0.00404*TM$.UE + 0.07: 
OTHER_11           .         MN.ATM = (6.33279e-006*TM.GRD + 0.02401)*(MN$.UE + 2.72*TM.GRD + -2018): 
OTHER_12           .         GK.MKR/H = GK$.UE / 43.5489 + 0: 
OTHER_13           .         RES.SM = 0.00476*CRES.UE - 1.51709: 
OTHER_14           .         PL.GSM3 = 0 + 0 * (PL.UE / 1) +  0 * (PL.UE / 1)^2: 
OTHER_15           .         Постоянная времени ГГП = 6 сек: 
OTHER_16           .         Постоянная времени ГК = 6 сек : 
OTHER_2            .         KedrData.dll версия 3.2.2.14  : 
OTHER_3            .         LasInf.dll версия 3.2.0.13    : 
OTHER_4            .         Драйвер версия 1.2.0.5        : 
OTHER_5            .         Прибор_ КСА-M1                : 
OTHER_6            .         Номер прибора_ 155+р204       : 
OTHER_7            .         Режим_ КСА-М1 + ГГП + Резистивиметр: 
OTHER_8            .         Форма_ 223\2                  : 
OTHER_9            .         Тарировки_                    : 
PR                 .         КСА-Т7 М1                     : Тип прибора
PROJECT_UPGRADE_TIME .         2021-03-18T21_24_50           : 
PRTY               .         ПП-223_2                      : Номер партии
SRV                .         ЦКРС                          : Заказчик
SRVC               .         Лузин  А.Б.                   : Начальник партии
TLFamily_DEPT      .         Measured Depth                : 
TLFamily_LM        .         Casing Collar locator         : 
TLFamily_MN        .                                       : 
TLFamily_SPID      .         Spontaneous Potential         : 
TLFamily_TM        .         Temperature                   : 
group              .         second                        : 
~Curve Information
#_______________________________________________________________________________
#
#LOGNAME           .UNIT     LOG_ID                        : DESCRIPTION
#_______________________________________________________________________________
DEPT               .M                                      : Depth curve 
LM                 .е.ацп                                  : Локация муфт 
MN                 .атм                                    : Манометрия, атм 
SPID               .м/ч                                    : Скорость записи,м/час 
TM                 .град.С                                 : Термометрия,град.С 
~Ascii
# ...
574.45     199.001    53.16      1659.998   27.29     
574.65     229        53.17      1607       27.29     
574.85     222        53.18      1600.002   27.3      
575.05     231.999    53.21      1660       27.3      
575.25     203.001    53.23      1660       27.3      
575.45     238        53.24      1660       27.31     
575.65     234.001    53.26      1660       27.31     
575.85     258        53.27      1660       27.32     
576.05     253.281    53.3       1660.003   27.32     
576.25     7353.825   53.31      1729.999   27.33     
576.45     2937.958   53.33      1706.997   27.33     
576.65     1874.973   53.34      1620.002   27.33     
576.85     1199.984   53.37      1660       27.33     
577.05     806.99     53.38      1660       27.34     
577.25     543.994    53.4       1660       27.35     
577.45     383.996    53.43      1660       27.35     
577.65     285.999    53.45      1660.003   27.36     
577.85     250.999    53.46      1729.998   27.36     
578.05     224.001    53.48      1683.998   27.37     
578.25     258.999    53.49      1632.001   27.37     
578.45     237.999    53.52      1660       27.38     
578.65     215.001    53.53      1660       27.38     
578.85     231        53.55      1660       27.39     
579.05     228        53.58      1660       27.4      
579.25     227        53.58      1660       27.4      
579.45     223.001    53.61      1660       27.41     
579.65     250.998    53.61      1659.998   27.42     
579.85     208.001    53.64      1600.001   27.42     
580.05     230        53.67      1620.002   27.43     
580.25     240.002    53.68      1660       27.43     
580.45     290.999    53.68      1659.998   27.44     
580.65     268.001    53.71      1607.002   27.45     
580.85     305.003    53.73      1660       27.45     
581.05     374        53.75      1660       27.46     
581.25     373.002    53.78      1660       27.46     
581.45     430.998    53.78      1660       27.47     
581.65     377.996    53.81      1660       27.47     
581.85     286.001    53.84      1660       27.48     
582.05     302        53.85      1660       27.48     
582.25     296.999    53.85      1660       27.49     
582.45     267.998    53.88      1660       27.49     
582.65     221        53.91      1660.001   27.49     
582.85     226.002    53.93      1691.002   27.5      
583.05     273.999    53.94      1729.998   27.51     
583.25     256        53.95      1675.999   27.51     
583.45     254.999    53.97      1660       27.51     
583.65     230.999    53.98      1660       27.52     
583.85     215.999    54         1660       27.53     
584.05     187        54.03      1660.001   27.53     
584.25     183.001    54.03      1690.998   27.54     
584.45     196        54.06      1650.998   27.54     
584.65     194.999    54.08      1600.002   27.54     
584.85     182.001    54.09      1654       27.55     
585.05     195        54.12      1660       27.56     
585.25     199        54.13      1672.001   27.56     
585.45     210.999    54.15      1708.998   27.57     
585.65     180.999    54.17      1660       27.57     
585.85     154        54.19      1660       27.58     
586.05     146.999    54.21      1660       27.58     
586.25     124        54.22      1660       27.59     
586.45     127.009    54.25      1660       27.6      
586.65     362.007    54.27      1659.999   27.6      
586.85     538.27     54.28      1638       27.61     
587.05     7221.893   54.3       1630.001   27.61     
587.25     4576.932   54.31      1660       27.62     
587.45     2904.957   54.34      1660       27.62     
587.65     1851.956   54.37      1660       27.62     
587.85     765.989    54.37      1660       27.62     
588.05     502.994    54.4       1660       27.63     
588.25     343.996    54.4       1660       27.63     
588.45     241.998    54.43      1660       27.64     
588.65     180.999    54.45      1660       27.65     
588.85     156        54.46      1660       27.65     
589.05     162        54.47      1660       27.66     
589.25     170        54.49      1660       27.66     
589.45     166.999    54.52      1660       27.67     
589.65     145        54.54      1660       27.67     
589.85     140        54.55      1660       27.68     
590.05     141.002    54.57      1660       27.68     
590.25     201.999    54.59      1660       27.68     
590.45     175        54.59      1660       27.69     
590.65     182.999    54.62      1659.998   27.7      
590.85     162.001    54.64      1607       27.7      
591.05     188.001    54.66      1600.002   27.71     
591.25     202.998    54.67      1645.998   27.72     
591.45     164.999    54.7       1600.001   27.72     
591.65     150.001    54.73      1633.001   27.73     
591.85     170.999    54.74      1660       27.73     
592.05     149        54.76      1660       27.73     
592.25     159.999    54.77      1659.998   27.74     
592.45     142        54.79      1600       27.74     
592.65     133        54.82      1600.001   27.75     
592.85     131        54.82      1633.001   27.75     
593.05     123        54.84      1660       27.76     
593.25     114        54.86      1660       27.76     
593.45     117        54.88      1660       27.77     
593.65     119        54.89      1660       27.78     
593.85     128.999    54.92      1660       27.78     
594.05     113        54.94      1659.998   27.79     
594.25     121        54.95      1621.001   27.79     
594.45     119.002    54.98      1647.001   27.8      
594.65     179.001    54.99      1660       27.8      
594.85     195        55.01      1660       27.81     
595.05     200        55.04      1660       27.81     
595.25     188        55.04      1660       27.81     
595.45     199.999    55.06      1660       27.82     
595.65     164        55.08      1660       27.82     
595.85     160.999    55.1       1660       27.82     
596.05     133        55.11      1660       27.83     
596.25     135.001    55.14      1659.999   27.84     
596.45     154.999    55.16      1642.998   27.84     
596.65     129        55.17      1600.002   27.84     
596.85     119.001    55.2       1639.001   27.85     
597.05     133.001    55.21      1660       27.85     
597.25     150.003    55.23      1660.003   27.86     
597.45     223.998    55.24      1729.997   27.86     
597.65     183.282    55.26      1659.999   27.86     
597.85     7029.89    55.29      1641.001   27.87     
598.05     4352.934   55.32      1662.003   27.87     
598.25     2743.959   55.34      1729.998   27.87     
598.45     1751.974   55.35      1675.997   27.88     
598.65     1130.973   55.36      1607       27.89     
598.85     476.993    55.38      1603.002   27.89     
599.05     317.996    55.38      1660       27.89     
599.25     219.998    55.41      1660       27.89     
599.45     179        55.42      1660       27.9      
599.65     168.999    55.45      1660       27.91     
599.85     153        55.46      1659.999   27.92     
600.05     149        55.48      1629.999   27.92     
600.25     148        55.51      1600.004   27.93     
600.45     136        55.51      1700.996   27.94     
600.65     142        55.54      1608.002   27.95     
600.85     141.001    55.56      1659.999   27.95     
601.05     156        55.57      1641.999   27.96     
601.25     155.001    55.59      1628.001   27.96     
601.45     185        55.62      1660       27.96     
601.65     176.999    55.63      1660       27.97     
601.85     154.002    55.65      1660       27.98     
602.05     201        55.6       1660       27.99     
602.25     201        55.68      1660       27.99     
602.45     192        55.71      1660.001   27.99     
602.65     189        55.72      1693       28        
602.85     180.001    55.74      1686.999   28        
603.05     209.999    55.77      1660       28.01     
603.25     181        55.78      1660       28.02     
603.45     186.999    55.8       1660       28.02     
