~Version
 VERS              .         2.0                           : CWLS LOG ASCII STANDARD - VERSION 2.0
 WRAP              .         NO                            : ONE LINE PER DEPTH STEP
 DLM               .         SPACE                         : DELIMITING CHARACTER(SPACE TAB OR COMMA)
~Well Information
#_______________________________________________________________________________
#
#PARAMETER_NAME    .UNIT     VALUE                         : DESCRIPTION
#_______________________________________________________________________________
STRT               .M        2666.2                        : First reference value
STOP               .M        2778.8                        : Last reference value
STEP               .M        0.2000002                     : Step increment
NULL               .         -9999                         : Missing value
COMP               .                                       : Company
WELL               .         616                           : Well name
FLD                .                                       : Field
LOC                .                                       : Location
CNTY               .                                       : County
STAT               .                                       : State
CTRY               .                                       : Country
SRVC               .                                       : Service Company
DATE               .                                       : Date
API                .                                       : API number
PROJECT_UPGRADE_TIME .         2021-03-18T21_24_50           : 
group              .         Good                          : 
~Parameter Information Block
#_______________________________________________________________________________
#
#PARAMETER_NAME    .UNIT     VALUE                         : DESCRIPTION
#_______________________________________________________________________________
SET                .         D0400_D                       : 
OTHER              .         Прибор_ АКП4_90               : 
OTHER_2            .         Номер прибора_ 56             : 
OTHER_3            .         Режим_ АКП4_90 - все каналы   : 
OTHER_4            .         Форма_ Г-1                    : 
OTHER_5            .         Тарировки_                    : 
OTHER_6            .         TM.GRD = 0.00379*TM$.UE + 7.11: 
OTHER_7            .         MN.ATM = (8e-006*TM.GRD + 0.02)*(MN$.UE + -8*TM.GRD + -1800): 
OTHER_8            .         GK.MKR/H = GK$.UE / 57.17 + 0 : 
PROJECT_UPGRADE_TIME .         2021-03-18T21_24_49           : 
TLFamily_DEPT      .         Measured Depth                : 
TLFamily_GK        .         Gamma Ray                     : 
TLFamily_GK$       .                                       : 
TLFamily_LM        .         Casing Collar locator         : 
TLFamily_METKA     .                                       : 
TLFamily_METKA_1   .                                       : 
TLFamily_MN        .                                       : 
TLFamily_MN$       .                                       : 
TLFamily_RCOR      .                                       : 
TLFamily_SPID      .         Spontaneous Potential         : 
TLFamily_TIME      .         Time                          : 
TLFamily_TM        .         Temperature                   : 
TLFamily_TM$       .         Temperature                   : 
group              .         second                        : 
~Curve Information
#_______________________________________________________________________________
#
#LOGNAME           .UNIT     LOG_ID                        : DESCRIPTION
#_______________________________________________________________________________
DEPT               .M                                      : 1 Глубина, м -    0.0 см 
GK                 .MKR/H                                  : 12 Гамма-активность, мкр./ч -   65.0 см 
GK$                .UE                                     : 9 Гамма-активность, усл.ед. -   65.0 см 
LM                 .                                       : 8 Локатор муфт,  -   30.0 см 
METKA              .                                       : 3 Метки,  -    0.0 см 
METKA_1            .                                       : 13 Маркеры - 65 см 
MN                 .ATM                                    : 11 Давление, атм. -  140.0 см 
MN$                .UE                                     : 7 Давление, усл.ед. -  140.0 см 
RCOR               .CM/KM                                  : 5 Коррекция по ролику, см/км -    0.0 см 
SPID               .M/H                                    : 2 Скорость, м/час -    0.0 см 
TIME               .S                                      : 4 Время, сек -    0.0 см 
TM                 .GRD                                    : 10 Температура, °C -  145.0 см 
TM$                .UE                                     : 6 Температура, усл.ед. -  145.0 см 
~Ascii
# ...
2744.6     7.6        444        855        0          0          265.854    15336      0          -300       2560.49    85.123     20584     
2744.8     7.42       437        739        0          0          265.875    15337      0          -275       2558.01    85.127     20585     
2745       7.27       413        653        0          0          265.916    15339      0          -260       2555.46    85.139     20588     
2745.2     7.31       411        728        0          0          265.95     15341      0          -260       2552.89    85.152     20591     
2745.4     7.42       428        708        0          0          265.962    15341      0          -300       2550.45    85.161     20594     
2745.6     7.38       416        843        0          0          266.003    15343      0          -260       2547.87    85.168     20596     
2745.8     7.48       417        622        0          0          266.003    15343      0          -320       2545.43    85.169     20596     
2746       7.66       420        723        0          0          266.037    15345      0          -320       2542.86    85.173     20597     
2746.2     7.97       425        667        0          0          266.052    15346      0          -280       2540.42    85.18      20599     
2746.4     8.42       472        701        0          0          266.057    15346      0          -320       2537.84    85.187     20601     
2746.6     8.56       502        799        0          0          266.098    15348      0          -260       2535.38    85.193     20602     
2746.8     8.37       490        1377       0          0          266.083    15347      0          -260       2532.82    85.202     20605     
2747       8.18       482        785        0          0          266.097    15348      0          -320       2530.3     85.207     20606     
2747.2     7.94       472        1186       0          0          266.132    15350      0          -320       2527.78    85.214     20608     
2747.4     7.66       429        1095       0          0          266.138    15350      0          -320       2525.21    85.218     20609     
2747.6     7.82       431        1457       0          0          266.144    15350      0          -320       2522.75    85.228     20612     
2747.8     8.07       465        1423       0          0          266.157    15351      0          -280       2520.17    85.241     20615     
2748       8.01       457        814        0          0          266.163    15351      0          -260       2517.74    85.252     20618     
2748.2     8.02       483        699        0          0          266.156    15351      0          -260       2515.17    85.253     20618     
2748.4     7.62       461        712        0          0          266.156    15351      0          -280       2512.59    85.26      20620     
2748.6     7.31       417        803        0          0          266.155    15351      0          -300       2510.14    85.267     20622     
2748.8     7.31       427        744        0          0          266.161    15351      0          -300       2507.57    85.279     20625     
2749       7.18       416        604        0          0          266.175    15352      0          -260       2505.01    85.284     20626     
2749.2     7.11       410        683        0          0          266.175    15352      0          -260       2502.56    85.286     20627     
2749.4     7.06       403        758        0          0          266.175    15352      0          -260       2499.97    85.29      20628     
2749.6     7.09       401        798        0          0          266.223    15354      0          -320       2497.54    85.298     20630     
2749.8     7.11       415        856        1          0          266.229    15355      0          -320       2494.96    85.305     20632     
2750       7.01       394        987        0          0          266.256    15356      0          -300       2491.74    85.31      20633     
2750.2     7.09       401        888        0          0          266.263    15356      0          -320       2489.16    85.319     20636     
2750.4     7.11       426        1319       0          0          266.276    15357      0          -290       2486.65    85.318     20635     
2750.6     6.85       406        969        0          0          266.31     15359      0          -320       2484.12    85.328     20638     
2750.8     6.52       400        1050       0          0          266.317    15359      0          -320       2481.62    85.341     20641     
2751       6.31       371        796        0          0          266.323    15359      0          -260       2479.1     85.341     20641     
2751.2     6.23       357        664        0          0          266.336    15360      0          -260       2476.54    85.351     20644     
2751.4     6.19       359        693        0          0          266.432    15365      0          -320       2474.09    85.358     20646     
2751.6     6.19       347        785        0          0          266.459    15366      0          -260       2471.51    85.37      20649     
2751.8     6.39       340        963        0          0          266.438    15365      0          -260       2469.07    85.373     20650     
2752       6.82       337        4103       0          0          266.5      15368      0          -320       2466.47    85.38      20652     
2752.2     7.36       382        7909       0          0          266.51     15369      0          -320       2463.99    85.389     20654     
2752.4     7.48       433        904        0          0          266.54     15370      0          -320       2461.43    85.4       20657     
2752.6     7.32       440        811        0          0          266.54     15370      0          -319       2458.97    85.408     20659     
2752.8     7.12       425        796        0          0          266.56     15371      0          -296       2456.44    85.413     20660     
2753       7          403        791        0          0          266.553    15371      0          -280       2453.83    85.419     20662     
2753.2     7.14       386        832        0          0          266.601    15373      0          -260       2451.25    85.424     20663     
2753.4     7.4        397        1611       0          0          266.573    15372      0          -290       2448.75    85.43      20665     
2753.6     7.44       437        898        0          0          266.6      15373      0          -260       2446.24    85.438     20667     
2753.8     7.17       443        822        0          0          266.593    15373      0          -320       2443.67    85.442     20668     
2754       7.09       402        851        0          0          266.62     15374      0          -320       2441.22    85.444     20669     
2754.2     7.22       394        752        0          0          266.628    15374      0          -300       2438.66    85.446     20669     
2754.4     7.25       419        879        0          0          266.64     15375      0          -320       2436.2     85.456     20672     
2754.6     7.09       426        721        0          0          266.639    15375      0          -320       2433.64    85.462     20673     
2754.8     7.02       402        895        0          0          266.639    15375      0          -260       2431.19    85.472     20676     
2755       7.09       396        1580       0          0          266.659    15376      0          -260       2428.61    85.48      20678     
2755.2     7.15       405        669        0          0          266.659    15376      0          -260       2426.17    85.48      20678     
2755.4     7.3        400        731        0          0          266.68     15377      0          -320       2423.58    85.488     20680     
2755.6     7.45       411        841        0          0          266.706    15378      0          -275       2421.05    85.502     20684     
