~Version
 VERS              .         2.0                           : CWLS LOG ASCII STANDARD - VERSION 2.0
 WRAP              .         NO                            : ONE LINE PER DEPTH STEP
 DLM               .         SPACE                         : DELIMITING CHARACTER(SPACE TAB OR COMMA)
~Well Information
#_______________________________________________________________________________
#
#PARAMETER_NAME    .UNIT     VALUE                         : DESCRIPTION
#_______________________________________________________________________________
STRT               .M        2662.8                        : First reference value
STOP               .M        2769.600053                   : Last reference value
STEP               .M        0.2000001                     : Step increment
NULL               .         -9999                         : Missing value
COMP               .                                       : Company
WELL               .         616                           : Well name
FLD                .                                       : Field
LOC                .                                       : Location
CNTY               .                                       : County
STAT               .                                       : State
CTRY               .                                       : Country
SRVC               .                                       : Service Company
DATE               .                                       : Date
API                .                                       : API number
PROJECT_UPGRADE_TIME .         2021-03-18T21_24_50           : 
group              .         Good                          : 
~Parameter Information Block
#_______________________________________________________________________________
#
#PARAMETER_NAME    .UNIT     VALUE                         : DESCRIPTION
#_______________________________________________________________________________
SET                .         D8107_D_2                     : 
COMM               .                                       : 
OTHER              .         Программное обеспечение станции MONITOR-386EX 25/12/99 15_08_10   BGF V52 22/08/01 16_56_30   4_SNGF_BGF_N_011645: 
OTHER_10           .         Тарировки_                    : 
OTHER_11           .         TM.GRD = 0.00412*TM$.UE + -2.13: 
OTHER_12           .         MN.ATM = (5.87652e-006*TM.GRD + 0.01993)*(MN$.UE + -2.72*TM.GRD + -1925): 
OTHER_13           .         GK.MKR/H = GK$.UE / 57.4657   : 
OTHER_2            .         Kedr.exe версия 3.4.2.51      : 
OTHER_3            .         KedrData.dll версия 3.4.2.24  : 
OTHER_4            .         Драйвер версия 2.1.0.2        : 
OTHER_5            .         Мнемоники версия 3.3 S        : 
OTHER_6            .         Прибор_ АКП4-90               : 
OTHER_7            .         Номер прибора_ 53             : 
OTHER_8            .         Режим_ АКП4_90                : 
OTHER_9            .         Форма_ ПК-53ое                : 
PROJECT_UPGRADE_TIME .         2021-03-18T21_24_50           : 
PRTY               .         ПРП-614                       : N партии
SRVC               .         Глухов М.В.                   : Начальник партии
TLFamily_DEPT      .         Measured Depth                : 
TLFamily_GK        .         Russian Gamma Ray             : 
TLFamily_LM        .         Casing Collar locator         : 
TLFamily_TM        .         Temperature                   : 
group              .         second                        : 
~Curve Information
#_______________________________________________________________________________
#
#LOGNAME           .UNIT     LOG_ID                        : DESCRIPTION
#_______________________________________________________________________________
DEPT               .M                                      : Depth curve 
GK                 .мкР/ч                                  : Естественная гамма-активность,мкР/ч 
LM                 .е.ацп                                  : Локатор муфт,е.ацп 
TM                 .град.C                                 : Термограмма по стволу скважины,град.C 
~Ascii
2662.8000488 -9999      -9999      -9999     
2663       -9999      -9999      -9999     
2663.2     -9999      -9999      -9999     
2663.4     -9999      315.983    -9999     
2663.6     6.04       246.014    -9999     
2663.800001 6.01       304.026    -9999     
2664.000001 5.83       408.94     -9999     
2664.200001 5.25       163.097    -9999     
2664.400001 5.2        559.059    65.391    
2664.600001 4.7        800.884    65.383    
2664.800001 4.75       325.055    65.37     
2665.000001 5.19       551.054    65.341    
2665.200001 5.21       773.864    65.329    
2665.400001 5.69       217.05     65.297    
2665.600001 5.81       421.972    65.277    
2665.800002 6.17       308.074    65.265    
2666.000002 6.25       610.101    65.239    
2666.200002 6.24       1024.952   65.229    
2666.400002 6.23       827.881    65.222    
2666.600002 6.14       343.02     65.189    
2666.800002 5.46       425.003    65.17     
2667.000002 5.45       436.097    65.151    
2667.200002 5.34       833.103    65.114    
2667.400002 5.33       1253.777   65.096    
2667.600002 5.1        340.175    65.075    
2667.800003 5.07       1055.237   65.047    
2668.000003 4.56       2027.378   65.026    
2668.200003 4.57       11750.64   64.997    
2668.400003 4.77       18464.71   64.972    
2668.600003 5.14       912.179    64.948    
2668.800003 5.33       1645.165   64.898    
2669.000003 5.85       2320.495   64.881    
2669.200003 5.91       257.031    64.853    
2669.400003 6.09       383.009    64.82     
2669.600003 6.09       420.954    64.79     
2669.800004 6.03       231.031    64.748    
2670.000004 5.96       355.963    64.727    
2670.200004 5.2        205.131    64.696    
2670.400004 5.18       741.1      64.651    
2670.600004 4.75       1147.923   64.622    
2670.800004 4.69       831.907    64.58     
2671.000004 4.62       453.007    64.536    
2671.200004 4.45       480.95     64.506    
2671.400004 4.26       276.107    64.467    
2671.600004 3.88       713.002    64.422    
2671.800005 3.84       720.888    64.39     
2672.000005 3.54       265.046    64.339    
2672.200005 3.58       450.956    64.298    
2672.400005 3.9        271.054    64.266    
2672.600005 3.93       489.971    64.208    
2672.800005 4.46       369.96     64.185    
2673.000005 4.46       205.043    64.144    
2673.200005 4.53       378.955    64.087    
2673.400005 4.63       195.019    64.064    
2673.600005 4.58       273.036    64.009    
2673.800006 4.54       418.939    63.961    
2674.000006 4.56       171.049    63.923    
2674.200006 4.63       373.037    63.856    
2674.400006 4.7        522.92     63.803    
2674.600006 4.96       198.03     63.765    
2674.800006 4.92       321.011    63.7      
2675.000006 4.49       366.981    63.658    
2675.200006 4.49       289.058    63.61     
2675.400006 4.55       525.981    63.55     
2675.600006 4.59       446.969    63.512    
2675.800007 4.86       322.073    63.436    
2676.000007 4.91       620.936    63.377    
2676.200007 4.72       359.983    63.346    
2676.400007 4.25       289.025    63.274    
2676.600007 4.23       393.082    63.221    
2676.800007 4.2        728.899    63.175    
2677.000007 4.23       317.032    63.123    
2677.200007 4.53       446.942    63.083    
2677.400007 4.55       212.127    63.02     
2677.600007 5.1        730.876    62.952    
2677.800007 5.12       227.006    62.907    
2678.000008 5.52       253.065    62.818    
2678.200008 5.51       516.03     62.735    
2678.400008 5.4        639.958    62.694    
2678.600008 5.26       467.051    62.601    
2678.800008 5.28       676.153    62.564    
2679.000008 5.33       1301.833   62.513    
2679.200008 5.45       4698.304   62.449    
2679.400008 5.69       18156.05   62.393    
2679.600008 5.71       2078.625   62.31     
2679.800009 5.84       552.044    62.248    
2680.000009 5.79       729.88     62.184    
2680.200009 5.36       241.039    62.124    
2680.400009 5.36       400.981    62.088    
2680.600009 5.34       324.133    62.019    
2680.800009 5.37       864.071    61.951    
2681.000009 5.88       1153.78    61.903    
2681.200009 5.87       257.05     61.816    
2681.400009 5.74       461.97     61.742    
2681.600009 5.57       340.012    61.693    
2681.80001 5.64       387.099    61.628    
2682.00001 5.92       790.903    61.593    
2682.20001 6.01       394.05     61.535    
2682.40001 6.33       598.942    61.433    
2682.60001 6.28       363.996    61.379    
2682.80001 5.6        348.129    61.297    
2683.00001 5.59       875.138    61.214    
2683.20001 5.52       1436.072   61.157    
2683.40001 5.53       1727.716   61.062    
2683.60001 5.79       573.942    60.981    
2683.800011 5.86       338.006    60.935    
2684.000011 5.88       361.097    60.838    
2684.200011 5.9        755.116    60.741    
2684.400011 5.96       1225.825   60.642    
2684.600011 6.09       513.086    60.541    
2684.800011 6.1        861.939    60.489    
2685.000011 6.19       614.03     60.394    
2685.200011 6.16       734.9      60.258    
2685.400011 5.97       326.968    60.203    
2685.600011 5.98       197.061    60.107    
2685.800011 6.21       444.929    60.012    
2686.000012 6.21       157.067    59.971    
2686.200012 6.2        428.99     59.859    
2686.400012 6.2        386.952    59.781    
2686.600012 6.2        190.097    59.699    
2686.800012 6.2        583.069    59.574    
2687.000012 6.22       862.93     59.472    
2687.200012 6.32       580.046    59.348    
2687.400012 6.35       766.933    59.25     
2687.600012 6.7        494.932    59.169    
2687.800013 6.74       219.026    59.052    
2688.000013 7.13       324.022    58.96     
2688.200013 7.12       411.99     58.874    
2688.400013 6.82       370.089    58.754    
2688.600013 6.75       730.92     58.644    
2688.800013 6.72       407.079    58.519    
2689.000013 6.73       728.998    58.416    
2689.200013 6.97       720.941    58.349    
2689.400013 7.26       480.081    58.236    
2689.600013 7.25       807.984    58.129    
2689.800014 7.24       740.944    58.02     
2690.000014 7.17       513.145    57.893    
2690.200014 6.92       1101.643   57.778    
2690.400014 6.9        3713.775   57.671    
2690.600014 6.61       10919.39   57.561    
2690.800014 6.61       4371.018   57.464    
2691.000014 6.63       382.036    57.434    
2691.200014 6.64       526.987    57.349    
2691.400014 6.73       472.936    57.271    
2691.600014 6.76       215.08     57.141    
2691.800015 6.61       540.991    56.968    
2692.000015 6.3        504.937    56.904    
2692.200015 6.34       250.073    56.789    
2692.400015 6.4        546.947    56.678    
2692.600015 6.41       330.032    56.601    
2692.800015 6.42       460.068    56.495    
2693.000015 6.46       733.897    56.382    
2693.200015 7.01       314.049    56.287    
2693.400015 7.05       511.007    56.193    
2693.600015 7.52       540.923    56.135    
2693.800015 7.52       227.061    56.026    
2694.000016 7.65       472.985    55.93     
2694.200016 7.72       410.963    55.864    
2694.400016 7.91       262.036    55.756    
2694.600016 8.38       408.993    55.636    
2694.800016 8.2        380.018    55.538    
2695.000016 7.81       452.173    55.451    
2695.200016 7.65       1154.065   55.378    
2695.400016 6.48       1416.748   55.286    
2695.600016 6.3        393.012    55.184    
2695.800017 5.34       440.94     55.114    
2696.000017 5.35       197.047    55.007    
2696.200017 5.41       386.943    54.915    
2696.400017 5.43       157.101    54.781    
2696.600017 5.77       567.243    54.653    
2696.800017 5.95       1554.032   54.534    
2697.000017 5.5        1684.651   54.418    
2697.200017 5.29       271.018    54.292    
2697.400017 5.24       341.962    54.2      
2697.600017 5.12       186.082    54.087    
2697.800018 5.18       517.049    54.017    
2698.000018 5.73       716.851    53.928    
2698.200018 5.78       115.006    53.814    
2698.400018 6.16       141.007    53.7      
