~Version
 VERS              .         2.0                           : CWLS LOG ASCII STANDARD - VERSION 2.0
 WRAP              .         NO                            : ONE LINE PER DEPTH STEP
 DLM               .         SPACE                         : DELIMITING CHARACTER(SPACE TAB OR COMMA)
~Well Information
#_______________________________________________________________________________
#
#PARAMETER_NAME    .UNIT     VALUE                         : DESCRIPTION
#_______________________________________________________________________________
STRT               .M        209.2                         : First reference value
STOP               .M        612.6                         : Last reference value
STEP               .M        0.2                           : Step increment
NULL               .         -9999                         : Missing value
COMP               .                                       : Company
WELL               .         616                           : Well name
FLD                .                                       : Field
LOC                .                                       : Location
CNTY               .                                       : County
STAT               .                                       : State
CTRY               .                                       : Country
SRVC               .                                       : Service Company
DATE               .                                       : Date
API                .                                       : API number
PROJECT_UPGRADE_TIME .         2021-03-18T21_24_50           : 
group              .         Good                          : 
~Parameter Information Block
#_______________________________________________________________________________
#
#PARAMETER_NAME    .UNIT     VALUE                         : DESCRIPTION
#_______________________________________________________________________________
SET                .         616_3                         : 
CONF               .         00                            : 
END                .         0                             : 
ERR                .         0                             : 
GS00               .M        0610.64                       : 
GS01               .M        0206.79                       : 
MM00               .M        0060.00                       : 
NOKG               .         1                             : 
NPR                .         980119                        : 
PART               .         Палагутин                     : 
PROJECT_UPGRADE_TIME .         2021-03-18T21_24_49           : 
PRZK               .         Шакиров                       : 
TLFamily_AZIMUTH   .         True Dip Azimuth              : 
TLFamily_DEPTH     .         Measured Depth                : 
TLFamily_METKA     .                                       : 
TLFamily_ROLL      .                                       : 
TLFamily_SPEED     .         Spontaneous Potential         : 
TLFamily_ZENIT     .                                       : 
VPRG               .         310                           : 
WAY                .         UP                            : 
group              .         prim                          : 
~Curve Information
#_______________________________________________________________________________
#
#LOGNAME           .UNIT     LOG_ID                        : DESCRIPTION
#_______________________________________________________________________________
DEPTH              .M                                      :  
AZIMUTH            .DEG                                    :  
METKA              .                                       :  
ROLL               .DEG                                    :  
SPEED              .M/H                                    :  
ZENIT              .DEG                                    :  
~Ascii
# ...
331.2      265.71     0          231.02     612        26.85     
331.4      266.04     0          231.86     684        26.87     
331.6      265.14     0          233.13     612        26.72     
331.8      266.04     0          233.76     648        27        
332        265.2      0          234.64     648        26.88     
332.2      265.67     1          234.26     648        26.81     
332.4      264.97     0          232.16     576        26.57     
332.6      266.54     0          230.96     648        26.7      
332.8      265.93     0          230.72     648        26.64     
333        266.08     0          231.7      648        26.62     
333.2      264.29     0          232.85     648        26.32     
333.4      265.68     0          232.85     648        26.69     
333.6      265.33     0          232.59     612        26.58     
333.8      265.96     0          232.54     648        26.63     
334        265.36     0          233.11     612        26.56     
334.2      266.09     0          235.36     648        26.67     
334.4      266.34     0          245.24     684        26.74     
334.6      266.85     0          254.3      612        26.83     
334.8      266.24     0          259.01     576        26.7      
335        265.71     0          261.52     648        26.55     
335.2      264.96     0          263.57     648        26.39     
335.4      265.93     0          264.78     612        26.59     
335.6      267.28     0          265.29     648        26.76     
335.8      267.9      0          266.34     612        26.88     
336        266.22     0          269.02     612        26.63     
336.2      266.1      0          272.72     648        26.62     
336.4      265.71     0          275.26     648        26.44     
336.6      265.05     0          276.52     648        26.3      
336.8      266.06     0          277.05     612        26.46     
337        267.48     0          277.1      612        26.74     
337.2      268.46     0          277.13     648        26.9      
337.4      266.69     0          276.84     648        26.67     
337.6      264.55     0          276.1      648        26.26     
337.8      264.23     0          277.03     612        26        
338        264.06     0          279.34     612        26.02     
338.2      265.99     0          282.43     612        26.48     
338.4      266.1      0          285.57     684        26.47     
338.6      268.6      0          289.01     648        27.06     
338.8      266.78     0          293.16     576        26.53     
339        266.42     0          297.84     612        26.51     
339.2      265.42     0          301.26     684        26.24     
339.4      264.83     0          303.62     648        26.07     
339.6      266.08     2          305.29     576        26.18     
339.8      267.5      0          307.59     252        26.36     
340        266.33     0          308.86     576        26.28     
340.2      268.78     0          310.21     612        26.51     
340.4      269        0          310.6      684        26.37     
340.6      269.69     0          311.92     648        26.45     
340.8      272.24     0          315.14     576        26.51     
341        281.18     0          319.88     648        26.63     
341.2      313.03     0          326.8      648        26.37     
341.4      244.2      0          335.23     612        26.16     
341.6      196.17     0          342.21     648        26.39     
341.8      234.72     0          350.62     648        26.73     
342        320.81     0          1.9        648        26.72     
342.2      280.45     1          12.99      648        26.32     
342.4      272.13     0          23.09      612        26.19     
342.6      269.8      0          30.39      648        26.29     
342.8      267.5      0          36.33      576        26.22     
343        268.88     0          40.18      648        26.16     
343.2      268.38     0          41.28      684        26.19     
343.4      268.18     0          39.67      612        26.21     
343.6      267.91     0          34.73      612        26.27     
343.8      266.37     0          31.94      648        25.93     
344        267.67     0          33.72      684        26.01     
344.2      267.14     0          37.07      648        25.82     
344.4      267.7      0          39.82      648        25.85     
344.6      266.39     0          41.75      648        25.59     
344.8      267.29     0          42.53      648        25.78     
345        266.62     0          42.97      648        25.69     
345.2      266.6      0          43.32      648        25.63     
345.4      267.37     0          43.02      648        25.81     
345.6      266.14     0          42.65      648        25.8      
345.8      266.28     0          43.27      576        25.84     
346        267.34     0          42.28      648        25.91     
346.2      266.72     0          40.94      648        25.85     
346.4      267.01     0          40.9       648        25.78     
346.6      267.42     0          41.13      612        25.9      
346.8      267.15     0          41.81      612        25.81     
347        267.26     0          42.37      684        25.91     
347.2      267        0          41.87      648        25.89     
347.4      267.19     0          40.82      648        25.87     
347.6      266.95     0          40.36      648        25.73     
347.8      267.22     0          40.09      648        25.79     
348        267.18     0          39.54      648        25.76     
348.2      268.15     0          39.8       648        25.9      
348.4      267.04     0          39.81      648        25.72     
348.6      266.82     0          39.8       648        25.64     
348.8      266.81     0          39.98      648        25.69     
349        267.34     0          39.56      612        25.76     
349.2      267.61     0          39.22      648        25.82     
349.4      266.96     0          39.17      684        25.69     
349.6      266.96     0          39.27      648        25.72     
349.8      266.53     0          39.66      648        25.61     
350        267.68     0          40.23      648        25.8      
350.2      267.07     0          41.02      648        25.71     
350.4      267.45     0          41.42      648        25.67     
350.6      266.93     0          40.51      612        25.5      
350.8      266.96     0          40.18      648        25.57     
351        267.43     0          40.45      648        25.66     
351.2      267.13     0          40.92      684        25.62     
351.4      266.75     0          41.26      648        25.46     
351.6      266.88     0          41.45      648        25.53     
351.8      267.41     0          41.46      648        25.63     
352        267.6      1          41.38      648        25.58     
352.2      267.5      0          41.41      648        25.53     
352.4      267.81     0          41.68      648        25.57     
352.6      268.96     0          41.96      648        25.65     
352.8      270.94     0          42.19      648        25.75     
353        273.72     0          42.39      648        25.6      
353.2      284.77     0          42.39      684        25.73     
353.4      320.67     0          42.11      720        25.61     
353.6      267.87     0          42.25      684        25.71     
353.8      215.25     0          42.75      684        25.71     
354        335.53     0          42.27      684        25.88     
354.2      300.11     0          40.04      720        25.66     
354.4      277.13     0          39.58      684        25.58     
354.6      271.79     0          40.55      648        25.59     
354.8      268.42     0          40.7       684        25.34     
355        267.15     0          42.27      684        25.18     
355.2      267.97     0          44.35      720        25.25     
355.4      266.98     0          45.22      648        25.13     
