~Version
 VERS              .         2.0                           : CWLS LOG ASCII STANDARD - VERSION 2.0
 WRAP              .         NO                            : ONE LINE PER DEPTH STEP
 DLM               .         SPACE                         : DELIMITING CHARACTER(SPACE TAB OR COMMA)
~Well Information
#_______________________________________________________________________________
#
#PARAMETER_NAME    .UNIT     VALUE                         : DESCRIPTION
#_______________________________________________________________________________
STRT               .M        2645.2                        : First reference value
STOP               .M        2753.000054                   : Last reference value
STEP               .M        0.2000001                     : Step increment
NULL               .         -9999                         : Missing value
COMP               .                                       : Company
WELL               .         616                           : Well name
FLD                .                                       : Field
LOC                .                                       : Location
CNTY               .                                       : County
STAT               .                                       : State
CTRY               .                                       : Country
SRVC               .                                       : Service Company
DATE               .                                       : Date
API                .                                       : API number
PROJECT_UPGRADE_TIME .         2021-03-18T21_24_50           : 
group              .         Good                          : 
~Parameter Information Block
#_______________________________________________________________________________
#
#PARAMETER_NAME    .UNIT     VALUE                         : DESCRIPTION
#_______________________________________________________________________________
SET                .         D4407_D                       : 
OTHER              .         Запись производится в присутствии: 
OTHER_10           .         Максимальная температура      : 
OTHER_11           .         Тип промывочной жидкости      : 
OTHER_12           .         Сопротивление ПЖ (Ом*м) при 20°C: 
OTHER_13           .         Плотность ПЖ(г/см3)           : 
OTHER_14           .         Вязкость ПЖ(с)                : 
OTHER_15           .         Водоотдача ПЖ(см3/30мин)      : 
OTHER_16           .         Уровень ПЖ                    : 
OTHER_17           .         Нефть ПЖ (%)                  : 
OTHER_18           .         Барит ПЖ (%)                  : 
OTHER_19           .         Гематит ПЖ (%)                : 
OTHER_2            .         Заказчик ННСН  ЦДНГ-1         : 
OTHER_20           .         КМЦ ПЖ (%)                    : 
OTHER_21           .         Разгазирование ПЖ (да,нет)    : 
OTHER_22           .         Подъемник                     : 
OTHER_23           .         Лаборатория                   : 
OTHER_24           .         Тип кабеля                    : 
OTHER_25           .         Длина кабеля (м)              : 
OTHER_26           .         Цена последней метки          : 
OTHER_27           .         Цена контрольной метки        : 
OTHER_28           .         Диаметр долота (мм)           : 
OTHER_29           .         Глубина бурения (м)           : 
OTHER_3            .         Площадь                       : 
OTHER_30           .         Искусственный забой (м)       : 
OTHER_31           .         Диаметр колонны (мм)          : 
OTHER_32           .         Толщина колонны (мм)          : 
OTHER_33           .         Башмак колонны (м)            : 
OTHER_34           .         Диаметр НКТ (мм)              : 
OTHER_35           .         Толщина НКТ (мм)              : 
OTHER_36           .         Воронка НКТ (м)               : 
OTHER_37           .         Дата цементожа                : 
OTHER_38           .         Тип, количество(т) и плотность цемента: 
OTHER_39           .         Интервалы перфорации (м)      : 
OTHER_4            .         Категория                     : 
OTHER_40           .         Направление, диаметр (мм)     : 
OTHER_41           .         Направление, глубина (м)      : 
OTHER_42           .         Кондуктор, диаметр (мм)       : 
OTHER_43           .         Кондуктор, глубина (м)        : 
OTHER_44           .         Техническая колонна, диаметр (мм): 
OTHER_45           .         Техническая колонна, глубина (м): 
OTHER_46           .         Эксплуатационная колонна, диаметр (мм): 
OTHER_47           .         Эксплуатационная колонна, глубина (м): 
OTHER_48           .         Программа Кедр-02 версия 3.4  : 
OTHER_49           .         Операционная система Windows NT 5.1 build 2600 Service Pack 2: 
OTHER_5            .         Назначение исследований       : 
OTHER_50           .         Программное обеспечение станции MONITOR-386EX 25/12/99 15_08_10   BGF V54 20/09/05 15_32_17   3.3__BGF_9030071: 
OTHER_51           .         Kedr.exe версия 3.4.2.74      : 
OTHER_52           .         KedrData.dll версия 3.4.2.29  : 
OTHER_53           .         Мнемоники версия 3.18 S       : 
OTHER_54           .         Драйвер версия 2.1.1.4        : 
OTHER_55           .         LasInf.dll 4.3.0.35           : 
OTHER_56           .         Прибор_ КСА-Т4                : 
OTHER_57           .         Номер прибора_ 160            : 
OTHER_58           .         Режим_ КСА-Т4                 : 
OTHER_59           .         Форма_ С.А.Б.                 : 
OTHER_6            .         Альтитуда стола ротора        : 
OTHER_60           .         Тарировки_                    : 
OTHER_61           .         <_techsia_sc_> Дата тарировки температуры 25.05.2010: 
OTHER_62           .         Ручной ввод коэффициентов     : 
OTHER_63           .         TM.DEGC = 0.00402*RTM.E.ACP + -0.994: 
OTHER_64           .         <_techsia_sc_> Дата тарировки давления 25.05.2010: 
OTHER_65           .         Ручной ввод коэффициентов     : 
OTHER_66           .         MN.ATM = (2.27521e-006*TM.DEGC + 0.02078)*(RMN.E.ACP + 6.2*TM.DEGC + -1688): 
OTHER_67           .         <_techsia_sc_> Дата тарировки ГК 25.05.2010: 
OTHER_68           .         Ручной ввод коэффициентов     : 
OTHER_69           .         GR.UR/H = RGR.IMP/MIN / 45.5144: 
OTHER_7            .         Вид исследований 3  6         : 
OTHER_70           .         GK.FLT = 0.1*GR.UR/H[-1] + (1-0.1)*GR.UR/H[0]: 
OTHER_8            .         Начало бурения интервала каротажа: 
OTHER_9            .         Окончание бурения интервала каротажа: 
PROJECT_UPGRADE_TIME .         2021-03-18T21_24_50           : 
TLFamily_CCLC      .                                       : 
TLFamily_DEPT      .         Measured Depth                : 
TLFamily_GK        .         Gamma Ray                     : 
TLFamily_GR        .         Gamma Ray                     : 
TLFamily_METKA     .                                       : 
TLFamily_MN        .                                       : 
TLFamily_RCOR      .                                       : 
TLFamily_RGR       .                                       : 
TLFamily_RMN       .                                       : 
TLFamily_RTEN      .                                       : 
TLFamily_RTM       .                                       : 
TLFamily_SPEE      .         Cable Speed                   : 
TLFamily_TIME      .         Time                          : 
TLFamily_TM        .         Temperature                   : 
group              .         prim                          : 
~Curve Information
#_______________________________________________________________________________
#
#LOGNAME           .UNIT     LOG_ID                        : DESCRIPTION
#_______________________________________________________________________________
DEPT               .M                                      : 1 Глубина, м -    0.0 см 
CCLC               .E.ACP                                  : 9 Локатор муфт,  -   20.0 см 
GK                 .FLT                                    : 14 Гамма-активность фильтрованная, мкр./ч -  110.0 см 
GR                 .UR/H                                   : 13 Гамма-активность, мкр./ч -  110.0 см 
METKA              .CU                                     : 3 Метки,  -    0.0 см 
MN                 .ATM                                    : 12 Давление, атм. -  160.0 см 
RCOR               .CM/KM                                  : 5 Коррекция по ролику, см/км -    0.0 см 
RGR                .IMP/MIN                                : 10 Гамма-активность, усл.ед. -  110.0 см 
RMN                .E.ACP                                  : 8 Давление, усл.ед. -  160.0 см 
RTEN               .T                                      : 6 Натяжение кабеля, т -    0.0 см 
RTM                .E.ACP                                  : 7 Температура, усл.ед. -  170.0 см 
SPEE               .M/H                                    : 2 Скорость, м/час -    0.0 см 
TIME               .S                                      : 4 Время, сек -    0.0 см 
TM                 .DEGC                                   : 11 Температура, °C -  170.0 см 
~Ascii
# ...
2738.800047 66         8.52       8.52       0          246.471    -1109      388        13180      0.26       12497      562        597.31     49.243    
2739.000047 79         8.55       8.55       0          246.493    -1109      389        13181      0.26       12499      563        598.59     49.253    
2739.200047 92         8.57       8.57       0          246.515    -1109      390        13182      0.26       12502      562        599.94     49.263    
2739.400047 60         8.36       8.36       0          246.538    -1109      381        13183      0.26       12504      562        601.21     49.273    
2739.600047 138        8.15       8.15       0          246.561    -1109      371        13184      0.26       12507      562        602.51     49.285    
2739.800047 138        9.21       9.21       0          246.585    -1109      419        13185      0.26       12512      562        603.77     49.304    
2740.000047 100        9.21       9.21       0          246.609    -1109      419        13186      0.26       12516      563        605.11     49.32     
2740.200047 80         12.02      12.02      0          246.646    -1109      547        13188      0.26       12521      562        606.39     49.34     
2740.400048 69         12.02      12.02      0          246.654    -1109      547        13188      0.26       12523      562        607.64     49.348    
2740.600048 80         12.79      12.79      0          246.678    -1109      582        13189      0.26       12526      562        608.95     49.36     
2740.800048 89         12.79      12.79      0          246.723    -1109      582        13191      0.26       12530      561        610.2      49.378    
2741.000048 71         12.7       12.7       0          246.726    -1109      578        13191      0.26       12536      561        611.52     49.399    
2741.200048 138        12.7       12.7       0          246.751    -1109      578        13192      0.26       12542      562        612.83     49.425    
2741.400048 69         14.13      14.13      0          246.779    -1109      643        13193      0.26       12548      562        614.08     49.451    
2741.600048 82         14.13      14.13      0          246.817    -1109      643        13195      0.26       12555      563        615.39     49.476    
2741.800048 76         15.07      15.07      0          246.828    -1109      686        13195      0.26       12560      563        616.72     49.496    
2742.000048 116        15.07      15.07      0          246.847    -1109      686        13196      0.26       12564      563        618.01     49.513    
2742.200048 92         14.68      14.68      0          246.872    -1109      668        13197      0.26       12568      562        619.24     49.531    
2742.400049 61         14.68      14.68      0          246.905    -1109      668        13198      0.26       12575      562        620.53     49.559    
2742.600049 86         13.12      13.12      0          246.941    -1109      597        13200      0.26       12583      562        621.78     49.59     
2742.800049 82         13.12      13.12      0          246.956    -1109      597        13200      0.26       12589      561        623.16     49.614    
2743.000049 135        11.93      11.93      0          246.989    -1109      543        13202      0.26       12599      562        624.41     49.654    
2743.200049 80         11.93      11.93      0          247.022    -1109      543        13203      0.26       12606      561        625.69     49.683    
2743.400049 57         11.93      11.93      0          247.047    -1109      543        13204      0.26       12614      562        626.97     49.713    
2743.600049 82         11.93      11.93      0          247.072    -1109      543        13205      0.26       12620      561        628.32     49.738    
2743.800049 82         11.29      11.29      0          247.099    -1109      514        13206      0.26       12629      563        629.59     49.773    
2744.000049 129        10.49      10.49      0          247.127    -1109      477        13207      0.26       12638      563        630.84     49.809    
2744.200049 93         9.69       9.69       0          247.153    -1109      441        13208      0.26       12649      563        632.09     49.855    
2744.40005 59         9.62       9.62       0          247.176    -1109      438        13209      0.26       12658      563        633.43     49.892    
2744.60005 105        9.49       9.49       0          247.188    -1109      432        13209      0.26       12666      563        634.73     49.925    
2744.80005 78         9.52       9.52       0          247.227    -1109      433        13211      0.26       12677      562        636.05     49.968    
2745.00005 70         9.65       9.65       0          247.263    -1109      439        13212      0.26       12689      561        637.3      50.017    
2745.20005 118        9.82       9.82       0          247.284    -1109      447        13213      0.26       12700      563        638.55     50.06     
2745.40005 83         9.82       9.82       0          247.299    -1109      447        13213      0.26       12713      562        639.92     50.114    
2745.60005 73         9.54       9.54       0          247.348    -1109      434        13215      0.26       12724      562        641.17     50.156    
2745.80005 54         9.54       9.54       0          247.369    -1109      434        13216      0.26       12734      563        642.42     50.197    
2746.00005 58         9.57       9.57       2          247.389    -1104      436        13216      0.26       12749      562        643.45     50.256    
2746.20005 58         9.58       9.58       0          247.435    -1104      436        13218      0.26       12762      561        644.67     50.309    
2746.400051 131        9.34       9.34       0          247.441    -1104      425        13218      0.26       12774      562        645.99     50.359    
2746.600051 109        9.34       9.34       0          247.468    -1104      425        13219      0.26       12783      562        647.3      50.392    
2746.800051 86         9.54       9.54       0          247.498    -1104      434        13220      0.26       12796      562        648.56     50.444    
2747.000051 66         9.54       9.54       0          247.53     -1104      434        13221      0.26       12811      562        649.88     50.504    
2747.200051 65         10.17      10.17      0          247.579    -1104      463        13223      0.26       12829      561        651.19     50.578    
2747.400051 1320       10.81      10.81      0          247.592    -1104      492        13223      0.26       12843      561        652.45     50.637    
2747.600051 7778       9.43       9.43       0          247.614    -1104      429        13224      0.26       12852      562        653.72     50.671    
2747.800051 2203       9.43       9.43       0          247.623    -1104      429        13224      0.26       12859      561        655.03     50.697    
2748.000051 653        9.69       9.69       0          247.668    -1104      441        13226      0.26       12868      561        656.28     50.735    
2748.200051 168        9.69       9.69       0          247.694    -1104      441        13227      0.26       12878      561        657.62     50.778    
2748.400052 172        11.45      11.45      0          247.711    -1104      521        13228      0.26       12887      562        658.91     50.81     
2748.600052 153        11.45      11.45      0          247.729    -1104      521        13228      0.26       12899      563        660.16     50.861    
2748.800052 74         11.32      11.32      0          247.768    -1104      515        13230      0.26       12910      562        661.47     50.904    
2749.000052 58         11.32      11.32      0          247.805    -1104      515        13231      0.26       12925      562        662.78     50.963    
