~Version
 VERS              .         2.0                           : CWLS LOG ASCII STANDARD - VERSION 2.0
 WRAP              .         NO                            : ONE LINE PER DEPTH STEP
 DLM               .         SPACE                         : DELIMITING CHARACTER(SPACE TAB OR COMMA)
~Well Information
#_______________________________________________________________________________
#
#PARAMETER_NAME    .UNIT     VALUE                         : DESCRIPTION
#_______________________________________________________________________________
STRT               .M        2689.8                        : First reference value
STOP               .M        2754.4                        : Last reference value
STEP               .M        0.1999995                     : Step increment
NULL               .         -9999                         : Missing value
COMP               .                                       : Company
WELL               .         616                           : Well name
FLD                .                                       : Field
LOC                .                                       : Location
CNTY               .                                       : County
STAT               .                                       : State
CTRY               .                                       : Country
SRVC               .                                       : Service Company
DATE               .                                       : Date
API                .                                       : API number
PROJECT_UPGRADE_TIME .         2021-03-18T21_24_50           : 
group              .         Good                          : 
~Parameter Information Block
#_______________________________________________________________________________
#
#PARAMETER_NAME    .UNIT     VALUE                         : DESCRIPTION
#_______________________________________________________________________________
SET                .         D7018_D                       : 
OTHER              .         Kedr.exe версия 2.1.2.32      : 
OTHER_10           .         TM.GRD = 0.00404*TM$.UE + 0.07: 
OTHER_11           .         MN.ATM = (6.33279e-006*TM.GRD + 0.02401)*(MN$.UE + 2.72*TM.GRD + -2018): 
OTHER_12           .         GK.MKR/H = GK$.UE / 43.5489 + 0: 
OTHER_13           .         RES.SM = 0.00476*CRES.UE - 1.51709: 
OTHER_14           .         PL.GSM3 = 0 + 0 * (PL.UE / 1) +  0 * (PL.UE / 1)^2: 
OTHER_15           .         Постоянная времени ГГП = 6 сек: 
OTHER_16           .         Постоянная времени ГК = 6 сек : 
OTHER_2            .         KedrData.dll версия 3.2.2.14  : 
OTHER_3            .         LasInf.dll версия 3.2.0.13    : 
OTHER_4            .         Драйвер версия 1.2.0.5        : 
OTHER_5            .         Прибор_ КСА-M1                : 
OTHER_6            .         Номер прибора_ 155+р204       : 
OTHER_7            .         Режим_ КСА-М1 + ГГП + Резистивиметр: 
OTHER_8            .         Форма_ 223\2                  : 
OTHER_9            .         Тарировки_                    : 
PROJECT_UPGRADE_TIME .         2021-03-18T21_24_50           : 
TLFamily_CRES      .                                       : 
TLFamily_DEPT      .         Measured Depth                : 
TLFamily_GK        .         Gamma Ray                     : 
TLFamily_GK$       .                                       : 
TLFamily_LM        .         Casing Collar locator         : 
TLFamily_METKA     .                                       : 
TLFamily_MN        .                                       : 
TLFamily_MN$       .                                       : 
TLFamily_PL        .                                       : 
TLFamily_PL_2      .                                       : 
TLFamily_RCOR      .                                       : 
TLFamily_RES       .         Mud Resistivity               : 
TLFamily_SPID      .         Spontaneous Potential         : 
TLFamily_STD       .                                       : 
TLFamily_TIME      .         Time                          : 
TLFamily_TM        .         Temperature                   : 
TLFamily_TM$       .         Temperature                   : 
TLFamily_VGD       .         Gas Volume                    : 
group              .         prim                          : 
~Curve Information
#_______________________________________________________________________________
#
#LOGNAME           .UNIT     LOG_ID                        : DESCRIPTION
#_______________________________________________________________________________
DEPT               .M                                      : 1 Глубина, м -    0.0 см 
CRES               .UE                                     : 9 Проводимость, усл.ед. -  222.0 см 
GK                 .MKR/H                                  : 16 Гамма-активность, мкр./ч -  106.0 см 
GK$                .UE                                     : 13 Гамма-активность, усл.ед. -  106.0 см 
LM                 .                                       : 11 Локатор муфт,  -   16.0 см 
METKA              .                                       : 3 Метки,  -    0.0 см 
MN                 .ATM                                    : 15 Давление, атм. -  160.0 см 
MN$                .UE                                     : 7 Давление, усл.ед. -  160.0 см 
PL                 .UE                                     : 10 Плотность, усл.ед. -  270.0 см 
PL_2               .GSM3                                   : 18 Плотность, г./см3 -  270.0 см 
RCOR               .CM/KM                                  : 5 Коррекция по ролику, см/км -    0.0 см 
RES                .SM                                     : 17 Проводимость,  -  222.0 см 
SPID               .M/H                                    : 2 Скорость, м/час -    0.0 см 
STD                .                                       : 12 Приток,  -  170.0 см 
TIME               .S                                      : 4 Время, сек -    0.0 см 
TM                 .GRD                                    : 14 Температура, °C -  180.0 см 
TM$                .UE                                     : 6 Температура, усл.ед. -  180.0 см 
VGD                .                                       : 8 Влагомер,  -  170.0 см 
~Ascii
# ...
2698       1216       11.78      507        114        0          248.142    12103      14         0          0          4.2711     -260       9087       10083.15   46.239     11428      6598      
2698.2     1217       12.37      527        127        0          248.141    12103      13         0          0          4.2758     -213       9084       10080.4    46.235     11427      6598      
2698.4     1215       12.62      566        118        0          248.197    12105      14         0          0          4.2647     -225       9082       10077.57   46.23      11426      6597      
2698.6     1215       11.63      522        98         0          248.205    12105      14         0          0          4.2648     -260       9081       10074.75   46.222     11424      6596      
2698.8     1216       10.9       483        99         0          248.212    12106      14         0          0          4.2726     -260       9079       10072      46.218     11423      6600      
2699       1214       10.39      470        111        0          248.244    12107      13         0          0          4.2616     -260       9077       10069.12   46.211     11421      6599      
2699.2     1214       9.94       433        115        0          248.267    12108      14         0          0          4.2616     -260       9076       10066.35   46.207     11420      6598      
2699.4     1213       9.89       434        91         0          248.275    12108      14         0          0          4.2568     -260       9074       10063.59   46.199     11418      6598      
2699.6     1214       9.64       433        81         0          248.282    12109      14         0          0          4.2632     -260       9074       10060.71   46.199     11418      6598      
2699.8     1214       10.49      397        105        1          248.313    12110      14         0          0          4.2615     -280       9073       10057.95   46.191     11416      6598      
2700       1214       13.56      531        101        0          248.349    12111      14         0          0          4.2615     -260       9073       10053.56   46.181     11414      6600      
2700.2     1213       14.79      662        92         0          248.361    12112      14         0          0          4.2568     -260       9071       10050.74   46.179     11413      6599      
2700.4     1213       13.64      619        91         0          248.376    12113      14         0          0          4.2568     -260       9067       10047.98   46.174     11412      6599      
2700.6     1215       12.46      560        112        0          248.385    12113      14         0          0          4.2648     -191       9063       10045.08   46.17      11411      6599      
2700.8     1213       12.25      507        111        0          248.408    12114      14         0          0          4.2568     -260       9062       10042.34   46.17      11411      6599      
2701       1212       13.7       530        104        0          248.429    12115      14         0          0          4.252      -260       9061       10039.58   46.166     11410      6601      
2701.2     1210       14.96      687        82         0          248.437    12115      13         0          0          4.2409     -260       9060       10036.69   46.138     11403      6599      
2701.4     1213       13.24      631        104        0          248.486    12117      15         0          0          4.2552     -260       9057       10033.87   46.139     11403      6601      
2701.6     1213       10.91      563        123        0          248.503    12118      13         0          0          4.2567     -260       9056       10031.05   46.144     11404      6600      
2701.8     1212       8.61       446        99         0          248.543    12120      14         0          0          4.252      -260       9054       10028.29   46.146     11405      6601      
2702       1213       7.33       349        506        0          248.55     12120      14         0          0          4.2552     -300       9053       10025.53   46.141     11404      6602      
2702.2     1210       7.13       303        4848       0          248.573    12121      14         0          0          4.2425     -260       9052       10022.77   46.134     11402      6602      
2702.4     1210       7.66       334        464        0          248.597    12122      14         0          0          4.2425     -260       9053       10019.89   46.126     11400      6604      
2702.6     1209       7.58       341        113        0          248.621    12123      14         0          0          4.2378     -260       9051       10017.12   46.126     11400      6599      
2702.8     1210       7.21       312        91         0          248.572    12121      14         0          0          4.2441     -260       9051       10014.23   46.118     11398      6600      
2703       1211       7.45       307        96         0          248.644    12124      14         0          0          4.2489     -260       9049       10011.48   46.114     11397      6603      
2703.2     1208       8.47       318        117        0          248.651    12124      14         0          0          4.233      -260       9049       10008.65   46.108     11395      6600      
2703.4     1210       10.86      356        114        0          248.691    12126      14         0          0          4.2409     -213       9047       10005.84   46.102     11394      6601      
2703.6     1209       14.1       508        99         0          248.698    12126      14         0          0          4.2378     -213       9049       10003.07   46.098     11393      6600      
2703.8     1210       14.82      665        97         0          248.714    12127      14         0          0          4.2425     -260       9048       10000.33   46.091     11391      6601      
2704       1211       13.29      617        102        0          248.737    12128      14         0          0          4.2473     -260       9045       9997.44    46.086     11390      6599      
2704.2     1206       11.13      511        99         0          248.761    12129      14         0          0          4.2235     -260       9045       9994.67    46.082     11389      6601      
2704.4     1207       10.05      448        95         0          248.785    12130      14         0          0          4.2282     -260       9046       9991.93    46.078     11388      6601      
2704.6     1206       9.69       419        86         0          248.785    12130      14         0          0          4.2235     -260       9045       9989.03    46.076     11388      6600      
2704.8     1206       9.75       426        92         0          248.809    12131      14         0          0          4.2235     -214       9043       9986.29    46.076     11388      6600      
2705       1208       9.72       423        104        0          248.832    12132      14         0          0          4.233      -260       9040       9983.39    46.069     11386      6600      
2705.2     1204       9.87       420        105        0          248.855    12133      14         0          0          4.2139     -260       9041       9980.64    46.063     11384      6599      
2705.4     1208       9.77       435        104        0          248.88     12134      14         0          0          4.2314     -260       9041       9977.75    46.049     11381      6600      
2705.6     1211       9.9        433        136        0          248.881    12134      14         0          0          4.2472     -260       9043       9974.85    46.057     11383      6601      
2705.8     1211       9.85       421        127        0          248.881    12134      14         0          0          4.2472     -260       9040       9972.1     46.061     11384      6602      
2706       1210       10.33      435        123        0          248.904    12135      14         0          0          4.2425     -260       9038       9969.35    46.061     11384      6602      
