~Version
 VERS              .         2.0                           : CWLS LOG ASCII STANDARD - VERSION 2.0
 WRAP              .         NO                            : ONE LINE PER DEPTH STEP
 DLM               .         SPACE                         : DELIMITING CHARACTER(SPACE TAB OR COMMA)
~Well Information
#_______________________________________________________________________________
#
#PARAMETER_NAME    .UNIT     VALUE                         : DESCRIPTION
#_______________________________________________________________________________
STRT               .M        12                            : First reference value
STOP               .M        2758.6                        : Last reference value
STEP               .M        0.2                           : Step increment
NULL               .         -9999                         : Missing value
COMP               .                                       : Company
WELL               .         616                           : Well name
FLD                .                                       : Field
LOC                .                                       : Location
CNTY               .                                       : County
STAT               .                                       : State
CTRY               .                                       : Country
SRVC               .                                       : Service Company
DATE               .                                       : Date
API                .                                       : API number
PROJECT_UPGRADE_TIME .         2021-03-18T21_24_50           : 
group              .         Good                          : 
~Parameter Information Block
#_______________________________________________________________________________
#
#PARAMETER_NAME    .UNIT     VALUE                         : DESCRIPTION
#_______________________________________________________________________________
SET                .         616ULN                        : 
PROJECT_UPGRADE_TIME .         2021-03-18T21_24_49           : 
TLFamily_AK4       .                                       : 
TLFamily_ALFAK     .                                       : 
TLFamily_AMPL      .                                       : 
TLFamily_DEPTH     .         Measured Depth                : 
TLFamily_DK1       .                                       : 
TLFamily_DK2       .                                       : 
TLFamily_DTK       .         Compressional Slowness        : 
TLFamily_QCBL      .                                       : 
TLFamily_T1        .         Travel Time 1                 : 
TLFamily_T2        .         Travel Time 2                 : 
group              .         prim                          : 
~Curve Information
#_______________________________________________________________________________
#
#LOGNAME           .UNIT     LOG_ID                        : DESCRIPTION
#_______________________________________________________________________________
DEPTH              .M                                      : 0 Depth curve 
AK4                .                                       : 2 Амплитуда - Волна по колонне - Канал1 
ALFAK              .дБ/м                                   : 1 Затухание - Волна по колонне 
AMPL               .                                       : 8 Коэффициент усиления ВС 
DK1                .дБ                                     : 3 Кривая ослабления - Волна по колонне - Канал1 
DK2                .дБ                                     : 4 Кривая ослабления - Волна по колонне - Канал2 
DTK                .мкс/м                                  : 5 ДельтаТ - Волна по породе 
QCBL               .                                       : 9 Контакт цемент-колонна 
T1                 .мкс                                    : 6 Время пробега - Волна по породе - Канал1 
T2                 .мкс                                    : 7 Время пробега - Волна по породе - Канал2 
~Ascii
# ...
2202       375.918    11.909     1          30.029     35.983     186.136    2          292.872    385.942   
2202.2     345.492    11.637     1          30.873     36.333     186.095    2          293.024    386.073   
2202.4     310.623    11.052     1          31.837     37.102     194.253    3          293.175    388.248   
2202.6     275.789    12.475     1          32.814     38.308     210.267    3          293.397    394.422   
2202.8     246.854    15.976     1          33.675     39.322     227.578    3          293.749    403.315   
2203       229.363    21.364     1          34.236     40.478     246.135    3          294.065    412.91    
2203.2     218.988    26.567     1          34.659     41.387     264.445    3          294.131    422.131   
2203.4     211.299    30.575     1          34.986     41.545     277.702    3          293.832    428.453   
2203.6     201.039    31.895     1          35.426     40.972     285.626    3          293.552    430.991   
2203.8     200.027    31.425     1          35.702     40.564     292.748    3          293.15     431.066   
2204       199.1      31.121     1          35.983     40.731     298.049    3          292.888    432.317   
2204.2     200.451    31.24      1          36.173     41.306     303.582    3          292.654    434.85    
2204.4     193.706    32.3       1          36.487     41.904     305.609    3          292.808    438.08    
2204.6     188.953    33.779     1          36.728     42.499     305.474    3          292.847    441.25    
2204.8     182.107    35.311     1          36.81      43.15      312.409    3          292.988    446.1     
2205       180.485    35.609     1          36.647     43.448     328.381    3          292.812    453.088   
2205.2     182.292    35.343     1          36.308     43.646     352.164    3          292.705    462.915   
2205.4     188.156    35.126     1          36.022     44.076     374.284    3          292.309    472.808   
2205.6     191.282    35.016     1          35.574     44.503     393.717    3          292.026    482.471   
2205.8     201.927    34.753     1          35.227     44.689     395.455    3          292.036    485.537   
2206       210.69     34.234     1          35.148     45.119     376.146    3          292.499    479.761   
2206.2     218.72     33.648     1          35.215     45.673     348.817    3          293.093    469.758   
2206.4     220.623    33.197     1          35.138     46.252     323.513    3          293.493    459.504   
2206.6     227.993    33.033     1          35.1       46.831     303.69     3          293.685    449.556   
2206.8     246.756    33.097     1          34.952     47.356     293.851    3          293.453    444.174   
2207       266.403    33.789     1          34.626     47.041     295.874    3          292.902    443.176   
2207.2     281.999    34.831     1          34.369     46.329     300.071    3          292.196    443.461   
2207.4     284.498    35.693     1          34.286     45.403     308.474    3          291.789    446.027   
2207.6     281.606    35.688     1          34.398     44.693     321.636    3          291.556    452.375   
2207.8     252.766    34.976     1          34.859     44.228     342.571    3          291.329    462.616   
2208       218.774    33.955     1          35.529     44.352     362.673    3          291.147    472.504   
2208.2     192.989    32.668     1          35.889     44.524     379.186    3          291.07     480.684   
2208.4     201.465    31.375     1          35.622     44.795     387.484    3          291.166    484.888   
2208.6     226.268    30.322     1          34.761     44.77      381.476    3          291.359    482.086   
2208.8     256.959    29.695     1          33.686     44.368     367.39     3          291.688    475.38    
2209       297.718    29.237     1          32.328     43.491     350.507    2          292.102    467.316   
2209.2     337.128    28.985     1          31.057     42.392     328.994    2          292.461    457.03    
2209.4     372.13     28.271     1          30.077     41.08      303.616    2          292.895    444.927   
2209.6     393.742    26.823     1          29.568     39.923     276.872    2          293.284    432.113   
2209.8     410.738    24.281     1          29.181     38.787     246.769    2          293.8      418.604   
2210       417.118    21.092     1          29.029     37.68      221.254    2          294.339    406.404   
2210.2     431.458    17.989     1          28.766     36.786     200.589    2          295.463    397.083   
2210.4     469.618    16.139     1          28.198     35.972     187.047    2          296.973    391.711   
2210.6     541.789    15.755     1          27.156     35.033     180.332    2          298.907    390.109   
2210.8     633.796    16.475     1          25.871     34.108     177.563    2          300.794    389.577   
2211       740.379    17.234     1          24.425     33.042     175.161    2          302.583    390.165   
2211.2     869.009    17.959     1          22.922     31.901     174.655    2          303.804    391.133   
2211.4     1002.648   18.123     1          21.604     30.665     175.986    2          304.37     392.365   
2211.6     1128.64    18.051     1          20.555     29.58      178.087    2          304.618    393.663   
2211.8     1236.216   17.592     1          19.727     28.523     180.331    2          304.769    394.936   
2212       1331.158   17.493     1          19.015     27.761     181.823    2          305.003    395.916   
2212.2     1400.401   17.078     1          18.511     27.05      183.012    2          305.22     396.728   
2212.4     1468.008   16.899     1          18.103     26.553     183.297    2          305.515    397.165   
2212.6     1558.708   16.694     1          17.638     25.985     183.366    2          305.708    397.392   
2212.8     1689.792   17.081     1          16.981     25.521     183.048    2          305.906    397.431   
2213       1836.648   17.517     1          16.256     25.014     182.755    2          306.13     397.509   
2213.2     1983.286   17.921     1          15.547     24.507     182.403    2          306.399    397.602   
2213.4     2118.483   17.963     1          14.931     23.912     182.241    2          306.581    397.703   
2213.6     2208.378   17.677     1          14.542     23.38      182.493    2          306.74     397.988   
2213.8     2250.271   17.104     1          14.376     22.928     182.956    2          306.777    398.257   
2214       2259.565   16.588     1          14.339     22.633     183.51     2          306.698    398.454   
2214.2     2259.36    16.357     1          14.34      22.518     183.884    2          306.474    398.418   
2214.4     2236.218   16.202     1          14.427     22.527     183.94     2          306.353    398.324   
2214.6     2180.089   15.873     1          14.656     22.592     183.897    2          306.23     398.18    
2214.8     2094.693   15.341     1          15.024     22.694     183.839    2          306.088    398.009   
2215       1990.878   14.837     1          15.493     22.911     183.834    2          305.95     397.868   
2215.2     1876.943   14.646     1          16.016     23.339     183.538    2          305.934    397.705   
2215.4     1738.732   14.663     1          16.685     24.016     183.117    2          305.942    397.502   
2215.6     1591.025   14.875     1          17.487     24.924     182.947    2          305.798    397.273   
2215.8     1437.831   14.966     1          18.411     25.894     182.793    2          305.654    397.052   
2216       1298.389   15.217     1          19.343     26.951     182.895    2          305.494    396.943   
2216.2     1160.629   15.316     1          20.307     27.965     183.108    2          305.317    396.872   
2216.4     1034.292   15.555     1          21.254     29.031     183.504    2          305.02     396.773   
