~Version
 VERS              .         2.0                           : CWLS LOG ASCII STANDARD - VERSION 2.0
 WRAP              .         NO                            : ONE LINE PER DEPTH STEP
 DLM               .         SPACE                         : DELIMITING CHARACTER(SPACE TAB OR COMMA)
~Well Information
#_______________________________________________________________________________
#
#PARAMETER_NAME    .UNIT     VALUE                         : DESCRIPTION
#_______________________________________________________________________________
STRT               .M        8.21                          : First reference value
STOP               .M        2780.41                       : Last reference value
STEP               .M        0.2                           : Step increment
NULL               .         -9999                         : Missing value
COMP               .                                       : Company
WELL               .         616                           : Well name
FLD                .                                       : Field
LOC                .                                       : Location
CNTY               .                                       : County
STAT               .                                       : State
CTRY               .                                       : Country
SRVC               .                                       : Service Company
DATE               .                                       : Date
API                .                                       : API number
PROJECT_UPGRADE_TIME .         2021-03-18T21_24_50           : 
group              .         Good                          : 
~Parameter Information Block
#_______________________________________________________________________________
#
#PARAMETER_NAME    .UNIT     VALUE                         : DESCRIPTION
#_______________________________________________________________________________
SET                .         ULN_2                         : 
PROJECT_UPGRADE_TIME .         2021-03-18T21_24_50           : 
TLFamily_AK4       .                                       : 
TLFamily_ALFAK     .                                       : 
TLFamily_AMPL      .                                       : 
TLFamily_DEPTH     .         Measured Depth                : 
TLFamily_DK1       .                                       : 
TLFamily_DK2       .                                       : 
TLFamily_DTK       .         Compressional Slowness        : 
TLFamily_QCBL      .                                       : 
TLFamily_T1        .         Travel Time 1                 : 
TLFamily_T2        .         Travel Time 2                 : 
group              .         prim                          : 
~Curve Information
#_______________________________________________________________________________
#
#LOGNAME           .UNIT     LOG_ID                        : DESCRIPTION
#_______________________________________________________________________________
DEPTH              .M                                      : 0 Depth curve 
AK4                .                                       : 2 Амплитуда - Волна по колонне - Канал1 
ALFAK              .дБ/м                                   : 1 Затухание - Волна по колонне 
AMPL               .                                       : 8 Коэффициент усиления ВС 
DK1                .дБ                                     : 3 Кривая ослабления - Волна по колонне - Канал1 
DK2                .дБ                                     : 4 Кривая ослабления - Волна по колонне - Канал2 
DTK                .мкс/м                                  : 5 ДельтаТ - Волна по породе 
QCBL               .                                       : 9 Контакт цемент-колонна 
T1                 .мкс                                    : 6 Время пробега - Волна по породе - Канал1 
T2                 .мкс                                    : 7 Время пробега - Волна по породе - Канал2 
~Ascii
# ...
1847.81    9481.15    17.701     1          7.88       16.73      173.021    2          344.111    430.621   
1848.01    9198.254   15.844     1          8.172      16.093     172.744    2          344.799    431.171   
1848.21    8914.227   14.94      1          9.041      16.511     171.369    2          345.455    431.14    
1848.41    8764.47    13.575     1          9.189      15.976     171.263    2          346.007    431.638   
1848.61    8960.047   11.959     1          9.006      14.986     170.402    2          345.909    431.11    
1848.81    9425.889   10.681     1          8.572      13.912     170.351    2          345.966    431.141   
1849.01    10037.27   13.48      1          8.014      14.754     171.928    2          345.396    431.359   
1849.21    10359.4    14.986     1          7.736      15.229     172.83     2          345.481    431.895   
1849.41    10531.91   14.384     1          7.591      14.783     172.773    2          345.686    432.072   
1849.61    10371.22   11.241     1          7.728      13.349     170.509    2          346.203    431.457   
1849.81    9747.491   10.445     1          8.265      13.488     170.506    2          346.248    431.501   
1850.01    8645.214   11.405     1          8.812      14.514     170.681    2          346.041    431.381   
1850.21    7251.778   11.804     1          10.378     16.28      170.866    2          345.99     431.423   
1850.41    6211.853   10.21      1          11.69      16.795     170.211    2          345.777    430.883   
1850.61    5763.966   10.015     1          12.829     17.836     169.381    2          345.72     430.411   
1850.81    5774.107   12.105     1          12.814     18.867     170.132    2          345.206    430.271   
1851.01    5684.023   15.818     1          12.959     20.868     170.896    2          344.765    430.212   
1851.21    5734.177   18.566     1          12.886     22.169     170.857    2          344.754    430.191   
1851.41    5876.4     19.655     1          12.681     22.509     170.449    2          344.801    430.221   
1851.61    6256.555   19.357     1          12.081     21.8       170.078    2          344.886    430.12    
1851.81    6066.208   14.875     1          11.601     19.861     165.734    2          346.497    429.549   
1852.01    5507.806   13.388     1          11.498     19.394     157.221    2          350.282    428.893   
1852.21    5348.894   14.291     1          11.756     20.064     157.259    2          353.461    432.09    
1852.41    5600.585   19.713     1          12.149     22.386     177.755    2          354.141    443.018   
1852.61    6343.545   23.653     1          12.009     23.835     200.562    2          353.458    453.738   
1852.81    6829.102   26.101     1          11.355     24.406     214.831    2          353.3      460.715   
1853.01    7721.599   27.955     1          9.862      23.84      213.283    2          353.571    460.212   
1853.21    8865.981   29.401     1          8.664      23.383     218.78     2          350.853    460.242   
1853.41    9617.632   27.553     1          7.562      21.719     208.754    2          348.319    452.695   
1853.61    9658.656   22.275     1          7.985      19.503     195.215    2          345.117    442.724   
1853.81    8480.104   15.946     1          9.226      17.561     176.334    2          344.493    432.659   
1854.01    7403.237   12.884     1          10.758     17.2       173.521    2          343.934    430.694   
1854.21    6763.796   12.176     1          11.445     17.533     172.96     2          344.189    430.668   
1854.41    7121.742   11.957     1          11.018     16.996     172.631    2          344.277    430.592   
1854.61    7229.368   11.478     1          10.876     16.615     172.943    2          343.382    429.853   
1854.81    7232.861   12.626     1          10.874     17.187     173.444    2          343.137    429.858   
1855.01    7500.771   14.377     1          10.588     17.777     173.176    2          343.279    429.866   
1855.21    8282.557   16.301     1          9.732      17.882     170.861    2          344.614    430.044   
1855.41    9633.147   16.95      1          8.405      16.881     170.464    2          344.803    430.035   
1855.61    10646.05   19.296     1          7.18       16.827     170.612    2          345.288    430.594   
1855.81    11614.42   20.378     1          6.377      16.566     171.539    2          345.404    431.173   
1856.01    11502.6    19.66      1          6.484      16.314     171.8      2          345.419    431.319   
1856.21    11614.22   17.23      1          6.753      15.368     172.008    2          345.329    431.332   
1856.41    11827.06   16.561     1          6.602      14.883     172.3      2          345.241    431.391   
1856.61    12157.21   16.345     1          6.348      14.521     171.184    2          345.784    431.375   
1856.81    12123.65   16.777     1          6.373      14.761     170.731    2          346.036    431.402   
1857.01    11562.04   16.088     1          6.786      14.83      171.385    2          345.561    431.253   
1857.21    11447.22   16.981     1          6.872      15.362     171.1      2          345.658    431.208   
1857.41    11072.65   16.709     1          7.164      15.518     171.361    2          345.511    431.191   
1857.61    10168.7    15.101     1          7.985      15.535     170.229    2          345.451    430.565   
1857.81    8919.94    14.578     1          9.133      16.422     171.618    2          344.711    430.519   
1858.01    7286.373   14.087     1          10.898     17.942     171.976    2          343.951    429.939   
1858.21    5878.75    13.587     1          12.966     19.759     170.802    2          343.866    429.267   
1858.41    4632.17    13.021     1          14.876     21.387     169.763    2          343.704    428.585   
1858.61    4128.192   13.965     1          15.743     22.726     169.484    2          343.078    427.82    
1858.81    3734.186   14.78      1          16.743     24.133     170.895    2          341.926    427.373   
1859.01    3269.384   15.026     1          17.987     25.5       171.633    2          341.378    427.194   
1859.21    2609.098   14.998     1          19.744     27.243     169.147    2          342.147    426.72    
1859.41    2647.366   15.564     1          19.635     27.417     167.829    2          343.386    427.3     
1859.61    3079.843   14.504     1          18.463     25.715     167.34     2          343.936    427.606   
1859.81    3830.271   13.965     1          16.527     23.509     170.74     2          343.318    428.688   
1860.01    4850.551   16.141     1          14.477     22.548     172.299    2          343.099    429.249   
1860.21    5468.498   20.066     1          13.349     23.381     172.695    2          343.3      429.647   
1860.41    6014.957   21.012     1          12.462     22.968     170.459    2          343.986    429.215   
1860.61    6067.082   18.467     1          12.422     21.655     169.128    2          344.223    428.787   
1860.81    6390.333   14.988     1          12.605     20.099     170.323    2          343.656    428.817   
1861.01    6693.094   14.226     1          12.214     19.326     171.79     2          343.474    429.368   
1861.21    6707.477   15.169     1          12.16      19.745     173.205    2          343.383    429.985   
1861.41    6667.25    17.594     1          11.577     20.374     173.02     2          344.056    430.565   
1861.61    6323.606   17.23      1          12.027     20.642     172.369    2          344.341    430.525   
1861.81    6065.489   17.327     1          12.411     21.074     170.909    2          344.903    430.357   
1862.01    5857.033   16.781     1          12.699     21.09      169.08     2          345.327    429.867   
1862.21    5983.668   18.621     1          12.524     21.835     168.554    2          345.758    430.035   
