~Version
 VERS              .         2.0                           : CWLS LOG ASCII STANDARD - VERSION 2.0
 WRAP              .         NO                            : ONE LINE PER DEPTH STEP
 DLM               .         SPACE                         : DELIMITING CHARACTER(SPACE TAB OR COMMA)
~Well Information
#_______________________________________________________________________________
#
#PARAMETER_NAME    .UNIT     VALUE                         : DESCRIPTION
#_______________________________________________________________________________
STRT               .M        827.6                         : First reference value
STOP               .M        1707.2                        : Last reference value
STEP               .M        0.2                           : Step increment
NULL               .         -9999                         : Missing value
COMP               .                                       : Company
WELL               .         616                           : Well name
FLD                .                                       : Field
LOC                .                                       : Location
CNTY               .                                       : County
STAT               .                                       : State
CTRY               .                                       : Country
SRVC               .                                       : Service Company
DATE               .                                       : Date
API                .                                       : API number
PROJECT_UPGRADE_TIME .         2021-03-18T21_24_50           : 
group              .         Good                          : 
~Parameter Information Block
#_______________________________________________________________________________
#
#PARAMETER_NAME    .UNIT     VALUE                         : DESCRIPTION
#_______________________________________________________________________________
SET                .         616_8                         : 
CONF               .         00                            : 
END                .         0                             : 
ERR                .         0                             : 
GS00               .M        1705.33                       : 
GS01               .M        0825.11                       : 
MM00               .M        0210.00                       : 
NOKG               .         0                             : 
NPR                .         980615                        : 
PART               .         Бутенко                       : 
PROJECT_UPGRADE_TIME .         2021-03-18T21_24_49           : 
PRZK               .         Шакиров                       : 
TLFamily_AZIMUTH   .         True Dip Azimuth              : 
TLFamily_DEPTH     .         Measured Depth                : 
TLFamily_METKA     .                                       : 
TLFamily_ROLL      .                                       : 
TLFamily_SPEED     .         Spontaneous Potential         : 
TLFamily_ZENIT     .                                       : 
VPRG               .         310                           : 
WAY                .         UP                            : 
group              .         prim                          : 
~Curve Information
#_______________________________________________________________________________
#
#LOGNAME           .UNIT     LOG_ID                        : DESCRIPTION
#_______________________________________________________________________________
DEPTH              .M                                      :  
AZIMUTH            .DEG                                    :  
METKA              .                                       :  
ROLL               .DEG                                    :  
SPEED              .M/H                                    :  
ZENIT              .DEG                                    :  
~Ascii
# ...
1388.8     25.75      0          156.35     612        33.41     
1389       29.88      0          156.49     612        32.43     
1389.2     11.58      0          156.26     648        34.56     
1389.4     354.7      0          156.48     648        32.37     
1389.6     17.19      0          156.9      648        33.43     
1389.8     17.76      0          157.01     612        33.47     
1390       49.5       0          157.23     648        33.08     
1390.2     34.41      0          157.35     612        33.67     
1390.4     88.39      0          157.79     648        31.9      
1390.6     75.71      0          156.93     612        33.87     
1390.8     353.63     0          155.75     612        33.38     
1391       349.93     0          155.6      612        33.5      
1391.2     352.26     0          155.55     612        33.72     
1391.4     338.69     0          154.8      612        33.13     
1391.6     345.33     0          152.91     648        34.18     
1391.8     289.35     0          151.67     648        33.14     
1392       320.82     1          150.35     648        34.01     
1392.2     344.64     0          147.5      252        33.42     
1392.4     41.21      0          145.58     648        33.4      
1392.6     359.02     0          145.11     648        33.05     
1392.8     333.88     0          146.33     612        32.54     
1393       13.07      0          146.33     612        32.82     
1393.2     86.79      0          145.33     648        32.53     
1393.4     258.38     0          144        576        32.7      
1393.6     20.65      0          140.45     648        32.63     
1393.8     27.96      0          140.35     648        34.52     
1394       5.14       0          148.29     612        34.04     
1394.2     15.82      0          156.09     648        32.9      
1394.4     18.44      0          158.09     612        33.55     
1394.6     35.07      0          158.3      648        32.78     
1394.8     44.3       0          158.64     612        33.5      
1395       47.86      0          158.83     612        32.75     
1395.2     25.72      0          158.79     648        33.27     
1395.4     348.45     0          158.28     612        33.9      
1395.6     42.09      0          157.99     612        32.54     
1395.8     7.25       0          158.33     648        33.79     
1396       13.57      0          159.09     612        33.04     
1396.2     37.68      0          159.75     648        33.13     
1396.4     33.36      0          159.96     612        33.32     
1396.6     24.38      0          159.94     648        32.76     
1396.8     20.2       0          159.41     612        33.31     
1397       29.76      0          158.72     612        33.35     
1397.2     23.51      0          158.56     648        33.07     
1397.4     32.5       0          158.68     612        33.68     
1397.6     33.96      0          159.04     612        32.41     
1397.8     28.72      0          159.63     612        33.81     
1398       32.05      0          159.86     612        33.18     
1398.2     16.54      0          159.42     648        32.77     
1398.4     17.87      0          159.04     612        33.54     
1398.6     353        0          159.23     648        32.95     
1398.8     15.49      0          159.38     612        33.38     
1399       12.9       0          159.25     612        33.53     
1399.2     358.93     0          159.01     612        32.32     
1399.4     6.02       0          158.89     648        33.85     
1399.6     15.99      0          158.88     612        33.29     
1399.8     25.76      0          159.25     612        33.15     
1400       1.37       0          159.95     612        33.59     
1400.2     23.79      0          160.44     612        32.75     
1400.4     4.09       0          160.6      612        34.17     
1400.6     6.28       1          160.65     648        33.13     
1400.8     16.75      0          160.42     1008       33.35     
1401       2.55       0          160.36     1008       33.93     
1401.2     11.38      0          160.1      648        32.97     
1401.4     4.88       0          159.46     612        33.29     
1401.6     355.52     0          159.32     648        33.69     
1401.8     3.92       0          159.26     612        33.08     
1402       352.43     0          158.99     612        33.75     
1402.2     17.46      1          159.11     648        32.61     
1402.4     11.39      0          159.03     612        34.03     
1402.6     117.46     0          158.36     612        33.41     
1402.8     21.27      0          159.33     648        33.7      
1403       7.38       0          159.44     648        33.9      
1403.2     1.61       0          159.18     612        33.81     
1403.4     349.96     0          159.56     648        34.21     
1403.6     4.49       0          159.82     648        33.05     
1403.8     344.13     0          159.79     648        34.5      
1404       29.52      0          160.28     612        33.85     
1404.2     118.39     0          160.18     612        33.61     
1404.4     60.53      0          160.16     648        33.46     
1404.6     9.46       0          159.99     576        33.23     
1404.8     3.32       0          158.96     648        33.76     
1405       0.41       0          158.05     612        32.75     
1405.2     353.67     1          157.62     612        33.1      
1405.4     11.07      0          156.98     756        33.06     
1405.6     353.66     0          157.04     648        32.37     
1405.8     4.35       0          157.56     612        33.37     
1406       345.99     0          157.8      648        32.47     
1406.2     345.85     0          157.83     612        33.05     
1406.4     345.94     0          158.47     648        33.01     
1406.6     25.1       0          158.9      612        33.2      
1406.8     11.73      0          159.3      648        33.75     
1407       351.85     0          159.36     612        32.86     
1407.2     14.71      0          159.1      648        33.52     
1407.4     17.85      0          158.62     648        33.04     
1407.6     17.57      0          158.2      612        33.45     
1407.8     16.37      0          157.96     612        33.38     
1408       27.7       0          157.52     648        32.67     
1408.2     357.13     0          157.33     612        34.06     
1408.4     356.73     0          157.32     612        32.69     
1408.6     6.38       0          157.57     612        33.58     
1408.8     359.36     0          158.23     612        32.75     
1409       354.24     0          158.79     576        33.92     
1409.2     354.04     0          159.21     612        33.19     
1409.4     8.98       0          159.47     612        33.06     
1409.6     21.52      0          159.64     612        33.48     
1409.8     10.03      0          159.7      648        32.8      
1410       1.03       0          159.88     612        33.8      
1410.2     6.99       0          159.78     648        32.62     
1410.4     21.44      0          158.99     612        33.65     
1410.6     6.97       0          158.4      612        33.4      
1410.8     355.79     0          158.27     612        33.06     
1411       13.41      0          158.08     612        33.55     
1411.2     357.48     0          158.1      576        33        
1411.4     13.95      0          158.64     612        34.02     
1411.6     16.97      0          159.28     612        33.12     
1411.8     359.62     0          159.33     612        33.27     
1412       11.32      0          158.8      648        33.44     
1412.2     5.03       1          158.51     612        33.37     
1412.4     10.75      0          158.59     648        33.77     
1412.6     5.44       0          158.96     612        32.85     
1412.8     28.4       0          159.23     612        34.57     
1413       11.41      0          159.1      612        33.01     
