~Version
 VERS              .         2.0                           : CWLS LOG ASCII STANDARD - VERSION 2.0
 WRAP              .         NO                            : ONE LINE PER DEPTH STEP
 DLM               .         SPACE                         : DELIMITING CHARACTER(SPACE TAB OR COMMA)
~Well Information
#_______________________________________________________________________________
#
#PARAMETER_NAME    .UNIT     VALUE                         : DESCRIPTION
#_______________________________________________________________________________
STRT               .M        2310.8                        : First reference value
STOP               .M        2792.2                        : Last reference value
STEP               .M        0.2                           : Step increment
NULL               .         -9999                         : Missing value
COMP               .                                       : Company
WELL               .         616                           : Well name
FLD                .                                       : Field
LOC                .                                       : Location
CNTY               .                                       : County
STAT               .                                       : State
CTRY               .                                       : Country
SRVC               .                                       : Service Company
DATE               .                                       : Date
API                .                                       : API number
PROJECT_UPGRADE_TIME .         2021-03-18T21_24_50           : 
group              .         Good                          : 
~Parameter Information Block
#_______________________________________________________________________________
#
#PARAMETER_NAME    .UNIT     VALUE                         : DESCRIPTION
#_______________________________________________________________________________
SET                .         D2660_D                       : 
OTHER              .         Программное обеспечение станции MONITOR-386EX 25/12/99 15_08_10   BGF V50 26/12/00 07_26_01   3.1_SNGF___BGF_N_092085: 
OTHER_10           .         Тарировки_                    : 
OTHER_2            .         Kedr.exe версия 3.3.2.32      : 
OTHER_3            .         KedrData.dll версия 3.3.2.17  : 
OTHER_4            .         Драйвер версия 2.1.0.1        : 
OTHER_5            .         Мнемоники версия 3.3 S        : 
OTHER_6            .         Прибор_ ПС                    : 
OTHER_7            .         Номер прибора_ 348\072        : 
OTHER_8            .         Режим_ ПС                     : 
OTHER_9            .         Форма_ ПС                     : 
PROJECT_UPGRADE_TIME .         2021-03-18T21_24_49           : 
TLFamily_DEPT      .         Measured Depth                : 
TLFamily_METKA     .                                       : 
TLFamily_PS        .         Spontaneous Potential         : 
TLFamily_RCOR      .                                       : 
TLFamily_SPID      .         Spontaneous Potential         : 
TLFamily_TENS      .         Cable Tension                 : 
TLFamily_TIME      .         Time                          : 
group              .         prim                          : 
~Curve Information
#_______________________________________________________________________________
#
#LOGNAME           .UNIT     LOG_ID                        : DESCRIPTION
#_______________________________________________________________________________
DEPT               .M                                      : 1 Глубина, м -    0.0 см 
METKA              .                                       : 3 Метки,  -    0.0 см 
PS                 .mV                                     : 7 ПС, мВ - 1210.0 см 
RCOR               .CM/KM                                  : 5 Коррекция по ролику, см/км -    0.0 см 
SPID               .M/H                                    : 2 Скорость, м/час -    0.0 см 
TENS               .T                                      : 6 Натяжение кабеля, т -    0.0 см 
TIME               .S                                      : 4 Время, сек -    0.0 см 
~Ascii
# ...
2768.4     0          544.4      -342       -1470      0          29887.63  
2768.6     0          542.13     -342       -1467      0          29887.12  
2768.8     0          543.22     -342       -1434      0          29886.64  
2769       0          544.42     -342       -1408      0          29886.12  
2769.2     0          546.24     -342       -1384      0          29885.63  
2769.4     0          546.65     -342       -1358      0          29885.15  
2769.6     0          544.18     -342       -1422      0          29884.61  
2769.8     1          542.47     -342       -1470      0          29884.1   
2770       0          540.48     -342       -1464      0          29883.22  
2770.2     0          541.14     -342       -1387      0          29882.72  
2770.4     0          540.98     -342       -1373      0          29882.23  
2770.6     0          542.55     -342       -1410      0          29881.72  
2770.8     0          541.98     -342       -1411      0          29881.19  
2771       0          543.18     -342       -1423      0          29880.69  
2771.2     0          544.35     -342       -1459      0          29880.18  
2771.4     0          544.29     -342       -1410      0          29879.69  
2771.6     0          543.97     -342       -1414      0          29879.18  
2771.8     0          544.68     -342       -1458      0          29878.67  
2772       0          544.99     -342       -1305      0          29878.18  
2772.2     0          541.16     -342       -1365      0          29877.68  
2772.4     0          537.57     -342       -1408      0          29877.16  
2772.6     0          536.84     -342       -1378      0          29876.63  
2772.8     0          536.24     -342       -1387      0          29876.11  
2773       0          537.17     -342       -1450      0          29875.58  
2773.2     0          541.62     -342       -1410      0          29875.09  
2773.4     0          543.51     -342       -1410      0          29874.59  
2773.6     0          544.97     -342       -1410      0          29874.1   
2773.8     0          542.65     -342       -1410      0          29873.58  
2774       0          540.14     -342       -1410      0          29873.08  
2774.2     0          537.87     -342       -1410      0          29872.54  
2774.4     0          538.33     -342       -1410      0          29872.05  
2774.6     0          538.8      -342       -1408      0          29871.54  
2774.8     0          541.42     -342       -1376      0          29871.04  
2775       0          542.78     -342       -1364      0          29870.54  
2775.2     0          543.69     -342       -1410      0          29870.04  
2775.4     0          544.47     -342       -1410      0          29869.5   
2775.6     0          542.87     -342       -1411      0          29868.96  
2775.8     0          540.84     -342       -1419      0          29868.47  
2776       0          538        -342       -1456      0          29867.96  
2776.2     0          538.42     -342       -1345      0          29867.47  
2776.4     0          541.37     -342       -1406      0          29866.97  
2776.6     0          543.29     -342       -1347      0          29866.46  
2776.8     0          542.99     -342       -1343      0          29865.93  
2777       0          540.38     -342       -1386      0          29865.41  
2777.2     0          538.87     -342       -1410      0          29864.88  
2777.4     0          539.44     -342       -1408      0          29864.36  
2777.6     0          540.54     -342       -1382      0          29863.83  
2777.8     0          545.3      -342       -1326      0          29863.36  
2778       0          546.81     -342       -1309      0          29862.83  
2778.2     0          546.96     -342       -1386      0          29862.28  
2778.4     0          546.48     -342       -1289      0          29861.76  
2778.6     1          546.66     -342       -1340      0          29861.22  
2778.8     0          548.52     -342       -1340      0          29860.68  
2779       0          548.56     -342       -1333      0          29860.15  
2779.2     0          548.44     -342       -1285      0          29859.62  
2779.4     0          547.44     -342       -1333      0          29859.08  
2779.6     0          547.13     -342       -1254      0          29858.53  
2779.8     0          547.71     -342       -970       0          29857.98  
2780       1          547.24     -342       -417       0          29857.42  
2780.2     0          545.81     -342       -57        0          29856.35  
2780.4     -9999      545.17     -9999      -9999      -9999      -9999     
2780.6     -9999      545.04     -9999      -9999      -9999      -9999     
2780.8     -9999      543.05     -9999      -9999      -9999      -9999     
2781       -9999      543.89     -9999      -9999      -9999      -9999     
2781.2     -9999      544.58     -9999      -9999      -9999      -9999     
2781.4     -9999      544.68     -9999      -9999      -9999      -9999     
2781.6     -9999      545.85     -9999      -9999      -9999      -9999     
2781.8     -9999      546.72     -9999      -9999      -9999      -9999     
2782       -9999      543.66     -9999      -9999      -9999      -9999     
2782.2     -9999      544.86     -9999      -9999      -9999      -9999     
2782.4     -9999      546.11     -9999      -9999      -9999      -9999     
2782.6     -9999      544.82     -9999      -9999      -9999      -9999     
2782.8     -9999      544.59     -9999      -9999      -9999      -9999     
2783       -9999      543.13     -9999      -9999      -9999      -9999     
2783.2     -9999      542.35     -9999      -9999      -9999      -9999     
2783.4     -9999      544.72     -9999      -9999      -9999      -9999     
2783.6     -9999      545.59     -9999      -9999      -9999      -9999     
2783.8     -9999      543.87     -9999      -9999      -9999      -9999     
2784       -9999      542.63     -9999      -9999      -9999      -9999     
2784.2     -9999      528.95     -9999      -9999      -9999      -9999     
2784.4     -9999      529.11     -9999      -9999      -9999      -9999     
2784.6     -9999      540.18     -9999      -9999      -9999      -9999     
2784.8     -9999      536.3      -9999      -9999      -9999      -9999     
2785       -9999      536.91     -9999      -9999      -9999      -9999     
2785.2     -9999      537.86     -9999      -9999      -9999      -9999     
2785.4     -9999      538.97     -9999      -9999      -9999      -9999     
2785.6     -9999      543.28     -9999      -9999      -9999      -9999     
2785.8     -9999      542.88     -9999      -9999      -9999      -9999     
2786       -9999      542.69     -9999      -9999      -9999      -9999     
2786.2     -9999      543.25     -9999      -9999      -9999      -9999     
2786.4     -9999      543.72     -9999      -9999      -9999      -9999     
2786.6     -9999      544.2      -9999      -9999      -9999      -9999     
2786.8     -9999      544.1      -9999      -9999      -9999      -9999     
2787       -9999      544.3      -9999      -9999      -9999      -9999     
2787.2     -9999      544.59     -9999      -9999      -9999      -9999     
2787.4     -9999      543.82     -9999      -9999      -9999      -9999     
2787.6     -9999      544.14     -9999      -9999      -9999      -9999     
2787.8     -9999      543.72     -9999      -9999      -9999      -9999     
2788       -9999      543.93     -9999      -9999      -9999      -9999     
2788.2     -9999      544.11     -9999      -9999      -9999      -9999     
2788.4     -9999      544.16     -9999      -9999      -9999      -9999     
2788.6     -9999      544.96     -9999      -9999      -9999      -9999     
2788.8     -9999      543.37     -9999      -9999      -9999      -9999     
2789       -9999      544.09     -9999      -9999      -9999      -9999     
