~Version
 VERS              .         2.0                           : CWLS LOG ASCII STANDARD - VERSION 2.0
 WRAP              .         NO                            : ONE LINE PER DEPTH STEP
 DLM               .         SPACE                         : DELIMITING CHARACTER(SPACE TAB OR COMMA)
~Well Information
#_______________________________________________________________________________
#
#PARAMETER_NAME    .UNIT     VALUE                         : DESCRIPTION
#_______________________________________________________________________________
STRT               .M        827.6                         : First reference value
STOP               .M        1707.2                        : Last reference value
STEP               .M        0.2                           : Step increment
NULL               .         -9999                         : Missing value
COMP               .                                       : Company
WELL               .         616                           : Well name
FLD                .                                       : Field
LOC                .                                       : Location
CNTY               .                                       : County
STAT               .                                       : State
CTRY               .                                       : Country
SRVC               .                                       : Service Company
DATE               .                                       : Date
API                .                                       : API number
PROJECT_UPGRADE_TIME .         2021-03-18T21_24_50           : 
group              .         Good                          : 
~Parameter Information Block
#_______________________________________________________________________________
#
#PARAMETER_NAME    .UNIT     VALUE                         : DESCRIPTION
#_______________________________________________________________________________
SET                .         616_8                         : 
CONF               .         00                            : 
END                .         0                             : 
ERR                .         0                             : 
GS00               .M        1705.33                       : 
GS01               .M        0825.11                       : 
MM00               .M        0210.00                       : 
NOKG               .         0                             : 
NPR                .         980615                        : 
PART               .         Бутенко                       : 
PROJECT_UPGRADE_TIME .         2021-03-18T21_24_49           : 
PRZK               .         Шакиров                       : 
TLFamily_AZIMUTH   .         True Dip Azimuth              : 
TLFamily_DEPTH     .         Measured Depth                : 
TLFamily_METKA     .                                       : 
TLFamily_ROLL      .                                       : 
TLFamily_SPEED     .         Spontaneous Potential         : 
TLFamily_ZENIT     .                                       : 
VPRG               .         310                           : 
WAY                .         UP                            : 
group              .         prim                          : 
~Curve Information
#_______________________________________________________________________________
#
#LOGNAME           .UNIT     LOG_ID                        : DESCRIPTION
#_______________________________________________________________________________
DEPTH              .M                                      :  
AZIMUTH            .DEG                                    :  
METKA              .                                       :  
ROLL               .DEG                                    :  
SPEED              .M/H                                    :  
ZENIT              .DEG                                    :  
~Ascii
827.6      14.04      0          204.8      648        32.13     
827.8      23.96      0          205.39     648        30.67     
828        8.23       0          206.35     648        31.9      
828.2      2.06       0          207.22     648        32.41     
828.4      17.42      0          207.86     648        31.6      
828.6      29.95      0          208.13     612        31.05     
828.8      85.96      0          207.99     612        32.01     
829        115.47     0          207.93     684        32.99     
829.2      29.32      0          206.84     648        31.08     
829.4      41.5       0          206.11     648        30.82     
829.6      101.23     0          206.09     648        32.8      
829.8      158.5      0          205.95     648        32.35     
830        107.92     0          205.56     648        31.12     
830.2      45.05      0          205.58     648        31.97     
830.4      54.54      0          207.26     648        32.57     
830.6      45.36      0          208.46     648        31.6      
830.8      30.21      0          208.19     612        31.25     
831        25.17      0          207.96     612        32.14     
831.2      21.17      0          207.86     684        32.14     
831.4      35.69      0          208.25     648        31.01     
831.6      65.74      0          208.47     648        31.25     
831.8      70.16      0          208.11     648        32.59     
832        40.36      0          207.13     648        31.38     
832.2      36.81      1          207.59     648        30.61     
832.4      56.54      0          208.5      720        32.03     
832.6      19.39      0          207.8      648        32.5      
832.8      19.2       0          206.99     648        31.6      
833        107.37     0          206.96     612        30.95     
833.2      102.76     0          206.68     648        32.28     
833.4      64.44      0          206.29     648        32.64     
833.6      65.97      0          205.24     648        31.53     
833.8      49.08      0          206.08     648        31.27     
834        37.34      0          207.56     648        32.8      
834.2      35.23      0          207.79     648        32.02     
834.4      15.86      0          207.55     648        30.53     
834.6      325.89     0          207.27     684        31.76     
834.8      308.75     0          207.57     612        32.43     
835        254        0          208.06     648        31.42     
835.2      281.91     0          208.4      612        31.25     
835.4      355.91     0          208.47     648        32.08     
835.6      1.07       0          208.23     648        32.23     
835.8      351.95     0          207.9      648        30.99     
836        336.67     0          207.23     648        30.92     
836.2      326.76     0          207.14     648        32.76     
836.4      309.9      0          207.5      648        31.58     
836.6      294.31     0          207.86     684        30.81     
836.8      294.62     0          208.11     648        32.04     
837        287.11     0          208.49     648        32.33     
837.2      275.79     0          208.74     648        31.26     
837.4      271.4      0          208.7      612        31.27     
837.6      272.59     0          208.6      612        32.06     
837.8      269.4      0          208.54     684        31.89     
838        260.95     0          208.55     648        30.69     
838.2      262.46     0          208.44     648        31.29     
838.4      268.14     0          208.28     648        32.58     
838.6      261.48     0          208.41     648        31.42     
838.8      256.75     0          208.67     648        30.73     
839        261.19     0          208.92     648        32.05     
839.2      260.51     0          208.98     648        31.9      
839.4      255.79     0          208.79     648        30.77     
839.6      256.73     0          208.57     648        31.31     
839.8      261.08     0          208.45     648        32.05     
840        258.27     0          208.47     648        31.67     
840.2      254.17     0          208.51     648        30.82     
840.4      257.79     0          208.36     648        31.62     
840.6      260.23     0          208.39     648        32.16     
840.8      255.2      0          208.59     648        30.95     
841        255.38     0          208.55     648        30.82     
841.2      264.73     0          208.29     648        32.26     
841.4      269.48     0          207.73     648        31.75     
841.6      289.82     0          208.87     648        30.48     
841.8      328.72     0          223.35     612        31.25     
842        245.73     1          241.76     648        30.69     
842.2      282.8      0          260.72     612        31.7      
842.4      318.38     0          287.48     648        32.51     
842.6      276.32     0          314.25     648        33.07     
842.8      249.64     0          344.54     648        32.19     
843        275.77     0          41.91      108        31.65     
843.2      253.98     0          45.52      36         31.08     
843.4      254.88     0          129.28     144        31.75     
843.6      254.23     2          151.06     576        31.73     
843.8      253.08     0          149.56     648        31.06     
844        254.57     0          149.33     648        31.62     
844.2      255.33     0          150.82     684        31.79     
844.4      253.56     0          152.3      648        31.31     
844.6      250.58     0          153.19     648        30.8      
844.8      253.33     0          153.24     648        31.38     
845        255.13     0          152.64     648        31.64     
845.2      249.04     0          151.92     648        30.27     
845.4      253.19     0          151.4      648        31.29     
845.6      255.01     0          150.39     648        31.58     
845.8      250.86     0          150.22     648        31        
846        252.07     0          152.33     648        31.59     
846.2      256.25     0          153.32     684        31.93     
846.4      252.17     0          153.56     648        31.26     
846.6      250.84     0          153.09     648        31.04     
846.8      253.27     0          152.5      684        31.55     
847        253.83     0          151.72     648        31.63     
847.2      249.4      0          151.45     612        30.86     
847.4      252.85     0          152.22     648        31.63     
847.6      253.83     0          153.03     648        31.75     
847.8      249.71     0          153.31     648        30.8      
848        253.36     0          153.26     648        31.73     
848.2      252.98     0          153.44     684        31.59     
848.4      250.17     0          153.86     648        30.97     
848.6      252.89     0          154.1      648        31.6      
848.8      253.8      0          153.85     648        31.69     
849        250.8      0          153.3      648        31.02     
849.2      250.05     0          152.55     648        30.93     
849.4      251.59     0          151.91     612        31.33     
849.6      254.17     0          151.85     648        31.92     
849.8      251.38     0          152.57     648        31.29     
850        250.72     0          153.18     612        31.19     
850.2      255.32     0          153.44     648        32.15     
850.4      251.53     0          153.23     612        31.28     
850.6      249.14     0          152.58     612        30.68     
850.8      253.55     0          152.04     648        31.68     
851        254.12     0          151.78     648        31.78     
851.2      252.34     0          151.76     612        31.38     
851.4      250.96     0          151.77     648        31.09     
851.6      251.97     0          151.59     648        31.37     
851.8      255.17     0          151.45     576        32        
