~Version
 VERS              .         2.0                           : CWLS LOG ASCII STANDARD - VERSION 2.0
 WRAP              .         NO                            : ONE LINE PER DEPTH STEP
 DLM               .         SPACE                         : DELIMITING CHARACTER(SPACE TAB OR COMMA)
~Well Information
#_______________________________________________________________________________
#
#PARAMETER_NAME    .UNIT     VALUE                         : DESCRIPTION
#_______________________________________________________________________________
STRT               .M        11                            : First reference value
STOP               .M        2775.8                        : Last reference value
STEP               .M        0.2                           : Step increment
NULL               .         -9999                         : Missing value
COMP               .                                       : Company
WELL               .         616                           : Well name
FLD                .                                       : Field
LOC                .                                       : Location
CNTY               .                                       : County
STAT               .                                       : State
CTRY               .                                       : Country
SRVC               .                                       : Service Company
DATE               .                                       : Date
API                .                                       : API number
PROJECT_UPGRADE_TIME .         2021-03-18T21_24_50           : 
group              .         Good                          : 
~Parameter Information Block
#_______________________________________________________________________________
#
#PARAMETER_NAME    .UNIT     VALUE                         : DESCRIPTION
#_______________________________________________________________________________
SET                .         D1813_D                       : 
OTHER              .         Программное обеспечение станции MONITOR-386EX 25/12/99 15_08_10   BGF V52 22/08/01 16_56_30   3.1_SNGF___BGF_N_092049: 
OTHER_10           .         Тарировки_                    : 
OTHER_11           .         TM.GRD = 0.00403*TM$.UE + -1.07: 
OTHER_12           .         MN.ATM = (9.34907e-006*TM.GRD + 0.02171)*(MN$.UE + -7.93*TM.GRD + -1787): 
OTHER_13           .         GK.MKR/H = LM. / 42.4676      : 
OTHER_14           .         GK.FLT = 0.1*GK.MKR/H[-1] + (1-0.1)*GK.MKR/H[0]: 
OTHER_2            .         Kedr.exe версия 3.4.2.51      : 
OTHER_3            .         KedrData.dll версия 3.4.2.24  : 
OTHER_4            .         Драйвер версия 2.1.1.3        : 
OTHER_5            .         Мнемоники версия 3.3 S        : 
OTHER_6            .         Прибор_ КСА-Т4                : 
OTHER_7            .         Номер прибора_ 03             : 
OTHER_8            .         Режим_ КСА-Т4                 : 
OTHER_9            .         Форма_ КВА.                   : 
PROJECT_UPGRADE_TIME .         2021-03-18T21_24_49           : 
TLFamily_DEPT      .         Measured Depth                : 
TLFamily_GK        .         Gamma Ray                     : 
TLFamily_GK$       .                                       : 
TLFamily_GK_2      .         Gamma Ray                     : 
TLFamily_LM        .         Casing Collar locator         : 
TLFamily_METKA     .                                       : 
TLFamily_MN        .                                       : 
TLFamily_MN$       .                                       : 
TLFamily_RCOR      .                                       : 
TLFamily_SPID      .         Spontaneous Potential         : 
TLFamily_TENS      .         Cable Tension                 : 
TLFamily_TIME      .         Time                          : 
TLFamily_TM        .         Temperature                   : 
TLFamily_TM$       .         Temperature                   : 
group              .         prim                          : 
~Curve Information
#_______________________________________________________________________________
#
#LOGNAME           .UNIT     LOG_ID                        : DESCRIPTION
#_______________________________________________________________________________
DEPT               .M                                      : 1 Глубина, м -    0.0 см 
GK                 .MKR/H                                  : 13 Гамма-активность, мкр./ч -  110.0 см 
GK$                .UE                                     : 10 Гамма-активность, усл.ед. -  110.0 см 
GK_2               .FLT                                    : 14 Гамма-активность фильтрованная, мкр./ч -  110.0 см 
LM                 .                                       : 9 Локатор муфт,  -   20.0 см 
METKA              .                                       : 3 Метки,  -    0.0 см 
MN                 .ATM                                    : 12 Давление, атм. -  160.0 см 
MN$                .UE                                     : 8 Давление, усл.ед. -  160.0 см 
RCOR               .CM/KM                                  : 5 Коррекция по ролику, см/км -    0.0 см 
SPID               .M/H                                    : 2 Скорость, м/час -    0.0 см 
TENS               .T                                      : 6 Натяжение кабеля, т -    0.0 см 
TIME               .S                                      : 4 Время, сек -    0.0 см 
TM                 .GRD                                    : 11 Температура, °C -  170.0 см 
TM$                .UE                                     : 7 Температура, усл.ед. -  170.0 см 
~Ascii
# ...
2579.8     9.23       392        9.23       517        0          235.823    12830      -741       -2183      0.17       8117.11    53.813     13619     
2580       9.23       392        9.24       555        2          235.844    12831      -741       -2183      0.17       8116.77    53.806     13617     
2580.2     9.25       393        9.25       644        0          235.862    12832      -735       -2184      0.17       8116.36    53.799     13615     
2580.4     9.25       393        9.25       617        0          235.883    12833      -735       -2184      0.17       8116.02    53.792     13613     
2580.6     9.25       393        9.24       565        0          235.902    12834      -735       -2185      0.15       8115.68    53.785     13612     
2580.8     9.25       393        9.22       511        0          235.922    12834      -735       -2185      0.15       8115.35    53.778     13610     
2581       9.25       393        9.17       570        0          235.943    12835      -735       -2186      0.15       8115.02    53.774     13609     
2581.2     9.25       393        9.03       515        0          235.968    12836      -735       -2186      0.16       8114.7     53.764     13607     
2581.4     8.79       373        8.65       515        0          236.002    12838      -735       -2187      0.17       8114.38    53.759     13605     
2581.6     8.41       357        8.41       464        0          236.003    12838      -735       -2187      0.17       8114.06    53.754     13604     
2581.8     8.41       357        8.41       463        0          236.048    12840      -735       -2187      0.17       8113.72    53.746     13602     
2582       8.41       357        8.41       474        0          236.048    12840      -735       -2182      0.17       8113.39    53.738     13600     
2582.2     8.41       357        8.41       499        0          236.068    12841      -735       -2182      0.17       8113.05    53.73      13598     
2582.4     8.41       357        8.41       524        0          236.089    12842      -735       -2182      0.16       8112.75    53.723     13596     
2582.6     8.41       357        8.41       513        0          236.122    12843      -735       -2183      0.15       8112.43    53.716     13595     
2582.8     8.41       357        8.42       513        0          236.151    12845      -735       -2183      0.16       8112.09    53.709     13593     
2583       8.43       358        8.44       602        0          236.17     12845      -735       -2183      0.17       8111.75    53.698     13590     
2583.2     8.45       359        8.45       517        0          236.189    12846      -735       -2182      0.17       8111.42    53.692     13588     
2583.4     8.45       359        8.45       568        0          236.211    12847      -735       -2177      0.17       8111.08    53.684     13587     
2583.6     8.45       359        8.45       532        0          236.23     12848      -735       -2177      0.17       8110.77    53.677     13585     
2583.8     8.45       359        8.46       535        0          236.25     12849      -735       -2177      0.17       8110.43    53.672     13584     
2584       8.45       359        8.46       584        0          236.269    12850      -735       -2176      0.17       8110.11    53.667     13582     
2584.2     8.45       359        8.48       623        0          236.288    12851      -735       -2181      0.17       8109.78    53.661     13581     
2584.4     8.45       359        8.51       609        0          236.309    12851      -735       -2187      0.16       8109.45    53.653     13579     
2584.6     8.56       363        8.59       609        0          236.337    12853      -735       -2190      0.16       8109.13    53.646     13577     
2584.8     8.64       367        8.64       656        0          236.367    12854      -735       -2185      0.17       8108.8     53.639     13575     
2585       8.64       367        8.64       785        0          236.37     12854      -735       -2180      0.17       8108.48    53.632     13574     
2585.2     8.64       367        8.63       769        0          236.389    12855      -735       -2174      0.15       8108.14    53.625     13572     
2585.4     8.64       367        8.61       1005       0          236.41     12856      -735       -2173      0.17       8107.84    53.618     13570     
2585.6     8.64       367        8.57       1344       0          236.429    12857      -735       -2178      0.17       8107.51    53.61      13568     
2585.8     8.64       367        8.45       1992       0          236.45     12858      -735       -2184      0.17       8107.17    53.6       13566     
2586       8.26       351        8.17       1992       0          236.469    12858      -735       -2186      0.17       8106.83    53.593     13564     
2586.2     8.03       341        8.03       3027       0          236.489    12859      -735       -2182      0.17       8106.5     53.586     13562     
2586.4     8.03       341        8.03       4714       0          236.509    12860      -735       -2182      0.17       8106.18    53.582     13561     
2586.6     8.03       341        8.03       553        0          236.527    12861      -735       -2182      0.17       8105.84    53.576     13560     
2586.8     8.03       341        8.03       515        0          236.528    12861      -735       -2177      0.17       8105.53    53.567     13557     
2587       8.03       341        8.04       516        0          236.562    12863      -735       -2182      0.17       8105.19    53.558     13555     
2587.2     8.03       341        8.06       591        0          236.573    12863      -735       -2189      0.17       8104.86    53.551     13554     
2587.4     8.03       341        8.1        458        0          236.586    12864      -735       -2193      0.17       8104.54    53.544     13552     
2587.6     8.17       347        8.21       458        0          236.606    12864      -735       -2191      0.17       8104.22    53.537     13550     
2587.8     8.27       351        8.27       441        0          236.626    12865      -735       -2188      0.17       8103.9     53.53      13548     
2588       8.27       351        8.28       392        0          236.645    12866      -735       -2189      0.17       8103.56    53.523     13547     
2588.2     8.27       351        8.29       422        0          236.666    12867      -735       -2190      0.17       8103.25    53.516     13545     
2588.4     8.27       351        8.33       438        0          236.685    12868      -735       -2191      0.17       8102.92    53.51      13544     
2588.6     8.27       351        8.42       340        0          236.705    12869      -735       -2192      0.17       8102.6     53.506     13542     
2588.8     8.27       351        8.63       348        0          236.725    12870      -735       -2193      0.17       8102.26    53.498     13541     
2589       9.05       384        9.19       394        0          236.745    12871      -735       -2194      0.17       8101.92    53.491     13539     
2589.2     9.42       400        9.42       394        0          236.765    12871      -735       -2196      0.16       8101.59    53.484     13537     
2589.4     9.42       400        9.42       371        0          236.784    12872      -735       -2196      0.15       8101.27    53.478     13535     
2589.6     9.42       400        9.42       393        0          236.805    12873      -735       -2192      0.17       8100.94    53.468     13533     
2589.8     9.42       400        9.43       391        2          236.824    12874      -735       -2193      0.15       8100.61    53.46      13531     
2590       9.42       400        9.44       399        0          236.843    12875      -727       -2195      0.17       8100.14    53.454     13530     
