~Version
 VERS              .         2.0                           : CWLS LOG ASCII STANDARD - VERSION 2.0
 WRAP              .         NO                            : ONE LINE PER DEPTH STEP
 DLM               .         SPACE                         : DELIMITING CHARACTER(SPACE TAB OR COMMA)
~Well Information
#_______________________________________________________________________________
#
#PARAMETER_NAME    .UNIT     VALUE                         : DESCRIPTION
#_______________________________________________________________________________
STRT               .M        2338.9                        : First reference value
STOP               .M        2799.2                        : Last reference value
STEP               .M        0.1                           : Step increment
NULL               .         -9999                         : Missing value
COMP               .                                       : Company
WELL               .         616                           : Well name
FLD                .                                       : Field
LOC                .                                       : Location
CNTY               .                                       : County
STAT               .                                       : State
CTRY               .                                       : Country
SRVC               .                                       : Service Company
DATE               .                                       : Date
API                .                                       : API number
PROJECT_UPGRADE_TIME .         2021-03-18T21_24_50           : 
group              .         Good                          : 
~Parameter Information Block
#_______________________________________________________________________________
#
#PARAMETER_NAME    .UNIT     VALUE                         : DESCRIPTION
#_______________________________________________________________________________
SET                .         D2662_D                       : 
OTHER              .         Программное обеспечение станции MONITOR-386EX 25/12/99 15_08_10   BGF V50 26/12/00 07_26_01   3.1_SNGF___BGF_N_092085: 
OTHER_10           .         Тарировки_                    : 
OTHER_11           .         IK1.GRD = IK1$.UE - -5.96     : 
OTHER_12           .         IK5.GRD = IK5$.UE - -0.74     : 
OTHER_13           .         IK4.GRD = IK4$.UE - -0.9      : 
OTHER_14           .         IK3.GRD = IK3$.UE - -1.28     : 
OTHER_15           .         IK2.GRD = IK2$.UE - -3.55     : 
OTHER_2            .         Kedr.exe версия 3.3.2.32      : 
OTHER_3            .         KedrData.dll версия 3.3.2.17  : 
OTHER_4            .         Драйвер версия 2.1.0.4        : 
OTHER_5            .         Мнемоники версия 3.3 S        : 
OTHER_6            .         Прибор_ Викиз                 : 
OTHER_7            .         Номер прибора_ 0006012        : 
OTHER_8            .         Режим_ Викиз                  : 
OTHER_9            .         Форма_ ВИКИЗ                  : 
PROJECT_UPGRADE_TIME .         2021-03-18T21_24_49           : 
TLFamily_DEPT      .         Measured Depth                : 
TLFamily_IK1       .         Extra Shallow Resistivity     : 
TLFamily_IK1$      .         Extra Shallow Resistivity     : 
TLFamily_IK2       .         Shallow Resistivity           : 
TLFamily_IK2$      .         Shallow Resistivity           : 
TLFamily_IK3       .         Medium Resistivity            : 
TLFamily_IK3$      .         Medium Resistivity            : 
TLFamily_IK4       .         Deep Resistivity              : 
TLFamily_IK4$      .         Deep Resistivity              : 
TLFamily_IK5       .         Resistivity 20                : 
TLFamily_IK5$      .         Resistivity 20                : 
TLFamily_METKA     .                                       : 
TLFamily_PS        .         Spontaneous Potential         : 
TLFamily_RCOR      .                                       : 
TLFamily_SPID      .         Spontaneous Potential         : 
TLFamily_TENS      .         Cable Tension                 : 
TLFamily_TIME      .         Time                          : 
group              .         prim                          : 
~Curve Information
#_______________________________________________________________________________
#
#LOGNAME           .UNIT     LOG_ID                        : DESCRIPTION
#_______________________________________________________________________________
DEPT               .M                                      : 1 Глубина, м -    0.0 см 
IK1                .GRD                                    : 13 3Ф0.5, град. -  226.0 см 
IK1$               .UE                                     : 7 3Ф0.5, усл.ед. -  226.0 см 
IK2                .GRD                                    : 17 3Ф0.7, град. -  240.0 см 
IK2$               .UE                                     : 11 3Ф0.7, усл.ед. -  240.0 см 
IK3                .GRD                                    : 16 3Ф1.0, град. -  260.0 см 
IK3$               .UE                                     : 10 3Ф1.0, усл.ед. -  260.0 см 
IK4                .GRD                                    : 15 3Ф1.4, град. -  288.0 см 
IK4$               .UE                                     : 9 3Ф1.4, усл.ед. -  288.0 см 
IK5                .GRD                                    : 14 3Ф2.0, град. -  328.0 см 
IK5$               .UE                                     : 8 3Ф2.0, усл.ед. -  328.0 см 
METKA              .                                       : 3 Метки,  -    0.0 см 
PS                 .mV                                     : 12 ПС, мВ -  372.0 см 
RCOR               .CM/KM                                  : 5 Коррекция по ролику, см/км -    0.0 см 
SPID               .M/H                                    : 2 Скорость, м/час -    0.0 см 
TENS               .T                                      : 6 Натяжение кабеля, т -    0.0 см 
TIME               .S                                      : 4 Время, сек -    0.0 см 
~Ascii
# ...
2764.6     15.42      9.46       14.49      10.94      14.25      12.97      13.66      12.76      13.44      12.7       0          323.5      -310       -1761      0          34648.52  
2764.7     15.26      9.3        14.41      10.86      14.14      12.86      13.6       12.7       13.42      12.68      0          323.43     -310       -1769      0          34648.32  
2764.8     15.13      9.17       14.32      10.77      14.04      12.76      13.52      12.62      13.38      12.64      0          323.14     -310       -1781      0          34648.1   
2764.9     14.95      8.99       14.21      10.66      13.96      12.68      13.44      12.54      13.33      12.59      0          323.71     -310       -1780      0          34647.91  
2765       14.84      8.88       14.16      10.61      13.9       12.62      13.39      12.49      13.3       12.56      0          324.22     -310       -1778      0          34647.7   
2765.1     14.91      8.95       14.18      10.63      13.92      12.64      13.39      12.49      13.27      12.53      0          324.51     -310       -1774      0          34647.49  
2765.2     14.99      9.03       14.22      10.67      13.93      12.65      13.4       12.5       13.24      12.5       0          324.52     -310       -1771      0          34647.3   
2765.3     14.97      9.01       14.17      10.62      13.92      12.64      13.39      12.49      13.2       12.46      0          324.33     -310       -1766      0          34647.11  
2765.4     14.94      8.98       14.1       10.55      13.86      12.58      13.34      12.44      13.13      12.39      0          323.37     -310       -1760      0          34646.89  
2765.5     14.89      8.93       14         10.45      13.78      12.5       13.26      12.36      13.05      12.31      0          322.6      -310       -1753      0          34646.7   
2765.6     14.74      8.78       13.86      10.31      13.66      12.38      13.15      12.25      12.94      12.2       0          321.66     -310       -1744      0          34646.52  
2765.7     14.5       8.54       13.69      10.14      13.49      12.21      12.98      12.08      12.79      12.05      0          320.98     -310       -1745      0          34646.32  
2765.8     14.28      8.32       13.54      9.99       13.33      12.05      12.8       11.9       12.65      11.91      0          320.42     -310       -1749      0          34646.12  
2765.9     14.1       8.14       13.41      9.86       13.16      11.88      12.64      11.74      12.5       11.76      0          320.42     -310       -1754      0          34645.91  
2766       13.93      7.97       13.3       9.75       13.01      11.73      12.42      11.52      12.33      11.59      0          320.83     -310       -1760      0          34645.7   
2766.1     13.8       7.84       13.18      9.63       12.83      11.55      12.23      11.33      12.11      11.37      0          321.41     -310       -1769      0          34645.47  
2766.2     13.65      7.69       12.96      9.41       12.63      11.35      12         11.1       11.89      11.15      0          321.66     -310       -1772      0          34645.28  
2766.3     13.42      7.46       12.69      9.14       12.37      11.09      11.68      10.78      11.66      10.92      0          321.6      -310       -1767      0          34645.07  
2766.4     13.06      7.1        12.31      8.76       11.97      10.69      11.38      10.48      11.36      10.62      0          321.49     -310       -1761      0          34644.86  
2766.5     12.7       6.74       11.85      8.3        11.6       10.32      11.06      10.16      11.11      10.37      0          321.41     -310       -1765      0          34644.66  
2766.6     12.23      6.27       11.39      7.84       11.16      9.88       10.75      9.85       10.87      10.13      0          321.47     -310       -1773      0          34644.47  
2766.7     11.62      5.66       10.94      7.39       10.72      9.44       10.4       9.5        10.65      9.91       0          322.32     -310       -1785      0          34644.25  
2766.8     11.13      5.17       10.54      6.99       10.43      9.15       10.21      9.31       10.54      9.8        0          323.65     -310       -1784      0          34644.06  
2766.9     10.89      4.93       10.38      6.83       10.3       9.02       10.14      9.24       10.52      9.78       0          325.14     -310       -1783      0          34643.88  
2767       10.93      4.97       10.43      6.88       10.36      9.08       10.24      9.34       10.6       9.86       0          326.8      -310       -1781      0          34643.66  
2767.1     11.11      5.15       10.61      7.06       10.56      9.28       10.45      9.55       10.84      10.1       0          328.74     -310       -1778      0          34643.45  
2767.2     11.52      5.56       11.04      7.49       10.93      9.65       10.75      9.85       11.11      10.37      0          330.55     -310       -1775      0          34643.25  
2767.3     12.51      6.55       11.68      8.13       11.46      10.18      11.25      10.35      11.45      10.71      0          330.52     -310       -1772      0          34643.07  
2767.4     13.55      7.59       12.51      8.96       12.18      10.9       11.72      10.82      11.88      11.14      0          329.16     -310       -1767      0          34642.84  
2767.5     14.26      8.3        13.1       9.55       12.62      11.34      12.14      11.24      12.18      11.44      0          327.95     -310       -1762      0          34642.66  
2767.6     14.6       8.64       13.41      9.86       12.91      11.63      12.44      11.54      12.43      11.69      0          327.11     -310       -1762      0          34642.45  
2767.7     14.92      8.96       13.7       10.15      13.13      11.85      12.59      11.69      12.62      11.88      0          326.53     -310       -1771      0          34642.25  
2767.8     15.19      9.23       14.01      10.46      13.31      12.03      12.69      11.79      12.72      11.98      0          326.35     -310       -1781      0          34642.04  
2767.9     15.42      9.46       14.23      10.68      13.47      12.19      12.77      11.87      12.78      12.04      0          326.69     -310       -1782      0          34641.84  
2768       15.64      9.68       14.43      10.88      13.63      12.35      12.82      11.92      12.81      12.07      0          326.94     -310       -1780      0          34641.62  
2768.1     15.63      9.67       14.54      10.99      13.74      12.46      12.85      11.95      12.8       12.06      0          327.33     -310       -1777      0          34641.42  
2768.2     15.58      9.62       14.58      11.03      13.84      12.56      12.89      11.99      12.78      12.04      0          327.33     -310       -1774      0          34641.23  
2768.3     15.5       9.54       14.57      11.02      13.94      12.66      12.94      12.04      12.76      12.02      0          326.95     -310       -1771      0          34641.04  
2768.4     15.32      9.36       14.48      10.93      14.01      12.73      13         12.1       12.75      12.01      0          326.54     -310       -1765      0          34640.82  
2768.5     15.2       9.24       14.4       10.85      14.07      12.79      13.07      12.17      12.77      12.03      0          325.77     -310       -1759      0          34640.64  
2768.6     15.09      9.13       14.36      10.81      14.11      12.83      13.17      12.27      12.8       12.06      0          325.32     -310       -1752      0          34640.45  
2768.7     15         9.04       14.32      10.77      14.14      12.86      13.28      12.38      12.86      12.12      0          325.24     -310       -1748      0          34640.22  
2768.8     15.04      9.08       14.36      10.81      14.19      12.91      13.39      12.49      12.93      12.19      0          325.69     -310       -1752      0          34640.04  
