~Version
 VERS              .         2.0                           : CWLS LOG ASCII STANDARD - VERSION 2.0
 WRAP              .         NO                            : ONE LINE PER DEPTH STEP
 DLM               .         SPACE                         : DELIMITING CHARACTER(SPACE TAB OR COMMA)
~Well Information
#_______________________________________________________________________________
#
#PARAMETER_NAME    .UNIT     VALUE                         : DESCRIPTION
#_______________________________________________________________________________
STRT               .M        46                            : First reference value
STOP               .M        2756.6                        : Last reference value
STEP               .M        0.2                           : Step increment
NULL               .         -9999                         : Missing value
COMP               .                                       : Company
WELL               .         616                           : Well name
FLD                .                                       : Field
LOC                .                                       : Location
CNTY               .                                       : County
STAT               .                                       : State
CTRY               .                                       : Country
SRVC               .                                       : Service Company
DATE               .                                       : Date
API                .                                       : API number
PROJECT_UPGRADE_TIME .         2021-03-18T21_24_50           : 
group              .         Good                          : 
~Parameter Information Block
#_______________________________________________________________________________
#
#PARAMETER_NAME    .UNIT     VALUE                         : DESCRIPTION
#_______________________________________________________________________________
SET                .         D4390_D                       : 
OTHER              .         Запись производится в присутствии: 
OTHER_10           .         Максимальная температура      : 
OTHER_100          .         GK.FLT = 0.1*GR.UR/H[-1] + (1-0.1)*GR.UR/H[0]: 
OTHER_11           .         Тип промывочной жидкости      : 
OTHER_12           .         Сопротивление ПЖ (Ом*м) при 20°C: 
OTHER_13           .         Плотность ПЖ(г/см3)           : 
OTHER_14           .         Вязкость ПЖ(с)                : 
OTHER_15           .         Водоотдача ПЖ(см3/30мин)      : 
OTHER_16           .         Уровень ПЖ                    : 
OTHER_17           .         Нефть ПЖ (%)                  : 
OTHER_18           .         Барит ПЖ (%)                  : 
OTHER_19           .         Гематит ПЖ (%)                : 
OTHER_2            .         Заказчик ННСН  ЦДНГ-1         : 
OTHER_20           .         КМЦ ПЖ (%)                    : 
OTHER_21           .         Разгазирование ПЖ (да,нет)    : 
OTHER_22           .         Подъемник                     : 
OTHER_23           .         Лаборатория                   : 
OTHER_24           .         Тип кабеля                    : 
OTHER_25           .         Длина кабеля (м)              : 
OTHER_26           .         Цена последней метки          : 
OTHER_27           .         Цена контрольной метки        : 
OTHER_28           .         Диаметр долота (мм)           : 
OTHER_29           .         Глубина бурения (м)           : 
OTHER_3            .         Площадь                       : 
OTHER_30           .         Искусственный забой (м)       : 
OTHER_31           .         Диаметр колонны (мм)          : 
OTHER_32           .         Толщина колонны (мм)          : 
OTHER_33           .         Башмак колонны (м)            : 
OTHER_34           .         Диаметр НКТ (мм)              : 
OTHER_35           .         Толщина НКТ (мм)              : 
OTHER_36           .         Воронка НКТ (м)               : 
OTHER_37           .         Дата цементожа                : 
OTHER_38           .         Тип, количество(т) и плотность цемента: 
OTHER_39           .         Интервалы перфорации (м)      : 
OTHER_4            .         Категория                     : 
OTHER_40           .         Направление, диаметр (мм)     : 
OTHER_41           .         Направление, глубина (м)      : 
OTHER_42           .         Кондуктор, диаметр (мм)       : 
OTHER_43           .         Кондуктор, глубина (м)        : 
OTHER_44           .         Техническая колонна, диаметр (мм): 
OTHER_45           .         Техническая колонна, глубина (м): 
OTHER_46           .         Эксплуатационная колонна, диаметр (мм): 
OTHER_47           .         Эксплуатационная колонна, глубина (м): 
OTHER_48           .         Программа Кедр-02 версия 3.4  : 
OTHER_49           .         Операционная система Windows NT 5.1 build 2600 Service Pack 2: 
OTHER_5            .         Назначение исследований       : 
OTHER_50           .         Программное обеспечение станции MONITOR-386EX 25/12/99 15_08_10   BGF V54 20/09/05 15_32_17   3.3__BGF_9030071: 
OTHER_51           .         Kedr.exe версия 3.4.2.74      : 
OTHER_52           .         KedrData.dll версия 3.4.2.29  : 
OTHER_53           .         Мнемоники версия 3.18 S       : 
OTHER_54           .         Драйвер версия 2.1.1.4        : 
OTHER_55           .         LasInf.dll 4.3.0.35           : 
OTHER_56           .         Прибор_ КСА-Т4                : 
OTHER_57           .         Номер прибора_ 160            : 
OTHER_58           .         Режим_ КСА-Т4                 : 
OTHER_59           .         Форма_ С.А.Б.                 : 
OTHER_6            .         Альтитуда стола ротора        : 
OTHER_60           .         Тарировки_                    : 
OTHER_61           .         <_techsia_sc_> Дата тарировки температуры 25.05.2010: 
OTHER_62           .         Ручной ввод коэффициентов     : 
OTHER_63           .         TM.DEGC = 0.00402*RTM.E.ACP + -0.994: 
OTHER_64           .         <_techsia_sc_> Дата тарировки давления 25.05.2010: 
OTHER_65           .         Ручной ввод коэффициентов     : 
OTHER_66           .         MN.ATM = (2.27521e-006*TM.DEGC + 0.02078)*(RMN.E.ACP + 6.2*TM.DEGC + -1688): 
OTHER_67           .         <_techsia_sc_> Дата тарировки ГК 25.05.2010: 
OTHER_68           .         Ручной ввод коэффициентов     : 
OTHER_69           .         GR.UR/H = RGR.IMP/MIN / 45.5144: 
OTHER_7            .         Вид исследований 3  6         : 
OTHER_70           .         GK.FLT = 0.1*GR.UR/H[-1] + (1-0.1)*GR.UR/H[0]: 
OTHER_71           .         <_techsia_sc_> Дата тарировки температуры 25.05.2010: 
OTHER_72           .         Ручной ввод коэффициентов     : 
OTHER_73           .         TM.DEGC = 0.00402*RTM.E.ACP + -0.994: 
OTHER_74           .         <_techsia_sc_> Дата тарировки давления 25.05.2010: 
OTHER_75           .         Ручной ввод коэффициентов     : 
OTHER_76           .         MN.ATM = (2.27521e-006*TM.DEGC + 0.02078)*(RMN.E.ACP + 6.2*TM.DEGC + -1688): 
OTHER_77           .         <_techsia_sc_> Дата тарировки ГК 25.05.2010: 
OTHER_78           .         Ручной ввод коэффициентов     : 
OTHER_79           .         GR.UR/H = RGR.IMP/MIN / 45.5144: 
OTHER_8            .         Начало бурения интервала каротажа: 
OTHER_80           .         GK.FLT = 0.1*GR.UR/H[-1] + (1-0.1)*GR.UR/H[0]: 
OTHER_81           .         <_techsia_sc_> Дата тарировки температуры 25.05.2010: 
OTHER_82           .         Ручной ввод коэффициентов     : 
OTHER_83           .         TM.DEGC = 0.00402*RTM.E.ACP + -0.994: 
OTHER_84           .         <_techsia_sc_> Дата тарировки давления 25.05.2010: 
OTHER_85           .         Ручной ввод коэффициентов     : 
OTHER_86           .         MN.ATM = (2.27521e-006*TM.DEGC + 0.02078)*(RMN.E.ACP + 6.2*TM.DEGC + -1688): 
OTHER_87           .         <_techsia_sc_> Дата тарировки ГК 25.05.2010: 
OTHER_88           .         Ручной ввод коэффициентов     : 
OTHER_89           .         GR.UR/H = RGR.IMP/MIN / 45.5144: 
OTHER_9            .         Окончание бурения интервала каротажа: 
OTHER_90           .         GK.FLT = 0.1*GR.UR/H[-1] + (1-0.1)*GR.UR/H[0]: 
OTHER_91           .         <_techsia_sc_> Дата тарировки температуры 25.05.2010: 
OTHER_92           .         Ручной ввод коэффициентов     : 
OTHER_93           .         TM.DEGC = 0.00402*RTM.E.ACP + -0.994: 
OTHER_94           .         <_techsia_sc_> Дата тарировки давления 25.05.2010: 
OTHER_95           .         Ручной ввод коэффициентов     : 
OTHER_96           .         MN.ATM = (2.27521e-006*TM.DEGC + 0.02078)*(RMN.E.ACP + 6.2*TM.DEGC + -1688): 
OTHER_97           .         <_techsia_sc_> Дата тарировки ГК 25.05.2010: 
OTHER_98           .         Ручной ввод коэффициентов     : 
OTHER_99           .         GR.UR/H = RGR.IMP/MIN / 45.5144: 
PROJECT_UPGRADE_TIME .         2021-03-18T21_24_50           : 
TLFamily_CCLC      .                                       : 
TLFamily_DEPT      .         Measured Depth                : 
TLFamily_GK        .         Gamma Ray                     : 
TLFamily_GR        .         Gamma Ray                     : 
TLFamily_METKA     .                                       : 
TLFamily_MN        .                                       : 
TLFamily_RCOR      .                                       : 
TLFamily_RGR       .                                       : 
TLFamily_RMN       .                                       : 
TLFamily_RTEN      .                                       : 
TLFamily_RTM       .                                       : 
TLFamily_SPEE      .         Cable Speed                   : 
TLFamily_TIME      .         Time                          : 
TLFamily_TM        .         Temperature                   : 
group              .         prim                          : 
~Curve Information
#_______________________________________________________________________________
#
#LOGNAME           .UNIT     LOG_ID                        : DESCRIPTION
#_______________________________________________________________________________
DEPT               .M                                      : 1 Глубина, м -    0.0 см 
CCLC               .E.ACP                                  : 9 Локатор муфт,  -   20.0 см 
GK                 .FLT                                    : 14 Гамма-активность фильтрованная, мкр./ч -  110.0 см 
GR                 .UR/H                                   : 13 Гамма-активность, мкр./ч -  110.0 см 
METKA              .CU                                     : 3 Метки,  -    0.0 см 
MN                 .ATM                                    : 12 Давление, атм. -  160.0 см 
RCOR               .CM/KM                                  : 5 Коррекция по ролику, см/км -    0.0 см 
RGR                .IMP/MIN                                : 10 Гамма-активность, усл.ед. -  110.0 см 
RMN                .E.ACP                                  : 8 Давление, усл.ед. -  160.0 см 
RTEN               .T                                      : 6 Натяжение кабеля, т -    0.0 см 
RTM                .E.ACP                                  : 7 Температура, усл.ед. -  170.0 см 
SPEE               .M/H                                    : 2 Скорость, м/час -    0.0 см 
TIME               .S                                      : 4 Время, сек -    0.0 см 
TM                 .DEGC                                   : 11 Температура, °C -  170.0 см 
~Ascii
# ...
410        485        4.04       4.04       0          41.143     -212       184        3581       0.03       3617       1667       803.6      13.548    
410.2      440        4.15       4.15       0          41.146     -212       189        3581       0.03       3618       1669       804.02     13.55     
410.4      488        4.15       4.15       0          41.171     -212       189        3582       0.04       3619       1671       804.43     13.553    
410.6      509        4.15       4.15       0          41.197     -212       189        3584       0.04       3620       1673       804.85     13.558    
410.8      504        4.15       4.15       0          41.208     -212       189        3584       0.04       3620       1674       805.29     13.559    
411        501        4.15       4.15       0          41.208     -212       189        3584       0.04       3622       1673       805.72     13.566    
411.2      450        4.16       4.16       0          41.251     -212       189        3586       0.04       3622       1672       806.14     13.568    
411.4      428        4.22       4.22       0          41.272     -212       192        3587       0.04       3624       1671       806.63     13.576    
411.6      461        4.22       4.22       0          41.283     -212       192        3588       0.04       3625       1673       807.03     13.578    
411.8      440        4.22       4.22       0          41.293     -212       192        3588       0.04       3626       1674       807.46     13.583    
412        549        4.22       4.22       0          41.312     -212       192        3589       0.04       3626       1676       807.89     13.584    
412.2      587        4.22       4.22       0          41.315     -212       192        3589       0.04       3627       1677       808.32     13.588    
412.4      539        4.16       4.16       0          41.328     -212       189        3590       0.04       3629       1676       808.76     13.593    
412.6      479        4.02       4.02       0          41.368     -212       183        3591       0.04       3630       1675       809.17     13.598    
412.8      549        4.02       4.02       0          41.393     -212       183        3593       0.04       3631       1674       809.61     13.603    
413        532        4.02       4.02       0          41.38      -212       183        3592       0.04       3632       1672       810.04     13.608    
413.2      596        4.02       4.02       0          41.422     -212       183        3594       0.04       3634       1672       810.47     13.613    
413.4      477        3.94       3.94       0          41.438     -212       179        3595       0.04       3635       1673       810.89     13.618    
413.6      418        3.8        3.8        0          41.465     -212       173        3596       0.04       3636       1674       811.32     13.622    
413.8      448        3.8        3.8        0          41.466     -212       173        3596       0.04       3637       1675       811.74     13.627    
414        463        3.8        3.8        0          41.506     -212       173        3598       0.04       3639       1676       812.17     13.634    
414.2      429        3.8        3.8        0          41.512     -212       173        3598       0.04       3641       1674       812.61     13.641    
414.4      378        3.8        3.8        0          41.531     -212       173        3599       0.04       3642       1673       813.03     13.646    
414.6      424        3.87       3.87       0          41.532     -212       176        3599       0.04       3643       1673       813.45     13.651    
414.8      410        3.95       3.95       0          41.547     -212       180        3600       0.04       3644       1672       813.88     13.655    
415        378        3.95       3.95       0          41.572     -212       180        3601       0.04       3645       1671       814.32     13.66     
415.2      482        3.95       3.95       0          41.597     -212       180        3602       0.04       3646       1671       814.74     13.665    
415.4      492        3.95       3.95       0          41.617     -212       180        3603       0.04       3647       1673       815.17     13.667    
415.6      541        3.95       3.95       0          41.627     -212       180        3603       0.04       3648       1675       815.59     13.67     
415.8      485        4.07       4.07       0          41.639     -212       185        3604       0.04       3649       1676       816.01     13.675    
416        522        4.15       4.15       0          41.656     -216       189        3605       0.04       3650       1675       816.46     13.679    
416.2      411        4.15       4.15       2          41.681     -223       189        3606       0.04       3650       1673       817.13     13.679    
416.4      332        4.15       4.15       0          41.702     -223       189        3607       0.03       3650       1672       817.55     13.679    
416.6      4192       4.15       4.15       0          41.711     -223       189        3607       0.03       3651       1673       817.98     13.682    
416.8      2763       4.15       4.15       0          41.723     -223       189        3608       0.03       3652       1674       818.41     13.687    
417        1830       4.17       4.17       0          41.756     -223       190        3610       0.03       3652       1676       818.86     13.688    
417.2      1269       4.17       4.17       0          41.766     -223       190        3610       0.03       3653       1677       819.28     13.692    
417.4      900        4.17       4.17       0          41.769     -223       190        3610       0.03       3655       1676       819.7      13.697    
417.6      630        4.17       4.17       0          41.796     -223       190        3611       0.03       3656       1674       820.13     13.702    
417.8      501        4.17       4.17       0          41.831     -223       190        3613       0.03       3658       1673       820.57     13.711    
418        579        4.2        4.2        0          41.841     -223       191        3613       0.03       3661       1674       820.99     13.722    
418.2      493        4.24       4.24       0          41.867     -223       193        3615       0.03       3663       1675       821.42     13.731    
418.4      468        4.24       4.24       0          41.893     -223       193        3616       0.03       3665       1676       821.84     13.741    
418.6      454        4.24       4.24       0          41.899     -223       193        3616       0.03       3668       1675       822.26     13.75     
418.8      489        4.24       4.24       0          41.925     -223       193        3617       0.03       3671       1675       822.69     13.762    
419        520        4.24       4.24       0          41.944     -223       193        3618       0.03       3674       1677       823.11     13.774    
419.2      538        4.11       4.11       0          41.944     -223       187        3618       0.03       3675       1677       823.55     13.779    
419.4      490        4          4          0          41.977     -223       182        3620       0.03       3677       1678       823.97     13.788    
419.6      497        4          4          0          41.988     -223       182        3620       0.03       3679       1676       824.4      13.794    
419.8      511        4          4          0          42.012     -223       182        3621       0.03       3681       1675       824.83     13.802    
420        414        4          4          0          42.031     -223       182        3622       0.03       3682       1674       825.26     13.806    
420.2      376        4          4          0          42.041     -223       182        3622       0.03       3682       1673       825.69     13.808    
