~Version
 VERS              .         2.0                           : CWLS LOG ASCII STANDARD - VERSION 2.0
 WRAP              .         NO                            : ONE LINE PER DEPTH STEP
 DLM               .         SPACE                         : DELIMITING CHARACTER(SPACE TAB OR COMMA)
~Well Information
#_______________________________________________________________________________
#
#PARAMETER_NAME    .UNIT     VALUE                         : DESCRIPTION
#_______________________________________________________________________________
STRT               .M        2644.2                        : First reference value
STOP               .M        2752.000054                   : Last reference value
STEP               .M        0.2000001                     : Step increment
NULL               .         -9999                         : Missing value
COMP               .                                       : Company
WELL               .         616                           : Well name
FLD                .                                       : Field
LOC                .                                       : Location
CNTY               .                                       : County
STAT               .                                       : State
CTRY               .                                       : Country
SRVC               .                                       : Service Company
DATE               .                                       : Date
API                .                                       : API number
PROJECT_UPGRADE_TIME .         2021-03-18T21_24_50           : 
group              .         Good                          : 
~Parameter Information Block
#_______________________________________________________________________________
#
#PARAMETER_NAME    .UNIT     VALUE                         : DESCRIPTION
#_______________________________________________________________________________
SET                .         D4407_D_2                     : 
COMM               .                                       : 
OTHER              .         Запись производится в присутствии: 
OTHER_10           .         Максимальная температура      : 
OTHER_11           .         Тип промывочной жидкости      : 
OTHER_12           .         Сопротивление ПЖ (Ом*м) при 20°C: 
OTHER_13           .         Плотность ПЖ(г/см3)           : 
OTHER_14           .         Вязкость ПЖ(с)                : 
OTHER_15           .         Водоотдача ПЖ(см3/30мин)      : 
OTHER_16           .         Уровень ПЖ                    : 
OTHER_17           .         Нефть ПЖ (%)                  : 
OTHER_18           .         Барит ПЖ (%)                  : 
OTHER_19           .         Гематит ПЖ (%)                : 
OTHER_2            .         Заказчик ННСН  ЦДНГ-1         : 
OTHER_20           .         КМЦ ПЖ (%)                    : 
OTHER_21           .         Разгазирование ПЖ (да,нет)    : 
OTHER_22           .         Подъемник                     : 
OTHER_23           .         Лаборатория                   : 
OTHER_24           .         Тип кабеля                    : 
OTHER_25           .         Длина кабеля (м)              : 
OTHER_26           .         Цена последней метки          : 
OTHER_27           .         Цена контрольной метки        : 
OTHER_28           .         Диаметр долота (мм)           : 
OTHER_29           .         Глубина бурения (м)           : 
OTHER_3            .         Площадь                       : 
OTHER_30           .         Искусственный забой (м)       : 
OTHER_31           .         Диаметр колонны (мм)          : 
OTHER_32           .         Толщина колонны (мм)          : 
OTHER_33           .         Башмак колонны (м)            : 
OTHER_34           .         Диаметр НКТ (мм)              : 
OTHER_35           .         Толщина НКТ (мм)              : 
OTHER_36           .         Воронка НКТ (м)               : 
OTHER_37           .         Дата цементожа                : 
OTHER_38           .         Тип, количество(т) и плотность цемента: 
OTHER_39           .         Интервалы перфорации (м)      : 
OTHER_4            .         Категория                     : 
OTHER_40           .         Направление, диаметр (мм)     : 
OTHER_41           .         Направление, глубина (м)      : 
OTHER_42           .         Кондуктор, диаметр (мм)       : 
OTHER_43           .         Кондуктор, глубина (м)        : 
OTHER_44           .         Техническая колонна, диаметр (мм): 
OTHER_45           .         Техническая колонна, глубина (м): 
OTHER_46           .         Эксплуатационная колонна, диаметр (мм): 
OTHER_47           .         Эксплуатационная колонна, глубина (м): 
OTHER_48           .         Программа Кедр-02 версия 3.4  : 
OTHER_49           .         Операционная система Windows NT 5.1 build 2600 Service Pack 2: 
OTHER_5            .         Назначение исследований       : 
OTHER_50           .         Программное обеспечение станции MONITOR-386EX 25/12/99 15_08_10   BGF V54 20/09/05 15_32_17   3.3__BGF_9030071: 
OTHER_51           .         Kedr.exe версия 3.4.2.74      : 
OTHER_52           .         KedrData.dll версия 3.4.2.29  : 
OTHER_53           .         Мнемоники версия 3.18 S       : 
OTHER_54           .         Драйвер версия 2.1.1.4        : 
OTHER_55           .         LasInf.dll 4.3.0.35           : 
OTHER_56           .         Прибор_ КСА-Т4                : 
OTHER_57           .         Номер прибора_ 160            : 
OTHER_58           .         Режим_ КСА-Т4                 : 
OTHER_59           .         Форма_ С.А.Б.                 : 
OTHER_6            .         Альтитуда стола ротора        : 
OTHER_60           .         Тарировки_                    : 
OTHER_61           .         <_techsia_sc_> Дата тарировки температуры 25.05.2010: 
OTHER_62           .         Ручной ввод коэффициентов     : 
OTHER_63           .         TM.DEGC = 0.00402*RTM.E.ACP + -0.994: 
OTHER_64           .         <_techsia_sc_> Дата тарировки давления 25.05.2010: 
OTHER_65           .         Ручной ввод коэффициентов     : 
OTHER_66           .         MN.ATM = (2.27521e-006*TM.DEGC + 0.02078)*(RMN.E.ACP + 6.2*TM.DEGC + -1688): 
OTHER_67           .         <_techsia_sc_> Дата тарировки ГК 25.05.2010: 
OTHER_68           .         Ручной ввод коэффициентов     : 
OTHER_69           .         GR.UR/H = RGR.IMP/MIN / 45.5144: 
OTHER_7            .         Вид исследований 3  6         : 
OTHER_70           .         GK.FLT = 0.1*GR.UR/H[-1] + (1-0.1)*GR.UR/H[0]: 
OTHER_8            .         Начало бурения интервала каротажа: 
OTHER_9            .         Окончание бурения интервала каротажа: 
PROJECT_UPGRADE_TIME .         2021-03-18T21_24_50           : 
PRTY               .         ПП-601-1                      : N партии
SRVC               .         Барковский                    : Начальник партии
TLFamily_DEPT      .         Measured Depth                : 
TLFamily_LM        .         Casing Collar locator         : 
TLFamily_MN        .                                       : 
TLFamily_TM        .         Temperature                   : 
group              .         second                        : 
~Curve Information
#_______________________________________________________________________________
#
#LOGNAME           .UNIT     LOG_ID                        : DESCRIPTION
#_______________________________________________________________________________
DEPT               .M                                      : Depth curve 
LM                 .е.ацп                                  : Локатор муфт,е.ацп 
MN                 .атм                                    : 12 Давление, атм. -  160.0 см 
TM                 .град.C                                 : Термограмма по стволу скважины,град.C 
~Ascii
# ...
2715.800036 180.998    243.839    50.066    
2716.000036 138.01     243.865    50.052    
2716.200036 67.017     243.892    50.04     
2716.400036 64.001     243.917    50.026    
2716.600036 74.997     243.935    50.012    
2716.800036 91.996     243.992    49.995    
2717.000036 83.002     243.997    49.98     
2717.200036 97.996     244.025    49.968    
2717.400037 98         244.07     49.958    
2717.600037 114.996    244.085    49.951    
2717.800037 109.001    244.113    49.942    
2718.000037 117.998    244.153    49.931    
2718.200037 127.998    244.167    49.919    
2718.400037 104.006    244.197    49.905    
2718.600037 102        244.208    49.887    
2718.800037 76.006     244.249    49.877    
2719.000037 93.996     244.279    49.868    
2719.200037 85.002     244.288    49.858    
2719.400038 90.999     244.328    49.848    
2719.600038 88.001     244.364    49.835    
2719.800038 47.01      244.374    49.829    
2720.000038 77.993     244.407    49.819    
2720.200038 105.993    244.427    49.815    
2720.400038 123.996    244.462    49.807    
2720.600038 142.995    244.468    49.803    
2720.800038 68.018     244.509    49.799    
2721.000038 87.995     244.528    49.791    
2721.200038 112.994    244.554    49.784    
2721.400039 134.995    244.589    49.779    
2721.600039 124.003    244.608    49.77     
2721.800039 76.011     244.628    49.761    
2722.000039 93.996     244.662    49.754    
2722.200039 52.01      244.689    49.746    
2722.400039 75.994     244.709    49.742    
2722.600039 59.004     244.746    49.738    
2722.800039 90.992     244.769    49.734    
2723.000039 74.004     244.781    49.705    
2723.20004 141.984    244.805    49.678    
2723.40004 308.96     244.831    49.659    
2723.60004 209.024    244.861    49.649    
2723.80004 312.975    244.882    49.643    
2724.00004 263.012    244.903    49.642    
2724.20004 2174.545   244.923    49.642    
2724.40004 660.361    244.944    49.642    
2724.60004 407.06     244.986    49.642    
2724.80004 380.006    245.007    49.642    
2725.00004 286.022    245.031    49.642    
2725.20004 288.999    245.059    49.638    
2725.400041 139.036    245.068    49.638    
2725.600041 108.007    245.111    49.635    
2725.800041 71.009     245.132    49.638    
2726.000041 94.994     245.153    49.64     
2726.200041 78.004     245.186    49.642    
2726.400041 70.002     245.217    49.646    
2726.600041 199.969    245.234    49.649    
2726.800041 146.013    245.26     49.652    
2727.000041 273.97     245.281    49.654    
2727.200041 118.037    245.302    49.658    
2727.400042 188.983    245.324    49.662    
2727.600042 215.994    245.362    49.663    
2727.800042 123.022    245.387    49.666    
2728.000042 146.994    245.402    49.67     
2728.200042 144.001    245.431    49.676    
2728.400042 104.01     245.453    49.682    
2728.600042 124.995    245.474    49.687    
2728.800042 146.995    245.505    49.694    
2729.000042 192.989    245.536    49.694    
2729.200042 146.011    245.554    49.677    
2729.400043 159.997    245.572    49.657    
2729.600043 102.014    245.591    49.642    
2729.800043 122.995    245.611    49.631    
2730.000043 66.014     245.635    49.626    
2730.200043 95.993     245.663    49.626    
2730.400043 199.975    245.69     49.626    
2730.600043 162.009    245.702    49.63     
2730.800043 121.01     245.736    49.634    
2731.000043 84.009     245.752    49.621    
2731.200043 75.002     245.755    49.566    
2731.400044 56.005     245.774    49.495    
2731.600044 73.996     245.8      49.447    
2731.800044 69.001     245.808    49.423    
2732.000044 45.006     245.826    49.41     
2732.200044 50.999     245.863    49.397    
2732.400044 53         245.886    49.387    
2732.600044 89.991     245.905    49.381    
2732.800044 387.929    245.924    49.367    
2733.000044 263.03     245.943    49.353    
2733.200044 74.045     245.961    49.339    
2733.400045 72         245.98     49.326    
2733.600045 77.999     246.02     49.311    
2733.800045 566.884    246.039    49.298    
2734.000045 177.093    246.058    49.284    
2734.200045 330.963    246.077    49.274    
2734.400045 304.006    246.088    49.265    
2734.600045 131.041    246.115    49.255    
2734.800045 83.011     246.135    49.245    
2735.000045 70.003     246.155    49.239    
2735.200045 250.957    246.176    49.236    
2735.400046 7255.337   246.195    49.227    
2735.600046 3149.975   246.215    49.218    
2735.800046 616.601    246.234    49.212    
2736.000046 135.114    246.255    49.206    
2736.200046 117.004    246.276    49.204    
2736.400046 90.006     246.317    49.204    
2736.600046 55.008     246.318    49.204    
2736.800046 56         246.35     49.208    
2737.000046 52.001     246.382    49.216    
2737.200046 83.992     246.404    49.222    
2737.400047 83         246.423    49.228    
2737.600047 70.003     246.448    49.236    
2737.800047 66.001     246.471    49.243    
2738.000047 78.997     246.493    49.253    
2738.200047 91.997     246.515    49.263    
2738.400047 60.008     246.538    49.273    
2738.600047 137.982    246.561    49.285    
2738.800047 138        246.585    49.304    
2739.000047 100.009    246.609    49.32     
2739.200047 80.005     246.646    49.34     
2739.400048 69.003     246.654    49.348    
2739.600048 79.997     246.678    49.36     
2739.800048 88.998     246.723    49.378    
2740.000048 71.004     246.726    49.399    
2740.200048 137.984    246.751    49.425    
2740.400048 69.016     246.779    49.451    
2740.600048 81.997     246.817    49.476    
2740.800048 76.001     246.828    49.496    
2741.000048 115.991    246.847    49.513    
2741.200048 92.006     246.872    49.531    
2741.400049 61.007     246.905    49.559    
2741.600049 85.994     246.941    49.59     
2741.800049 82.001     246.956    49.614    
2742.000049 134.987    246.989    49.654    
2742.200049 80.013     247.022    49.683    
2742.400049 57.005     247.047    49.713    
2742.600049 81.994     247.072    49.738    
2742.800049 82         247.099    49.773    
2743.000049 128.989    247.127    49.809    
2743.200049 93.009     247.153    49.855    
2743.40005 59.008     247.176    49.892    
2743.60005 104.989    247.188    49.925    
2743.80005 78.006     247.227    49.968    
2744.00005 70.002     247.263    50.017    
2744.20005 117.989    247.284    50.06     
2744.40005 83.008     247.299    50.114    
2744.60005 73.002     247.348    50.156    
2744.80005 54.004     247.369    50.197    
2745.00005 57.999     247.389    50.256    
2745.20005 58         247.435    50.309    
2745.400051 130.983    247.441    50.359    
2745.600051 109.005    247.468    50.392    
2745.800051 86.005     247.498    50.444    
2746.000051 66.005     247.53     50.504    
2746.200051 65         247.579    50.578    
2746.400051 1319.703   247.592    50.637    
2746.600051 7776.473   247.614    50.671    
2746.800051 2204.318   247.623    50.697    
2747.000051 653.367    247.668    50.735    
2747.200051 168.115    247.694    50.778    
2747.400052 171.999    247.711    50.81     
2747.600052 153.004    247.729    50.861    
2747.800052 74.019     247.768    50.904    
2748.000052 58.004     247.805    50.963    
2748.200052 210.964    247.835    51.009    
2748.400052 257.989    247.857    51.05     
2748.600052 133.03     247.87     51.101    
2748.800052 115.004    247.906    51.132    
2749.000052 74.01      247.913    51.132    
2749.200052 74         247.941    51.121    
2749.400053 84.997     247.974    51.13     
2749.600053 166.981    247.992    51.143    
2749.800053 126.01     248.062    51.274    
2750.000053 75.012     248.124    51.616    
2750.200053 71.001     248.174    51.939    
2750.400053 77.998     248.184    51.964    
2750.600053 74.001     248.193    51.869    
2750.800053 -9999      248.196    51.842    
2751.000053 -9999      248.228    51.89     
2751.200053 -9999      248.26     51.969    
2751.400054 -9999      248.292    52.04     
