~Version
 VERS              .         2.0                           : CWLS LOG ASCII STANDARD - VERSION 2.0
 WRAP              .         NO                            : ONE LINE PER DEPTH STEP
 DLM               .         SPACE                         : DELIMITING CHARACTER(SPACE TAB OR COMMA)
~Well Information
#_______________________________________________________________________________
#
#PARAMETER_NAME    .UNIT     VALUE                         : DESCRIPTION
#_______________________________________________________________________________
STRT               .M        2648.2                        : First reference value
STOP               .M        2755.2                        : Last reference value
STEP               .M        0.2                           : Step increment
NULL               .         -9999                         : Missing value
COMP               .                                       : Company
WELL               .         616                           : Well name
FLD                .                                       : Field
LOC                .                                       : Location
CNTY               .                                       : County
STAT               .                                       : State
CTRY               .                                       : Country
SRVC               .                                       : Service Company
DATE               .                                       : Date
API                .                                       : API number
PROJECT_UPGRADE_TIME .         2021-03-18T21_24_50           : 
group              .         Good                          : 
~Parameter Information Block
#_______________________________________________________________________________
#
#PARAMETER_NAME    .UNIT     VALUE                         : DESCRIPTION
#_______________________________________________________________________________
SET                .         D7022_D                       : 
OTHER              .         Kedr.exe версия 2.1.2.32      : 
OTHER_10           .         TM.GRD = 0.00404*TM$.UE + 0.07: 
OTHER_11           .         MN.ATM = (6.33279e-006*TM.GRD + 0.02401)*(MN$.UE + 2.72*TM.GRD + -2018): 
OTHER_12           .         GK.MKR/H = GK$.UE / 43.5489 + 0: 
OTHER_13           .         RES.SM = 0.00476*CRES.UE - 1.51709: 
OTHER_14           .         PL.GSM3 = 0 + 0 * (PL.UE / 1) +  0 * (PL.UE / 1)^2: 
OTHER_15           .         Постоянная времени ГГП = 6 сек: 
OTHER_16           .         Постоянная времени ГК = 6 сек : 
OTHER_2            .         KedrData.dll версия 3.2.2.14  : 
OTHER_3            .         LasInf.dll версия 3.2.0.13    : 
OTHER_4            .         Драйвер версия 1.2.0.5        : 
OTHER_5            .         Прибор_ КСА-M1                : 
OTHER_6            .         Номер прибора_ 155+р204       : 
OTHER_7            .         Режим_ КСА-М1 + ГГП + Резистивиметр: 
OTHER_8            .         Форма_ 223\2                  : 
OTHER_9            .         Тарировки_                    : 
PROJECT_UPGRADE_TIME .         2021-03-18T21_24_50           : 
TLFamily_CRES      .                                       : 
TLFamily_DEPT      .         Measured Depth                : 
TLFamily_GK        .         Gamma Ray                     : 
TLFamily_GK$       .                                       : 
TLFamily_LM        .         Casing Collar locator         : 
TLFamily_METKA     .                                       : 
TLFamily_MN        .                                       : 
TLFamily_MN$       .                                       : 
TLFamily_PL        .                                       : 
TLFamily_PL_2      .                                       : 
TLFamily_RCOR      .                                       : 
TLFamily_RES       .         Mud Resistivity               : 
TLFamily_SPID      .         Spontaneous Potential         : 
TLFamily_STD       .                                       : 
TLFamily_TIME      .         Time                          : 
TLFamily_TM        .         Temperature                   : 
TLFamily_TM$       .         Temperature                   : 
TLFamily_VGD       .         Gas Volume                    : 
group              .         prim                          : 
~Curve Information
#_______________________________________________________________________________
#
#LOGNAME           .UNIT     LOG_ID                        : DESCRIPTION
#_______________________________________________________________________________
DEPT               .M                                      : 1 Глубина, м -    0.0 см 
CRES               .UE                                     : 9 Проводимость, усл.ед. -  222.0 см 
GK                 .MKR/H                                  : 16 Гамма-активность, мкр./ч -  106.0 см 
GK$                .UE                                     : 13 Гамма-активность, усл.ед. -  106.0 см 
LM                 .                                       : 11 Локатор муфт,  -   16.0 см 
METKA              .                                       : 3 Метки,  -    0.0 см 
MN                 .ATM                                    : 15 Давление, атм. -  160.0 см 
MN$                .UE                                     : 7 Давление, усл.ед. -  160.0 см 
PL                 .UE                                     : 10 Плотность, усл.ед. -  270.0 см 
PL_2               .GSM3                                   : 18 Плотность, г./см3 -  270.0 см 
RCOR               .CM/KM                                  : 5 Коррекция по ролику, см/км -    0.0 см 
RES                .SM                                     : 17 Проводимость,  -  222.0 см 
SPID               .M/H                                    : 2 Скорость, м/час -    0.0 см 
STD                .                                       : 12 Приток,  -  170.0 см 
TIME               .S                                      : 4 Время, сек -    0.0 см 
TM                 .GRD                                    : 14 Температура, °C -  180.0 см 
TM$                .UE                                     : 6 Температура, усл.ед. -  180.0 см 
VGD                .                                       : 8 Влагомер,  -  170.0 см 
~Ascii
# ...
2705.6     1169       11.3       588        90         0          343.509    16000      14         0          0          4.0489     522        9912       14219.15   50.496     12482      6669      
2705.8     1171       12.38      588        71         0          343.453    15997      14         0          0          4.0562     545        9905       14220.47   50.493     12481      6668      
2706       1171       12.62      561        94         0          342.393    15954      15         0          0          4.0584     568        9903       14221.8    50.48      12478      6662      
2706.2     1166       12.52      507        71         0          341.995    15938      14         0          0          4.0307     510        9899       14223.07   50.465     12474      6678      
2706.4     1170       11.46      454        60         0          341.765    15928      14         0          0          4.0521     580        9894       14224.4    50.439     12468      6674      
2706.6     1171       10.74      413        74         0          341.1      15901      14         0          0          4.0577     550        9891       14225.69   50.425     12464      6673      
2706.8     1169       10.11      413        76         0          340.949    15895      14         0          0          4.0487     510        9889       14226.99   50.411     12461      6674      
2707       1171       9.72       395        70         0          340.302    15868      14         0          0          4.0575     570        9886       14228.32   50.4       12458      6672      
2707.2     1170       9.36       391        90         0          341.335    15911      14         0          0          4.0521     580        9883       14229.59   50.388     12455      6675      
2707.4     1171       9.15       387        91         0          341.941    15936      14         0          0          4.0578     580        9882       14230.91   50.375     12452      6672      
2707.6     1171       9.02       387        95         0          343.462    15999      14         0          0          4.0545     510        9877       14232.18   50.36      12448      6672      
2707.8     1170       9.32       438        77         0          343.374    15995      14         0          0          4.0521     510        9872       14233.5    50.348     12445      6672      
2708       1170       9.68       438        89         0          343.616    16005      14         0          0          4.0513     580        9867       14234.78   50.332     12441      6669      
2708.2     1171       9.86       437        85         0          343.641    16006      14         0          0          4.0545     580        9866       14236.03   50.322     12439      6667      
2708.4     1164       9.95       437        81         0          343.946    16019      14         0          0          4.0252     568        9865       14237.37   50.309     12435      6666      
2708.6     1168       10         439        121        0          344.04     16023      13         0          0          4.0426     580        9867       14238.64   50.282     12429      6668      
2708.8     1167       10.04      439        113        0          343.514    16001      14         0          0          4.0358     580        9869       14239.95   50.283     12429      6667      
2709       1168       10.39      476        116        1          342.556    15962      14         0          0          4.0426     545        9867       14241.22   50.274     12427      6669      
2709.2     1168       10.65      476        106        0          342.402    15956      14         0          0          4.0426     568        9866       14242.55   50.263     12424      6668      
2709.4     1170       10.88      485        113        0          341.808    15931      14         0          0          4.0521     580        9862       14243.88   50.252     12421      6670      
2709.6     1169       11         483        106        0          341.254    15909      15         0          0          4.0473     540        9858       14245.18   50.239     12418      6669      
2709.8     1167       10.93      473        137        0          341.359    15913      14         0          0          4.0378     533        9856       14246.47   50.225     12415      6665      
2710       1167       10.9       473        147        0          340.595    15882      14         0          0          4.037      580        9854       14247.81   50.212     12411      6668      
2710.2     1167       10.29      415        120        1          341.019    15899      14         0          0          4.0378     520        9850       14250.25   50.188     12405      6669      
2710.4     1166       9.91       414        105        0          341.744    15929      14         0          0          4.0347     550        9846       14251.56   50.166     12400      6667      
2710.6     1166       9.68       412        94         0          343.058    15983      14         0          0          4.0331     510        9843       14252.86   50.151     12396      6667      
2710.8     1167       9.57       411        99         0          343.213    15990      14         0          0          4.0378     580        9841       14254.2    50.14      12393      6662      
2711       1167       9.5        411        114        0          343.948    16020      14         0          0          4.0378     522        9839       14255.45   50.13      12391      6659      
2711.2     1167       9.22       393        96         0          343.679    16009      14         0          0          4.037      531        9837       14256.76   50.117     12388      6661      
2711.4     1167       9.18       407        99         0          343.831    16015      15         0          0          4.0355     580        9834       14258.05   50.108     12386      6661      
2711.6     1166       9.42       421        90         1          344.206    16031      13         0          0          4.0338     580        9830       14259.38   50.095     12382      6661      
2711.8     1166       9.65       446        100        0          344.191    16030      14         0          0          4.0331     570        9823       14260.64   50.085     12380      6662      
2712       1166       9.99       450        76         0          343.7      16010      14         0          0          4.0315     545        9819       14261.98   50.052     12372      6662      
2712.2     1166       10.25      464        115        0          343.098    15986      13         0          0          4.0347     522        9818       14263.29   50.041     12369      6673      
2712.4     1165       10.4       464        218        0          342.407    15957      14         0          0          4.0291     580        9815       14264.56   50.027     12366      6669      
2712.6     1165       10.53      465        246        1          342.275    15952      14         0          0          4.0283     580        9810       14265.9    50.008     12361      6667      
2712.8     1164       10.6       465        180        0          341.971    15940      14         0          0          4.022      545        9805       14267.17   49.984     12355      6674      
2713       1167       10.21      395        156        0          341.771    15932      14         0          0          4.0359     522        9799       14268.48   49.959     12349      6667      
2713.2     1166       9.64       395        93         0          341.006    15900      14         0          0          4.0315     580        9793       14269.75   49.946     12346      6672      
2713.4     1167       8.87       336        152        0          342.339    15955      14         0          0          4.0374     560        9793       14271.06   49.936     12343      6675      
2713.6     1166       8.31       336        391        0          343.121    15987      14         0          0          4.0315     580        9794       14272.35   49.932     12342      6667      
