~Version
 VERS              .         2.0                           : CWLS LOG ASCII STANDARD - VERSION 2.0
 WRAP              .         NO                            : ONE LINE PER DEPTH STEP
 DLM               .         SPACE                         : DELIMITING CHARACTER(SPACE TAB OR COMMA)
~Well Information
#_______________________________________________________________________________
#
#PARAMETER_NAME    .UNIT     VALUE                         : DESCRIPTION
#_______________________________________________________________________________
STRT               .M        19.65                         : First reference value
STOP               .M        2766.85                       : Last reference value
STEP               .M        0.2                           : Step increment
NULL               .         -9999                         : Missing value
COMP               .                                       : Company
WELL               .         616                           : Well name
FLD                .                                       : Field
LOC                .                                       : Location
CNTY               .                                       : County
STAT               .                                       : State
CTRY               .                                       : Country
SRVC               .                                       : Service Company
DATE               .                                       : Date
API                .                                       : API number
PROJECT_UPGRADE_TIME .         2021-03-18T21_24_50           : 
group              .         Good                          : 
~Parameter Information Block
#_______________________________________________________________________________
#
#PARAMETER_NAME    .UNIT     VALUE                         : DESCRIPTION
#_______________________________________________________________________________
SET                .         D7016_D_2                     : 
NPR                .         155                           : Номер прибора
OTHER              .         Kedr.exe версия 2.1.2.32      : 
OTHER_10           .         TM.GRD = 0.00404*TM$.UE + 0.07: 
OTHER_11           .         MN.ATM = (6.33279e-006*TM.GRD + 0.02401)*(MN$.UE + 2.72*TM.GRD + -2018): 
OTHER_12           .         GK.MKR/H = GK$.UE / 43.5489 + 0: 
OTHER_13           .         RES.SM = 0.00476*CRES.UE - 1.51709: 
OTHER_14           .         PL.GSM3 = 0 + 0 * (PL.UE / 1) +  0 * (PL.UE / 1)^2: 
OTHER_15           .         Постоянная времени ГГП = 6 сек: 
OTHER_16           .         Постоянная времени ГК = 6 сек : 
OTHER_2            .         KedrData.dll версия 3.2.2.14  : 
OTHER_3            .         LasInf.dll версия 3.2.0.13    : 
OTHER_4            .         Драйвер версия 1.2.0.5        : 
OTHER_5            .         Прибор_ КСА-M1                : 
OTHER_6            .         Номер прибора_ 155+р204       : 
OTHER_7            .         Режим_ КСА-М1 + ГГП + Резистивиметр: 
OTHER_8            .         Форма_ 223\2                  : 
OTHER_9            .         Тарировки_                    : 
PR                 .         КСА-Т7 М1                     : Тип прибора
PROJECT_UPGRADE_TIME .         2021-03-18T21_24_50           : 
PRTY               .         ПП-223_2                      : Номер партии
SRV                .         ЦКРС                          : Заказчик
SRVC               .         Лузин  А.Б.                   : Начальник партии
TLFamily_DEPT      .         Measured Depth                : 
TLFamily_LM        .         Casing Collar locator         : 
TLFamily_MN        .                                       : 
TLFamily_SPID      .         Spontaneous Potential         : 
TLFamily_TM        .         Temperature                   : 
group              .         second                        : 
~Curve Information
#_______________________________________________________________________________
#
#LOGNAME           .UNIT     LOG_ID                        : DESCRIPTION
#_______________________________________________________________________________
DEPT               .M                                      : Depth curve 
LM                 .е.ацп                                  : Локация муфт 
MN                 .атм                                    : Манометрия, атм 
SPID               .м/ч                                    : Скорость записи,м/час 
TM                 .град.С                                 : Термометрия,град.С 
~Ascii
# ...
1479.65    5671.786   130.96     1660       47.27     
1479.85    3668.891   130.98     1660       47.28     
1480.05    2646.911   130.99     1660       47.28     
1480.25    1817.944   131        1660       47.28     
1480.45    1290.977   131.04     1660       47.29     
1480.65    1074.008   131.05     1660       47.29     
1480.85    1148.979   131.07     1660       47.3      
1481.05    953.039    131.08     1660       47.31     
1481.25    1314.969   131.12     1660       47.32     
1481.45    1020.982   131.14     1660       47.32     
1481.65    857.01     131.13     1659.999   47.33     
1481.85    950.997    131.18     1652.996   47.33     
1482.05    927.009    131.19     1613.005   47.34     
1482.25    1014.985   131.19     1659.997   47.35     
1482.45    871.997    131.2      1633       47.35     
1482.65    847.989    131.21     1635.003   47.35     
1482.85    746.993    131.26     1660       47.36     
1483.05    681.15     131.27     1660       47.36     
1483.25    2076.891   131.27     1660       47.37     
1483.45    1060.981   131.3      1656.995   47.37     
1483.65    882.149    131.31     1611.005   47.38     
1483.85    2274.967   131.34     1660       47.38     
1484.05    1962.935   131.33     1660       47.38     
1484.25    1353.962   131.37     1660       47.38     
1484.45    1000.986   131.38     1660       47.39     
1484.65    868.059    131.37     1660       47.4      
1484.85    1418.099   131.42     1659.994   47.4      
1485.05    2341.933   131.44     1604       47.41     
1485.25    1717.951   131.45     1600.001   47.41     
1485.45    1259.029   131.45     1611.005   47.41     
1485.65    1528.957   131.47     1660       47.42     
1485.85    1130.98    131.49     1660       47.42     
1486.05    946.168    131.53     1660       47.43     
1486.25    2508.909   131.47     1660       47.43     
1486.45    1662.949   131.52     1660.006   47.43     
1486.65    1187.979   131.57     1713.995   47.43     
1486.85    989.977    131.59     1667.999   47.45     
1487.05    774.976    131.59     1660       47.44     
1487.25    549.005    131.6      1660       47.45     
1487.45    592.995    131.62     1660       47.46     
1487.65    550.097    131.63     1660       47.46     
1487.85    1450.967   131.66     1660.004   47.47     
1488.05    1142.99    131.69     1693.004   47.47     
1488.25    1050.986   131.69     1729.995   47.47     
1488.45    920.98     131.72     1681.998   47.47     
1488.65    733.015    131.72     1660       47.48     
1488.85    877.037    131.74     1660       47.49     
1489.05    1217.061   131.75     1660       47.49     
1489.25    1786.992   131.78     1660       47.5      
1489.45    1716.961   131.81     1660       47.5      
1489.65    1356.973   131.82     1660       47.51     
1489.85    1108.962   131.83     1660       47.51     
1490.05    754.981    131.85     1660       47.51     
1490.25    583.004    131.85     1660       47.52     
1490.45    621.471    131.89     1660       47.53     
1490.65    4991.804   131.89     1660       47.53     
1490.85    3171.885   131.92     1660       47.53     
1491.05    2099.926   131.93     1660       47.54     
1491.25    1413.947   131.95     1660.005   47.55     
1491.45    921.972    131.95     1709.002   47.55     
1491.65    660.986    131.97     1729.993   47.56     
1491.85    532.992    132.01     1666.999   47.56     
1492.05    463.002    132        1659.999   47.56     
1492.25    485.996    132.04     1649.996   47.57     
1492.45    447.989    132.06     1617.005   47.58     
1492.65    343.106    132.06     1660       47.58     
1492.85    1328.962   132.09     1660.004   47.58     
1493.05    975.972    132.09     1700.998   47.58     
1493.25    719.991    132.13     1681.998   47.58     
1493.45    633.987    132.14     1660       47.58     
1493.65    511.224    132.14     1660       47.59     
1493.85    2585.898   132.15     1660       47.59     
1494.05    1644.937   132.2      1660       47.59     
1494.25    1061.962   132.21     1659.998   47.59     
1494.45    712.985    132.21     1639.996   47.6      
1494.65    572.987    132.25     1600.004   47.6      
1494.85    454.993    132.27     1633.003   47.61     
1495.05    394.004    132.29     1660       47.61     
1495.25    428.001    132.29     1660       47.61     
1495.45    433.999    132.32     1660       47.62     
1495.65    422.998    132.32     1659.999   47.62     
1495.85    402.016    132.32     1649.996   47.63     
1496.05    546.999    132.35     1617.005   47.63     
1496.25    537.992    132.37     1660       47.63     
1496.45    459.994    132.38     1660       47.64     
1496.65    404.013    132.39     1659.995   47.65     
1496.85    524.998    132.41     1610.999   47.65     
1497.05    503.989    132.42     1600.006   47.66     
1497.25    400.039    132.44     1660       47.66     
1497.45    758.987    132.47     1660       47.67     
1497.65    636.991    132.48     1660       47.67     
1497.85    553.993    132.49     1660       47.68     
1498.05    484.998    132.51     1660       47.69     
1498.25    462.993    132.53     1660       47.69     
1498.45    400.998    132.54     1660       47.69     
1498.65    379.011    132.54     1660       47.7      
1498.85    484.003    132.57     1660       47.7      
1499.05    512.002    132.6      1660       47.7      
1499.25    534.139    132.62     1660       47.71     
1499.45    1819.93    132.62     1660       47.71     
1499.65    1169.963   132.62     1660       47.72     
1499.85    823.97     132.63     1660       47.72     
1500.05    548.987    132.68     1660       47.72     
1500.25    427.996    132.69     1660       47.73     
1500.45    389.99     132.69     1660       47.73     
1500.65    298.011    132.72     1660       47.73     
1500.85    399.989    132.76     1660       47.74     
1501.05    300        132.75     1660       47.75     
1501.25    299.009    132.77     1659.995   47.75     
1501.45    378.525    132.79     1609.999   47.76     
1501.65    5212.855   132.82     1600.007   47.76     
1501.85    3876.885   132.84     1660       47.77     
1502.05    2816.902   132.84     1660       47.77     
1502.25    1914.943   132.85     1659.998   47.78     
1502.45    1387.974   132.87     1636.996   47.78     
1502.65    1151.993   132.88     1600.008   47.78     
1502.85    1088.975   132.89     1672.001   47.79     
1503.05    856.065    132.93     1680.998   47.79     
1503.25    1450.046   132.96     1660       47.79     
1503.45    1872.925   132.95     1659.994   47.79     
1503.65    1180.971   132.99     1603.006   47.8      
1503.85    914.004    133.02     1659.998   47.8      
1504.05    953.018    133.03     1642.998   47.81     
1504.25    1116.997   133.04     1623.004   47.81     
1504.45    1093.104   133.06     1660       47.82     
1504.65    2050.935   133.07     1660.005   47.82     
1504.85    1453.975   133.09     1707.997   47.83     
1505.05    1226.035   133.11     1677.998   47.83     
1505.25    1547.975   133.12     1660       47.83     
1505.45    1319.953   133.12     1660       47.84     
1505.65    888.981    133.15     1660       47.84     
1505.85    715.11     133.17     1660       47.85     
1506.05    1722.944   133.18     1660       47.85     
1506.25    1204.965   133.19     1660       47.86     
1506.45    883.982    133.23     1660       47.86     
1506.65    714.988    133.24     1660       47.87     
1506.85    608.986    133.26     1660       47.88     
1507.05    480.995    133.27     1659.994   47.88     
1507.25    432.012    133.29     1603.006   47.89     
1507.45    539.006    133.3      1660       47.89     
1507.65    591.991    133.34     1660       47.9      
1507.85    511.997    133.35     1660       47.9      
1508.05    489.054    133.37     1660.004   47.91     
1508.25    983.974    133.38     1694.999   47.91     
1508.45    744.983    133.39     1686.997   47.91     
1508.65    590.986    133.41     1659.994   47.92     
