~Version
 VERS              .         2.0                           : CWLS LOG ASCII STANDARD - VERSION 2.0
 WRAP              .         NO                            : ONE LINE PER DEPTH STEP
 DLM               .         SPACE                         : DELIMITING CHARACTER(SPACE TAB OR COMMA)
~Well Information
#_______________________________________________________________________________
#
#PARAMETER_NAME    .UNIT     VALUE                         : DESCRIPTION
#_______________________________________________________________________________
STRT               .M        3.4                           : First reference value
STOP               .M        832.4                         : Last reference value
STEP               .M        0.2                           : Step increment
NULL               .         -9999                         : Missing value
COMP               .                                       : Company
WELL               .         616                           : Well name
FLD                .                                       : Field
LOC                .                                       : Location
CNTY               .                                       : County
STAT               .                                       : State
CTRY               .                                       : Country
SRVC               .                                       : Service Company
DATE               .                                       : Date
API                .                                       : API number
PROJECT_UPGRADE_TIME .         2021-03-18T21_24_50           : 
group              .         Good                          : 
~Parameter Information Block
#_______________________________________________________________________________
#
#PARAMETER_NAME    .UNIT     VALUE                         : DESCRIPTION
#_______________________________________________________________________________
SET                .         ULN                           : 
PROJECT_UPGRADE_TIME .         2021-03-18T21_24_50           : 
TLFamily_AK4       .                                       : 
TLFamily_ALFAK     .                                       : 
TLFamily_AMPL      .                                       : 
TLFamily_DEPTH     .         Measured Depth                : 
TLFamily_DK1       .                                       : 
TLFamily_DK2       .                                       : 
TLFamily_DTK       .         Compressional Slowness        : 
TLFamily_QCBL      .                                       : 
TLFamily_T1        .         Travel Time 1                 : 
TLFamily_T2        .         Travel Time 2                 : 
group              .         prim                          : 
~Curve Information
#_______________________________________________________________________________
#
#LOGNAME           .UNIT     LOG_ID                        : DESCRIPTION
#_______________________________________________________________________________
DEPTH              .M                                      : 0 Depth curve 
AK4                .                                       : 2 Амплитуда - Волна по колонне - Канал1 
ALFAK              .дБ/м                                   : 1 Затухание - Волна по колонне 
AMPL               .                                       : 8 Коэффициент усиления ВС 
DK1                .дБ                                     : 3 Кривая ослабления - Волна по колонне - Канал1 
DK2                .дБ                                     : 4 Кривая ослабления - Волна по колонне - Канал2 
DTK                .мкс/м                                  : 5 ДельтаТ - Волна по породе 
QCBL               .                                       : 9 Контакт цемент-колонна 
T1                 .мкс                                    : 6 Время пробега - Волна по породе - Канал1 
T2                 .мкс                                    : 7 Время пробега - Волна по породе - Канал2 
~Ascii
# ...
602        2681.982   31.111     1          21.87      36.545     196.357    2          349        447.18    
602.2      2717.139   30.008     1          21.755     33.991     195.664    2          349.347    447.18    
602.4      2640.093   26.347     1          22.009     32.414     195.664    2          349.347    447.18    
602.6      2337.522   21.908     1          23.166     32.232     195.306    2          349.347    447.001   
602.8      2046.651   16.839     1          23.575     32.744     195.458    2          349.271    447.001   
603        2151.012   18.469     1          24.61      33.221     210.727    2          349.406    447.001   
603.2      1988.693   15.357     1          25.496     31.486     218.362    2          349.406    447.001   
603.4      1853.198   15.099     1          27.002     31.582     218.904    2          349.136    447.001   
603.6      1360.992   14.141     1          27.756     33.231     203.635    2          349        447.001   
603.8      1843.086   22.039     1          25.659     36.147     196        2          349        447.001   
604        2325.18    25.205     1          23.563     36.166     196        2          349        447.001   
604.2      2765.759   24.631     1          21.598     33.914     196        2          349        447.001   
604.4      2724.245   21.631     1          21.73      32.545     196        2          349        447.001   
604.6      2682.73    21.265     1          21.861     32.494     196        2          349        447.001   
604.8      2406.713   21.06      1          21.829     33.46      196        2          349        447.001   
605        2426.91    22.769     1          21.764     34.25      196        2          349        447.001   
605.2      2318.448   25.901     1          21.356     36.19      196        2          349        447.001   
605.4      2859.635   34.59      1          20.636     38.714     196        2          349        447.001   
605.6      3104.609   39.588     1          19.949     40.526     196        2          349        447.001   
605.8      3478.241   39.903     1          19.606     39.557     196        2          349        447.001   
606        3478.241   33.963     1          19.606     36.587     196        2          349        447.001   
606.2      3478.241   29.921     1          19.606     34.566     196        2          349        447.001   
606.4      3350.705   28.648     1          19.943     34.267     196        2          349        447.001   
606.6      3093.763   28.392     1          20.668     35.196     196        2          349        447.001   
606.8      2562.3     26.071     1          21.227     35.81      196        2          349        447.001   
607        2542.852   24.898     1          21.282     35.279     196        2          349        447.001   
607.2      2652.81    24.575     1          20.949     34.454     196        2          349        447.001   
607.4      3138.27    27.823     1          20.508     34.419     196        2          349        447.001   
607.6      3482.851   29.799     1          19.66      34.559     195.488    2          349.256    447.001   
607.8      3827.433   30.394     1          18.812     34.009     194.977    2          349.512    447.001   
608        4733.987   30.389     1          17.087     32.281     194.164    2          349.918    447.001   
608.2      5396.941   29.998     1          15.935     30.934     193.863    2          350.069    447.001   
608.4      6059.896   29.059     1          14.783     29.313     193.562    2          350.219    447.001   
608.6      6402.24    26.782     1          14.33      27.721     192.635    2          350.682    447.001   
608.8      7168.888   24.739     1          13.399     25.768     190.274    2          351.863    447.001   
609        8661.064   24.545     1          11.797     24.07      188.268    2          353.816    447.951   
609.2      9810.897   23.993     1          10.649     22.645     187.048    2          355.305    448.83    
609.4      10536.43   23.694     1          9.979      21.826     187.837    2          356.077    449.996   
609.6      10536.43   24.005     1          9.979      21.981     187.723    2          356.077    449.939   
609.8      10536.43   23.65      1          9.979      21.804     188.01     2          356.077    450.083   
610        10536.43   23.345     1          9.979      21.652     187.723    2          356.077    449.939   
610.2      10487.22   22.466     1          10.02      21.253     188.377    2          355.933    450.122   
610.4      10438.02   21.965     1          10.061     21.043     188.771    2          355.789    450.174   
610.6      10444.5    21.547     1          10.055     20.829     188.691    2          355.679    450.025   
610.8      10633.77   21.291     1          9.901      20.547     188.447    2          355.808    450.032   
611        11354.72   21.585     1          9.354      20.146     187.823    2          356.569    450.481   
611.2      12019.99   22.1       1          8.852      19.902     186.502    2          357.295    450.546   
611.4      12343.44   21.878     1          8.607      19.545     186.369    2          357.429    450.614   
611.6      12135.21   21.432     1          8.754      19.47      187.392    2          356.933    450.63    
611.8      11926.98   21.075     1          8.902      19.44      189.761    2          356.437    451.318   
612        11926.98   22.325     1          8.902      20.065     190.582    2          356.437    451.728   
612.2      9785.898   20.127     1          11.141     21.205     190.118    2          356.27     451.329   
612.4      7644.818   18.749     1          13.38      22.755     188.973    2          356.102    450.589   
612.6      5503.739   17.112     1          15.62      24.176     188.484    2          355.935    450.178   
612.8      5503.739   19.289     1          15.62      25.264     188.343    2          355.935    450.107   
613        5178.479   21.62      1          16.185     26.995     188.547    2          356.489    450.763   
613.2      4740.434   23.891     1          16.975     28.92      187.08     2          357.09     450.631   
613.4      4302.391   27.776     1          17.764     31.652     187.004    2          357.692    451.194   
613.6      3983.812   30.124     1          18.451     33.513     183.839    2          357.759    452.384   
613.8      3929.678   30.768     1          18.565     33.95      178.573    2          359.417    455.201   
614        4125.307   29.615     1          18.186     32.993     177.434    2          362.713    457.927   
614.2      4526.732   28.22      1          17.345     31.455     179.692    2          365.989    459.627   
614.4      6149.088   31.401     1          15.051     30.751     191.84     2          363.616    459.536   
614.6      7521.68    37.515     1          13.251     32.008     198.686    2          359.605    458.948   
614.8      8894.272   37.917     1          11.451     30.409     204.174    2          355.594    457.681   
615        8894.272   33.7       1          11.451     28.119     202.77     2          355.594    456.979   
615.2      9291.723   24.824     1          11.086     23.316     198.443    2          355.091    454.313   
615.4      9453.88    23.062     1          10.932     22.281     194.007    2          354.616    451.62    
615.6      8963.927   22.965     1          11.455     22.937     189.548    2          354.744    449.519   
615.8      7292.653   22.462     1          13.445     24.676     188.304    2          355.282    449.434   
616        5598.965   21.496     1          15.704     26.452     187.971    2          356.541    450.527   
616.2      4557.386   20.784     1          17.285     27.677     188.243    2          357.197    451.319   
616.4      4048.612   21.796     1          18.322     29.22      188.834    2          358.063    452.481   
