~Version
 VERS              .         2.0                           : CWLS LOG ASCII STANDARD - VERSION 2.0
 WRAP              .         NO                            : ONE LINE PER DEPTH STEP
 DLM               .         SPACE                         : DELIMITING CHARACTER(SPACE TAB OR COMMA)
~Well Information
#_______________________________________________________________________________
#
#PARAMETER_NAME    .UNIT     VALUE                         : DESCRIPTION
#_______________________________________________________________________________
STRT               .M        2648.2                        : First reference value
STOP               .M        2755.2                        : Last reference value
STEP               .M        0.2                           : Step increment
NULL               .         -9999                         : Missing value
COMP               .                                       : Company
WELL               .         616                           : Well name
FLD                .                                       : Field
LOC                .                                       : Location
CNTY               .                                       : County
STAT               .                                       : State
CTRY               .                                       : Country
SRVC               .                                       : Service Company
DATE               .                                       : Date
API                .                                       : API number
PROJECT_UPGRADE_TIME .         2021-03-18T21_24_50           : 
group              .         Good                          : 
~Parameter Information Block
#_______________________________________________________________________________
#
#PARAMETER_NAME    .UNIT     VALUE                         : DESCRIPTION
#_______________________________________________________________________________
SET                .         D7022_D                       : 
OTHER              .         Kedr.exe версия 2.1.2.32      : 
OTHER_10           .         TM.GRD = 0.00404*TM$.UE + 0.07: 
OTHER_11           .         MN.ATM = (6.33279e-006*TM.GRD + 0.02401)*(MN$.UE + 2.72*TM.GRD + -2018): 
OTHER_12           .         GK.MKR/H = GK$.UE / 43.5489 + 0: 
OTHER_13           .         RES.SM = 0.00476*CRES.UE - 1.51709: 
OTHER_14           .         PL.GSM3 = 0 + 0 * (PL.UE / 1) +  0 * (PL.UE / 1)^2: 
OTHER_15           .         Постоянная времени ГГП = 6 сек: 
OTHER_16           .         Постоянная времени ГК = 6 сек : 
OTHER_2            .         KedrData.dll версия 3.2.2.14  : 
OTHER_3            .         LasInf.dll версия 3.2.0.13    : 
OTHER_4            .         Драйвер версия 1.2.0.5        : 
OTHER_5            .         Прибор_ КСА-M1                : 
OTHER_6            .         Номер прибора_ 155+р204       : 
OTHER_7            .         Режим_ КСА-М1 + ГГП + Резистивиметр: 
OTHER_8            .         Форма_ 223\2                  : 
OTHER_9            .         Тарировки_                    : 
PROJECT_UPGRADE_TIME .         2021-03-18T21_24_50           : 
TLFamily_CRES      .                                       : 
TLFamily_DEPT      .         Measured Depth                : 
TLFamily_GK        .         Gamma Ray                     : 
TLFamily_GK$       .                                       : 
TLFamily_LM        .         Casing Collar locator         : 
TLFamily_METKA     .                                       : 
TLFamily_MN        .                                       : 
TLFamily_MN$       .                                       : 
TLFamily_PL        .                                       : 
TLFamily_PL_2      .                                       : 
TLFamily_RCOR      .                                       : 
TLFamily_RES       .         Mud Resistivity               : 
TLFamily_SPID      .         Spontaneous Potential         : 
TLFamily_STD       .                                       : 
TLFamily_TIME      .         Time                          : 
TLFamily_TM        .         Temperature                   : 
TLFamily_TM$       .         Temperature                   : 
TLFamily_VGD       .         Gas Volume                    : 
group              .         prim                          : 
~Curve Information
#_______________________________________________________________________________
#
#LOGNAME           .UNIT     LOG_ID                        : DESCRIPTION
#_______________________________________________________________________________
DEPT               .M                                      : 1 Глубина, м -    0.0 см 
CRES               .UE                                     : 9 Проводимость, усл.ед. -  222.0 см 
GK                 .MKR/H                                  : 16 Гамма-активность, мкр./ч -  106.0 см 
GK$                .UE                                     : 13 Гамма-активность, усл.ед. -  106.0 см 
LM                 .                                       : 11 Локатор муфт,  -   16.0 см 
METKA              .                                       : 3 Метки,  -    0.0 см 
MN                 .ATM                                    : 15 Давление, атм. -  160.0 см 
MN$                .UE                                     : 7 Давление, усл.ед. -  160.0 см 
PL                 .UE                                     : 10 Плотность, усл.ед. -  270.0 см 
PL_2               .GSM3                                   : 18 Плотность, г./см3 -  270.0 см 
RCOR               .CM/KM                                  : 5 Коррекция по ролику, см/км -    0.0 см 
RES                .SM                                     : 17 Проводимость,  -  222.0 см 
SPID               .M/H                                    : 2 Скорость, м/час -    0.0 см 
STD                .                                       : 12 Приток,  -  170.0 см 
TIME               .S                                      : 4 Время, сек -    0.0 см 
TM                 .GRD                                    : 14 Температура, °C -  180.0 см 
TM$                .UE                                     : 6 Температура, усл.ед. -  180.0 см 
VGD                .                                       : 8 Влагомер,  -  170.0 см 
~Ascii
# ...
2730.2     1160       13.44      625        115        1          349.909    16282      14         0          0          4.0037     557        9294       14381.32   47.478     11735      6673      
2730.4     1161       13.96      632        126        0          349.82     16278      14         0          0          4.0093     510        9297       14382.63   47.496     11739      6674      
2730.6     1161       14.13      613        135        0          349.59     16269      14         0          0          4.0093     568        9302       14383.9    47.505     11741      6676      
2730.8     1162       14.1       613        126        0          348.829    16237      14         0          0          4.0156     580        9304       14385.24   47.528     11747      6677      
2731       1163       14.34      648        118        0          349.199    16252      14         0          0          4.018      557        9306       14386.5    47.547     11752      6678      
2731.2     1163       14.68      646        131        0          349.925    16282      14         0          0          4.0188     580        9311       14387.82   47.576     11759      6673      
2731.4     1164       14.74      645        118        0          351.795    16359      14         0          0          4.0259     580        9317       14389.09   47.603     11766      6687      
2731.6     1166       14.67      619        117        0          352.089    16371      14         0          0          4.0331     545        9321       14390.42   47.629     11772      6683      
2731.8     1165       13.74      556        119        0          350.449    16303      14         0          0          4.0283     580        9334       14391.71   47.66      11780      6688      
2732       1167       13.06      507        93         0          349.711    16272      14         0          0          4.0378     520        9340       14393.06   47.706     11791      6678      
2732.2     1170       12.07      483        104        0          350.134    16289      14         0          0          4.0497     560        9349       14394.32   47.754     11803      6678      
2732.4     1171       11.51      465        133        0          350.764    16315      14         0          0          4.0585     580        9355       14395.61   47.788     11812      6676      
2732.6     1173       11.09      465        128        0          351.588    16348      14         0          0          4.0664     580        9361       14396.88   47.833     11823      6677      
2732.8     1175       10.86      460        141        0          352.317    16378      14         0          0          4.0759     580        9373       14398.19   47.891     11837      6683      
2733       1176       10.7       459        115        0          353.491    16426      14         0          0          4.0799     580        9384       14399.51   47.948     11851      6682      
2733.2     1177       10.51      438        112        0          352.084    16368      13         0          0          4.0854     545        9394       14400.8    48.003     11865      6682      
2733.4     1176       10.29      438        150        0          352.499    16384      14         0          0          4.0823     522        9405       14402.13   48.059     11879      6681      
2733.6     1179       10.08      424        123        0          353.658    16432      14         0          0          4.0949     580        9417       14403.38   48.113     11892      6675      
2733.8     1180       9.91       424        126        0          352.738    16394      14         0          0          4.0997     580        9428       14404.7    48.168     11905      6675      
2734       1180       9.72       412        160        0          352.79     16395      13         0          0          4.1018     545        9439       14405.98   48.222     11919      6678      
2734.2     1183       9.59       412        145        0          352.695    16391      14         0          0          4.1132     580        9451       14407.25   48.289     11936      6671      
2734.4     1186       9.7        436        119        0          352.81     16395      14         0          0          4.1283     510        9464       14408.57   48.357     11952      6670      
2734.6     1187       9.85       436        132        0          352.346    16376      14         0          0          4.133      566        9478       14409.85   48.437     11972      6671      
2734.8     1189       9.91       434        119        0          352.145    16367      14         0          0          4.1441     580        9494       14411.17   48.517     11992      6679      
2735       1190       9.94       434        110        0          351.384    16335      14         0          0          4.1473     568        9510       14412.51   48.592     12011      6680      
2735.2     1191       9.74       413        121        0          350.962    16317      14         0          0          4.1521     510        9524       14413.76   48.675     12031      6679      
2735.4     1194       9.61       413        141        0          351.743    16349      14         0          0          4.1671     580        9540       14415.09   48.748     12049      6677      
2735.6     1196       9.43       402        118        0          353.021    16401      14         0          0          4.1735     545        9557       14416.36   48.833     12070      6675      
2735.8     1197       9.33       402        93         0          352.438    16376      14         0          0          4.1806     580        9576       14417.63   48.924     12093      6674      
2736       1198       9.2        394        115        0          353.518    16420      14         0          0          4.1854     510        9594       14418.94   49.017     12116      6663      
2736.2     1198       9.13       394        143        0          352.115    16362      14         0          0          4.1854     568        9610       14420.21   49.079     12131      6667      
2736.4     1200       9.24       407        125        0          352.479    16376      14         0          0          4.1949     580        9629       14421.53   49.157     12150      6664      
2736.6     1202       9.27       402        6470       0          354.576    16462      14         0          0          4.2029     580        9646       14422.84   49.229     12168      6661      
2736.8     1206       9.21       398        2989       0          354.585    16462      14         0          0          4.2221     568        9663       14424.1    49.314     12189      6663      
2737       1208       9.23       411        736        0          354.717    16466      14         0          0          4.2338     510        9680       14425.42   49.407     12212      6668      
2737.2     1209       9.33       411        250        0          354.357    16451      14         0          0          4.2378     580        9699       14426.73   49.532     12243      6674      
2737.4     1213       9.44       424        177        0          354.825    16469      14         0          0          4.2552     533        9718       14428.02   49.653     12273      6661      
2737.6     1215       9.74       438        162        0          354.346    16449      14         0          0          4.2663     580        9741       14429.29   49.778     12304      6667      
2737.8     1217       9.89       438        132        0          354.296    16446      14         0          0          4.2766     568        9763       14430.61   49.891     12332      6676      
2738       1219       9.98       438        143        0          353.727    16422      13         0          0          4.2838     580        9785       14431.94   49.966     12351      6681      
2738.2     1221       9.99       434        148        0          353.112    16396      14         0          0          4.2965     557        9806       14433.21   50.071     12376      6679      
