~Version
 VERS              .         2.0                           : CWLS LOG ASCII STANDARD - VERSION 2.0
 WRAP              .         NO                            : ONE LINE PER DEPTH STEP
 DLM               .         SPACE                         : DELIMITING CHARACTER(SPACE TAB OR COMMA)
~Well Information
#_______________________________________________________________________________
#
#PARAMETER_NAME    .UNIT     VALUE                         : DESCRIPTION
#_______________________________________________________________________________
STRT               .M        2714.4                        : First reference value
STOP               .M        2769                          : Last reference value
STEP               .M        0.2000004                     : Step increment
NULL               .         -9999                         : Missing value
COMP               .                                       : Company
WELL               .         616                           : Well name
FLD                .                                       : Field
LOC                .                                       : Location
CNTY               .                                       : County
STAT               .                                       : State
CTRY               .                                       : Country
SRVC               .                                       : Service Company
DATE               .                                       : Date
API                .                                       : API number
PROJECT_UPGRADE_TIME .         2021-03-18T21_24_50           : 
group              .         Good                          : 
~Parameter Information Block
#_______________________________________________________________________________
#
#PARAMETER_NAME    .UNIT     VALUE                         : DESCRIPTION
#_______________________________________________________________________________
SET                .         D1163_D                       : 
OTHER              .         Программное обеспечение станции MONITOR-386EX 25/12/99 15_08_10   BGF V52 22/08/01 16_56_30   3.2_BGF_N_3070031: 
OTHER_10           .         Тарировки_                    : 
OTHER_11           .         TM.GRD = 0.00403*TM$.UE + -1.19: 
OTHER_12           .         MN.ATM = (7.1e-006*TM.GRD + 0.02017)*(MN$.UE + -3.03*TM.GRD + -1833): 
OTHER_13           .         Id error                      : 
OTHER_2            .         Kedr.exe версия 3.4.2.51      : 
OTHER_3            .         KedrData.dll версия 3.4.2.24  : 
OTHER_4            .         Драйвер версия 2.1.1.8        : 
OTHER_5            .         Мнемоники версия 3.3 S        : 
OTHER_6            .         Прибор_ КСА-М1                : 
OTHER_7            .         Номер прибора_ 265            : 
OTHER_8            .         Режим_ КСА-М1                 : 
OTHER_9            .         Форма_ ТЕРМОМЕТР              : 
PROJECT_UPGRADE_TIME .         2021-03-18T21_24_49           : 
TLFamily_DEPT      .         Measured Depth                : 
TLFamily_GK        .         Gamma Ray                     : 
TLFamily_GK$       .                                       : 
TLFamily_LM        .         Casing Collar locator         : 
TLFamily_METKA     .                                       : 
TLFamily_MN        .                                       : 
TLFamily_MN$       .                                       : 
TLFamily_RCOR      .                                       : 
TLFamily_SPID      .         Spontaneous Potential         : 
TLFamily_STD       .                                       : 
TLFamily_TENS      .         Cable Tension                 : 
TLFamily_TIME      .         Time                          : 
TLFamily_TM        .         Temperature                   : 
TLFamily_TM$       .         Temperature                   : 
TLFamily_VGD       .         Gas Volume                    : 
group              .         prim                          : 
~Curve Information
#_______________________________________________________________________________
#
#LOGNAME           .UNIT     LOG_ID                        : DESCRIPTION
#_______________________________________________________________________________
DEPT               .M                                      : 1 Глубина, м -    0.0 см 
GK                 .MKR/H                                  : 15 Гамма-активность, мкр./ч -  110.0 см 
GK$                .UE                                     : 12 Гамма-активность, усл.ед. -  110.0 см 
LM                 .                                       : 10 Локатор муфт,  -   20.0 см 
METKA              .                                       : 3 Метки,  -    0.0 см 
MN                 .ATM                                    : 14 Давление, атм. -  160.0 см 
MN$                .UE                                     : 8 Давление, усл.ед. -  160.0 см 
RCOR               .CM/KM                                  : 5 Коррекция по ролику, см/км -    0.0 см 
SPID               .M/H                                    : 2 Скорость, м/час -    0.0 см 
STD                .                                       : 11 Приток,  -  170.0 см 
TENS               .T                                      : 6 Натяжение кабеля, т -    0.0 см 
TIME               .S                                      : 4 Время, сек -    0.0 см 
TM                 .GRD                                    : 13 Температура, °C -  180.0 см 
TM$                .UE                                     : 7 Температура, усл.ед. -  180.0 см 
VGD                .                                       : 9 Влагомер,  -  170.0 см 
~Ascii
2714.3999023 -9999      -9999      -9999      -9999      -9999      -9999      -9999      -9999      -9999      -9999      -9999      -9999      -9999      -9999     
2714.6     -9999      -9999      -9999      -9999      -9999      -9999      -1400      -329       -9999      0          18669.03   -9999      -9999      -9999     
2714.8     -9999      -9999      -9999      0          -9999      -9999      -1400      -325       -9999      0          18666.87   -9999      -9999      -9999     
2715       -9999      -9999      1          0          -9999      -9999      -1400      -313       -9999      0          18664.6    -9999      -9999      -9999     
2715.2     -9999      -9999      1          0          -9999      -9999      -1400      -316       -9999      0          18662.21   -9999      -9999      -9999     
2715.4     -9999      -9999      1          0          -9999      -9999      -1400      -317       -9999      0          18660.05   -9999      -9999      -9999     
2715.6     -9999      -9999      1          0          -9999      -9999      -1400      -310       -9999      0          18657.77   -9999      -9999      -9999     
2715.8     7.01       281        1          0          -9999      -9999      -1400      -319       -9999      0          18655.5    -9999      -9999      -9999     
2716       8.19       329        1          0          -9999      -9999      -1400      -318       -9999      0          18653.22   -9999      -9999      -9999     
2716.2     8.98       356        1          0          251.678    14202      -1400      -317       -9999      0          18650.94   -9999      -9999      -9999     
2716.4     9.48       407        1          0          251.699    14203      -1400      -315       32374      0          18648.67   88.747     22317      6513      
2716.6     9.43       403        1          0          251.725    14204      -1400      -319       32374      0          18646.4    88.756     22319      6513      
2716.8     9.41       404        1          0          251.746    14205      -1400      -318       32373      0          18644.01   88.768     22322      6513      
2717       9.1        405        1          0          251.767    14206      -1400      -316       32373      0          18641.85   88.782     22326      6512      
2717.2     7.81       351        1          0          251.783    14207      -1400      -313       32374      0          18639.69   88.79      22328      6512      
2717.4     6.05       264        1          0          251.789    14207      -1400      -318       32373      0          18637.3    88.807     22332      6512      
2717.6     5.27       223        1          0          251.831    14209      -1400      -317       32373      0          18635.03   88.82      22335      6512      
2717.8     5.79       245        1          0          251.852    14210      -1400      -315       32373      0          18632.83   88.825     22336      6511      
2718       5.48       237        1          0          251.867    14211      -1400      -319       32373      0          18630.48   88.83      22338      6511      
2718.2     5.03       237        1          0          251.873    14211      -1400      -318       32373      0          18628.21   88.84      22340      6510      
2718.4     5.02       202        1          0          251.894    14212      -1400      -316       32372      0          18626.03   88.848     22342      6510      
2718.6     5.4        224        1          0          251.915    14213      -1400      -313       32373      0          18623.74   88.862     22346      6509      
2718.8     5.51       244        1          0          251.936    14214      -1400      -318       32372      0          18621.34   88.866     22347      6509      
2719       5.11       225        1          0          251.957    14215      -1400      -317       32372      0          18619.16   88.878     22350      6509      
2719.2     4.79       202        1          0          251.979    14216      -1400      -314       32373      0          18616.88   88.897     22354      6509      
2719.4     4.99       213        1          0          252.001    14217      -1400      -317       32373      0          18614.53   88.93      22362      6507      
2719.6     5.04       216        1          0          252.024    14218      -1400      -315       32373      0          18612.3    88.983     22375      6506      
2719.8     5.04       211        1          0          252.025    14218      -1400      -312       32373      0          18610.12   89.082     22400      6505      
2720       5.68       243        1          2          252.047    14219      -1400      -312       32373      0          18607.83   89.146     22416      6505      
2720.2     5.66       243        1          0          252.068    14220      -1400      -318       32372      0          18605.22   89.171     22422      6504      
2720.4     5.61       242        1          0          252.089    14221      -1400      -316       32373      0          18603.04   89.18      22424      6504      
2720.6     5.83       235        1          0          252.11     14222      -1400      -314       32373      0          18600.76   89.191     22427      6503      
2720.8     5.84       258        1          0          252.131    14223      -1400      -318       32373      0          18598.43   89.207     22431      6504      
2721       5.5        240        1          0          252.152    14224      -1400      -316       32372      0          18596.18   89.227     22436      6503      
2721.2     5.31       224        1          0          252.173    14225      -1400      -313       32373      0          18594      89.237     22438      6504      
2721.4     5.5        233        1          0          252.194    14226      -1400      -308       32372      0          18591.71   89.247     22441      6504      
2721.6     5.65       238        1          0          252.215    14227      -1400      -319       32372      0          18589.31   89.259     22444      6503      
2721.8     5.92       256        1          0          252.236    14228      -1400      -310       32373      0          18587.13   89.271     22447      6502      
2722       5.53       238        1          0          252.258    14229      -1400      -305       32373      0          18584.84   89.283     22450      6502      
2722.2     5.24       222        1          0          252.279    14230      -1400      -318       32373      0          18582.56   89.296     22453      6502      
2722.4     5.55       237        1          0          252.279    14230      -1400      -316       32373      0          18580.27   89.304     22455      6502      
2722.6     5.59       239        1          0          252.3      14231      -1400      -313       32372      0          18578.09   89.313     22457      6502      
2722.8     5.52       240        1          0          252.321    14232      -1400      -309       32372      0          18575.8    89.322     22460      6502      
2723       5.69       231        1          0          252.357    14234      -1400      -315       32372      0          18573.44   89.33      22462      6502      
2723.2     5.94       251        1          0          252.368    14234      -1400      -312       32373      0          18571.22   89.332     22462      6502      
2723.4     5.77       261        1          0          252.389    14235      -1400      -307       32374      0          18568.94   89.336     22463      6501      
2723.6     5.12       223        1          0          252.404    14236      -1400      -322       32372      0          18566.54   89.34      22464      6502      
2723.8     4.76       209        1          0          252.425    14237      -1400      -330       32373      0          18564.36   89.34      22464      6502      
2724       4.35       190        1          0          252.446    14238      -1400      -323       32373      0          18562.18   89.344     22465      6500      
