~Version
 VERS              .         2.0                           : CWLS LOG ASCII STANDARD - VERSION 2.0
 WRAP              .         NO                            : ONE LINE PER DEPTH STEP
 DLM               .         SPACE                         : DELIMITING CHARACTER(SPACE TAB OR COMMA)
~Well Information
#_______________________________________________________________________________
#
#PARAMETER_NAME    .UNIT     VALUE                         : DESCRIPTION
#_______________________________________________________________________________
STRT               .M        2645.2                        : First reference value
STOP               .M        2753.000054                   : Last reference value
STEP               .M        0.2000001                     : Step increment
NULL               .         -9999                         : Missing value
COMP               .                                       : Company
WELL               .         616                           : Well name
FLD                .                                       : Field
LOC                .                                       : Location
CNTY               .                                       : County
STAT               .                                       : State
CTRY               .                                       : Country
SRVC               .                                       : Service Company
DATE               .                                       : Date
API                .                                       : API number
PROJECT_UPGRADE_TIME .         2021-03-18T21_24_50           : 
group              .         Good                          : 
~Parameter Information Block
#_______________________________________________________________________________
#
#PARAMETER_NAME    .UNIT     VALUE                         : DESCRIPTION
#_______________________________________________________________________________
SET                .         D4407_D                       : 
OTHER              .         Запись производится в присутствии: 
OTHER_10           .         Максимальная температура      : 
OTHER_11           .         Тип промывочной жидкости      : 
OTHER_12           .         Сопротивление ПЖ (Ом*м) при 20°C: 
OTHER_13           .         Плотность ПЖ(г/см3)           : 
OTHER_14           .         Вязкость ПЖ(с)                : 
OTHER_15           .         Водоотдача ПЖ(см3/30мин)      : 
OTHER_16           .         Уровень ПЖ                    : 
OTHER_17           .         Нефть ПЖ (%)                  : 
OTHER_18           .         Барит ПЖ (%)                  : 
OTHER_19           .         Гематит ПЖ (%)                : 
OTHER_2            .         Заказчик ННСН  ЦДНГ-1         : 
OTHER_20           .         КМЦ ПЖ (%)                    : 
OTHER_21           .         Разгазирование ПЖ (да,нет)    : 
OTHER_22           .         Подъемник                     : 
OTHER_23           .         Лаборатория                   : 
OTHER_24           .         Тип кабеля                    : 
OTHER_25           .         Длина кабеля (м)              : 
OTHER_26           .         Цена последней метки          : 
OTHER_27           .         Цена контрольной метки        : 
OTHER_28           .         Диаметр долота (мм)           : 
OTHER_29           .         Глубина бурения (м)           : 
OTHER_3            .         Площадь                       : 
OTHER_30           .         Искусственный забой (м)       : 
OTHER_31           .         Диаметр колонны (мм)          : 
OTHER_32           .         Толщина колонны (мм)          : 
OTHER_33           .         Башмак колонны (м)            : 
OTHER_34           .         Диаметр НКТ (мм)              : 
OTHER_35           .         Толщина НКТ (мм)              : 
OTHER_36           .         Воронка НКТ (м)               : 
OTHER_37           .         Дата цементожа                : 
OTHER_38           .         Тип, количество(т) и плотность цемента: 
OTHER_39           .         Интервалы перфорации (м)      : 
OTHER_4            .         Категория                     : 
OTHER_40           .         Направление, диаметр (мм)     : 
OTHER_41           .         Направление, глубина (м)      : 
OTHER_42           .         Кондуктор, диаметр (мм)       : 
OTHER_43           .         Кондуктор, глубина (м)        : 
OTHER_44           .         Техническая колонна, диаметр (мм): 
OTHER_45           .         Техническая колонна, глубина (м): 
OTHER_46           .         Эксплуатационная колонна, диаметр (мм): 
OTHER_47           .         Эксплуатационная колонна, глубина (м): 
OTHER_48           .         Программа Кедр-02 версия 3.4  : 
OTHER_49           .         Операционная система Windows NT 5.1 build 2600 Service Pack 2: 
OTHER_5            .         Назначение исследований       : 
OTHER_50           .         Программное обеспечение станции MONITOR-386EX 25/12/99 15_08_10   BGF V54 20/09/05 15_32_17   3.3__BGF_9030071: 
OTHER_51           .         Kedr.exe версия 3.4.2.74      : 
OTHER_52           .         KedrData.dll версия 3.4.2.29  : 
OTHER_53           .         Мнемоники версия 3.18 S       : 
OTHER_54           .         Драйвер версия 2.1.1.4        : 
OTHER_55           .         LasInf.dll 4.3.0.35           : 
OTHER_56           .         Прибор_ КСА-Т4                : 
OTHER_57           .         Номер прибора_ 160            : 
OTHER_58           .         Режим_ КСА-Т4                 : 
OTHER_59           .         Форма_ С.А.Б.                 : 
OTHER_6            .         Альтитуда стола ротора        : 
OTHER_60           .         Тарировки_                    : 
OTHER_61           .         <_techsia_sc_> Дата тарировки температуры 25.05.2010: 
OTHER_62           .         Ручной ввод коэффициентов     : 
OTHER_63           .         TM.DEGC = 0.00402*RTM.E.ACP + -0.994: 
OTHER_64           .         <_techsia_sc_> Дата тарировки давления 25.05.2010: 
OTHER_65           .         Ручной ввод коэффициентов     : 
OTHER_66           .         MN.ATM = (2.27521e-006*TM.DEGC + 0.02078)*(RMN.E.ACP + 6.2*TM.DEGC + -1688): 
OTHER_67           .         <_techsia_sc_> Дата тарировки ГК 25.05.2010: 
OTHER_68           .         Ручной ввод коэффициентов     : 
OTHER_69           .         GR.UR/H = RGR.IMP/MIN / 45.5144: 
OTHER_7            .         Вид исследований 3  6         : 
OTHER_70           .         GK.FLT = 0.1*GR.UR/H[-1] + (1-0.1)*GR.UR/H[0]: 
OTHER_8            .         Начало бурения интервала каротажа: 
OTHER_9            .         Окончание бурения интервала каротажа: 
PROJECT_UPGRADE_TIME .         2021-03-18T21_24_50           : 
TLFamily_CCLC      .                                       : 
TLFamily_DEPT      .         Measured Depth                : 
TLFamily_GK        .         Gamma Ray                     : 
TLFamily_GR        .         Gamma Ray                     : 
TLFamily_METKA     .                                       : 
TLFamily_MN        .                                       : 
TLFamily_RCOR      .                                       : 
TLFamily_RGR       .                                       : 
TLFamily_RMN       .                                       : 
TLFamily_RTEN      .                                       : 
TLFamily_RTM       .                                       : 
TLFamily_SPEE      .         Cable Speed                   : 
TLFamily_TIME      .         Time                          : 
TLFamily_TM        .         Temperature                   : 
group              .         prim                          : 
~Curve Information
#_______________________________________________________________________________
#
#LOGNAME           .UNIT     LOG_ID                        : DESCRIPTION
#_______________________________________________________________________________
DEPT               .M                                      : 1 Глубина, м -    0.0 см 
CCLC               .E.ACP                                  : 9 Локатор муфт,  -   20.0 см 
GK                 .FLT                                    : 14 Гамма-активность фильтрованная, мкр./ч -  110.0 см 
GR                 .UR/H                                   : 13 Гамма-активность, мкр./ч -  110.0 см 
METKA              .CU                                     : 3 Метки,  -    0.0 см 
MN                 .ATM                                    : 12 Давление, атм. -  160.0 см 
RCOR               .CM/KM                                  : 5 Коррекция по ролику, см/км -    0.0 см 
RGR                .IMP/MIN                                : 10 Гамма-активность, усл.ед. -  110.0 см 
RMN                .E.ACP                                  : 8 Давление, усл.ед. -  160.0 см 
RTEN               .T                                      : 6 Натяжение кабеля, т -    0.0 см 
RTM                .E.ACP                                  : 7 Температура, усл.ед. -  170.0 см 
SPEE               .M/H                                    : 2 Скорость, м/час -    0.0 см 
TIME               .S                                      : 4 Время, сек -    0.0 см 
TM                 .DEGC                                   : 11 Температура, °C -  170.0 см 
~Ascii
2645.1999512 -9999      -9999      -9999      -9999      -9999      -9999      -9999      -9999      -9999      -9999      -9999      -9999      -9999     
2645.4     -9999      -9999      -9999      0          -9999      -1117      -9999      -9999      0.38       -9999      -248       1.48       -9999     
2645.6     37         -9999      -9999      0          -9999      -1117      -9999      -9999      0.31       -9999      2          3.52       -9999     
2645.8     31         -9999      -9999      0          -9999      -1117      -9999      -9999      0.29       -9999      153        5.41       -9999     
2646       30         -9999      -9999      2          -9999      -1117      -9999      -9999      0.28       -9999      240        6.92       -9999     
2646.2     90         -9999      -9999      0          -9999      -1117      -9999      -9999      0.27       -9999      314        8.44       -9999     
2646.400001 344        -9999      -9999      0          -9999      -1117      -9999      -9999      0.26       -9999      363        9.94       -9999     
2646.600001 219        7.45       7.45       0          -9999      -1117      339        -9999      0.26       -9999      412        11.38      -9999     
2646.800001 718        8.09       8.09       0          -9999      -1117      368        -9999      0.26       -9999      442        12.85      -9999     
2647.000001 607        8.09       8.09       0          238.263    -1117      368        12656      0.26       -9999      462        14.22      -9999     
2647.200001 648        8.33       8.33       0          238.15     -1117      379        12651      0.26       16869      491        15.49      66.819    
2647.400001 739        8.34       8.34       0          238.149    -1117      380        12651      0.26       16869      516        16.8       66.819    
2647.600001 510        8.41       8.41       0          238.148    -1117      383        12651      0.26       16868      530        18.07      66.814    
2647.800001 2935       8.31       8.31       0          238.232    -1117      378        12655      0.26       16866      540        19.33      66.807    
2648.000001 2122       8.31       8.31       0          238.233    -1117      378        12655      0.26       16867      548        20.6       66.812    
2648.200001 934        7.95       7.95       0          238.309    -1117      362        12659      0.26       16870      554        21.9       66.823    
2648.400002 537        7.95       7.95       0          238.261    -1117      362        12656      0.26       16870      558        23.13      66.823    
2648.600002 562        8.33       8.33       0          238.239    -1117      379        12655      0.26       16868      566        24.37      66.815    
2648.800002 540        8.33       8.33       0          238.272    -1117      379        12657      0.26       16865      575        25.58      66.803    
2649.000002 567        7.73       7.73       0          238.23     -1117      352        12655      0.26       16862      572        26.9       66.79     
2649.200002 1000       7.73       7.73       0          238.277    -1117      352        12658      0.26       16857      542        28.47      66.772    
2649.400002 697        7.38       7.38       0          238.327    -1117      336        12660      0.26       16854      524        29.91      66.758    
2649.600002 367        7.38       7.38       0          238.328    -1117      336        12660      0.26       16850      521        31.19      66.741    
2649.800002 477        8.63       8.63       0          238.397    -1117      393        12664      0.26       16846      537        32.47      66.727    
2650.000002 495        8.63       8.63       0          238.383    -1117      393        12663      0.26       16842      544        33.77      66.709    
2650.200002 439        9.29       9.29       0          238.362    -1117      423        12662      0.26       16838      550        35.09      66.693    
2650.400003 338        8.79       8.79       0          238.398    -1117      400        12664      0.26       16835      553        36.34      66.681    
2650.600003 308        8.79       8.79       0          238.357    -1117      400        12662      0.26       16829      556        37.62      66.659    
2650.800003 540        8.37       8.37       0          238.371    -1117      381        12663      0.26       16824      557        38.88      66.638    
2651.000003 468        8.28       8.28       0          238.411    -1117      377        12665      0.26       16820      566        40.19      66.622    
2651.200003 356        8.28       8.28       0          238.412    -1117      377        12665      0.26       16817      569        41.45      66.608    
2651.400003 400        8.28       8.28       0          238.468    -1117      377        12668      0.26       16812      568        42.72      66.591    
2651.600003 419        9.05       9.05       0          238.465    -1117      412        12668      0.26       16807      566        43.97      66.569    
2651.800003 270        9.05       9.05       0          238.483    -1117      412        12669      0.26       16802      566        45.3       66.551    
2652.000003 422        9.38       9.38       0          238.48     -1117      427        12669      0.26       16798      565        46.57      66.533    
2652.200003 388        9.38       9.38       0          238.477    -1117      427        12669      0.26       16792      564        47.88      66.511    
2652.400004 210        8.99       8.99       0          238.485    -1117      409        12670      0.26       16789      565        49.14      66.498    
2652.600004 326        8.99       8.99       0          238.493    -1117      409        12670      0.26       16785      564        50.41      66.48     
2652.800004 356        8.99       8.99       0          238.51     -1117      409        12671      0.26       16779      565        51.72      66.459    
2653.000004 305        8.99       8.99       0          238.542    -1117      409        12673      0.26       16774      566        52.94      66.437    
2653.200004 374        8.72       8.72       0          238.566    -1117      397        12674      0.26       16769      576        54.12      66.419    
2653.400004 464        8.72       8.72       0          238.574    -1117      397        12675      0.26       16764      580        55.38      66.396    
2653.600004 408        8.24       8.24       0          238.599    -1117      375        12676      0.26       16758      576        56.7       66.372    
2653.800004 215        8.24       8.24       0          238.577    -1117      375        12675      0.26       16752      574        57.95      66.348    
2654.000004 477        8.24       8.24       0          238.593    -1117      375        12676      0.26       16746      573        59.22      66.325    
2654.200004 420        8.24       8.24       0          238.589    -1117      375        12676      0.26       16738      573        60.49      66.294    
2654.400005 492        8.04       8.04       0          238.606    -1117      366        12677      0.26       16731      572        61.8       66.266    
2654.600005 366        8.04       8.04       0          238.623    -1117      366        12678      0.26       16726      572        63.06      66.243    
2654.800005 395        7.71       7.71       0          238.657    -1117      351        12680      0.26       16718      569        64.33      66.214    
2655.000005 411        7.71       7.71       0          238.658    -1117      351        12680      0.26       16710      570        65.58      66.182    
2655.200005 343        7.82       7.82       0          238.671    -1117      356        12681      0.26       16703      570        66.84      66.152    
2655.400005 391        7.82       7.82       1          238.689    -1117      356        12682      0.26       16697      569        68.17      66.129    
