~Version
 VERS              .         2.0                           : CWLS LOG ASCII STANDARD - VERSION 2.0
 WRAP              .         NO                            : ONE LINE PER DEPTH STEP
 DLM               .         SPACE                         : DELIMITING CHARACTER(SPACE TAB OR COMMA)
~Well Information
#_______________________________________________________________________________
#
#PARAMETER_NAME    .UNIT     VALUE                         : DESCRIPTION
#_______________________________________________________________________________
STRT               .M        5.8                           : First reference value
STOP               .M        2774.6                        : Last reference value
STEP               .M        0.2                           : Step increment
NULL               .         -9999                         : Missing value
COMP               .                                       : Company
WELL               .         616                           : Well name
FLD                .                                       : Field
LOC                .                                       : Location
CNTY               .                                       : County
STAT               .                                       : State
CTRY               .                                       : Country
SRVC               .                                       : Service Company
DATE               .                                       : Date
API                .                                       : API number
PROJECT_UPGRADE_TIME .         2021-03-18T21_24_50           : 
group              .         Good                          : 
~Parameter Information Block
#_______________________________________________________________________________
#
#PARAMETER_NAME    .UNIT     VALUE                         : DESCRIPTION
#_______________________________________________________________________________
SET                .         D1747_D                       : 
OTHER              .         Программное обеспечение станции MONITOR-386EX 25/12/99 15_08_10   BGF V52 22/08/01 16_56_30   3.1_SNGF___BGF_N_111239: 
OTHER_10           .         Тарировки_                    : 
OTHER_11           .         <_techsia_sc_> Постоянная времени фильтра ГК  3.0 сек, kf=0.016529: 
OTHER_12           .         <_techsia_sc_> Постоянная времени фильтра ННК  3.0 сек, kf=0.016529: 
OTHER_13           .         GK.MKR/H = GK$.IMP/476        : 
OTHER_14           .         WSAT.PERC = -12.5 + 78.0 * (NKT2$.IMP / NKT1$.IMP) * 1731/33716: 
OTHER_15           .         NKT2.PRIV = NKT2$.IMP/33716   : 
OTHER_16           .         NKT1.PRIV = NKT1$.IMP/1731    : 
OTHER_2            .         Kedr.exe версия 3.3.2.32      : 
OTHER_3            .         KedrData.dll версия 3.3.2.17  : 
OTHER_4            .         Драйвер версия 2.1.1.9        : 
OTHER_5            .         Мнемоники версия 3.2 S        : 
OTHER_6            .         Прибор_ СРК-73Ц-1N            : 
OTHER_7            .         Номер прибора_ 906            : 
OTHER_8            .         Режим_ с локатором            : 
OTHER_9            .         Форма_ 623-1                  : 
PROJECT_UPGRADE_TIME .         2021-03-18T21_24_49           : 
TLFamily_DEPT      .         Measured Depth                : 
TLFamily_GK        .         Gamma Ray                     : 
TLFamily_GK$       .                                       : 
TLFamily_LM        .         Casing Collar locator         : 
TLFamily_METKA     .                                       : 
TLFamily_NKT1      .         Neutron Far                   : 
TLFamily_NKT1$     .         Neutron Far                   : 
TLFamily_NKT2      .         Neutron Near                  : 
TLFamily_NKT2$     .         Neutron Near                  : 
TLFamily_RCOR      .                                       : 
TLFamily_SPID      .         Spontaneous Potential         : 
TLFamily_TENS      .         Cable Tension                 : 
TLFamily_TIME      .         Time                          : 
TLFamily_WSAT      .         Neutron Porosity              : 
group              .         prim                          : 
~Curve Information
#_______________________________________________________________________________
#
#LOGNAME           .UNIT     LOG_ID                        : DESCRIPTION
#_______________________________________________________________________________
DEPT               .M                                      : 1 Глубина, м -    0.0 см 
GK                 .MKR/H                                  : 11 Гамма-активность, мкр./ч -   97.0 см 
GK$                .IMP                                    : 9 Гамма-активность, имп/мин -   97.0 см 
LM                 .                                       : 10 Локатор муфт,  -   27.0 см 
METKA              .                                       : 3 Метки,  -    0.0 см 
NKT1               .PRIV                                   : 14 Большой зонд приведенный,  -  278.0 см 
NKT1$              .IMP                                    : 8 Большой зонд, имп/мин -  278.0 см 
NKT2               .PRIV                                   : 13 Малый зонд приведенный,  -  289.0 см 
NKT2$              .IMP                                    : 7 Малый зонд, имп/мин -  289.0 см 
RCOR               .CM/KM                                  : 5 Коррекция по ролику, см/км -    0.0 см 
SPID               .M/H                                    : 2 Скорость, м/час -    0.0 см 
TENS               .T                                      : 6 Натяжение кабеля, т -    0.0 см 
TIME               .S                                      : 4 Время, сек -    0.0 см 
WSAT               .PERC                                   : 12 Водонасыщенная пористость, % -  284.0 см 
~Ascii
# ...
2574.6     7.32       3486       202        0          1.7        2950.51    0.96       32202.54   -452       -380       0          14941.81   37.79     
2574.8     7.44       3541       117        0          1.62       2802.66    0.97       32744.28   -452       -324       0          14939.91   35.84     
2575       7.55       3593       179        0          1.65       2860.19    0.97       32756.19   -452       -380       0          14938.01   40.5      
2575.2     7.48       3563       223        0          1.73       2991.19    0.98       33200.18   -452       -380       0          14936.06   39.27     
2575.4     7.16       3410       189        0          1.82       3142.61    1          33808.39   -452       -366       0          14934.15   37.38     
2575.6     6.77       3223       214        0          1.77       3065.32    0.98       33158.79   -452       -380       0          14932.1    32.07     
2575.8     7.01       3336       66         0          1.74       3015.66    0.95       32197.53   -452       -380       0          14930.2    33.75     
2576       6.75       3211       176        0          1.64       2843.47    0.94       31704.61   -452       -380       0          14928.3    35.19     
2576.2     7.31       3480       120        0          1.73       2994.11    0.93       31287.65   -452       -372       0          14926.39   36.08     
2576.4     6.72       3198       209        0          1.59       2750.49    0.92       30944.94   -452       -380       0          14924.58   37.15     
2576.6     6.47       3078       230        0          1.56       2702.23    0.93       31383.67   -452       -323       0          14922.59   36.74     
2576.8     6.9        3285       1297       0          1.45       2510.82    0.93       31281.33   -452       -380       0          14920.63   38.03     
2577       7.59       3615       1143       0          1.52       2622.51    0.89       30144.22   -452       -380       0          14918.73   36.92     
2577.2     7.99       3802       59         0          1.46       2523.83    0.93       31298.73   -452       -335       0          14916.78   40.16     
2577.4     6.91       3290       124        0          1.59       2749.96    0.93       31201.73   -452       -380       0          14914.83   37.97     
2577.6     7.05       3355       76         0          1.62       2800.61    0.92       31104.81   -452       -369       0          14912.91   34.25     
2577.8     6.93       3297       22         0          1.52       2632.67    0.91       30810.05   -452       -379       0          14910.96   33.68     
2578       7          3332       54         0          1.41       2437.94    0.92       31104.9    -452       -380       0          14909.06   34.78     
2578.2     7.06       3358       138        0          1.34       2324.39    0.92       30852.04   -452       -359       0          14907.16   40.43     
2578.4     6.67       3174       52         0          1.38       2391.59    0.91       30640.27   -452       -323       0          14905.2    35.31     
2578.6     6.32       3010       76         0          1.59       2744.13    0.93       31336.07   -452       -344       0          14903.25   34.13     
2578.8     6.3        2998       56         0          1.59       2750.5     0.94       31859.93   -452       -380       0          14901.3    34.04     
2579       7.14       3400       111        0          1.49       2575.29    0.93       31265.21   -452       -380       0          14899.39   38.37     
2579.2     7.46       3552       67         0          1.48       2564.31    0.89       30097.99   -452       -380       0          14897.49   34.35     
2579.4     7.38       3513       115        0          1.44       2492.2     0.9        30337.6    -452       -373       0          14895.59   35.44     
2579.6     7.22       3439       110        0          1.54       2671.14    0.91       30790.62   -452       -380       0          14893.68   37.63     
2579.8     7.15       3404       139        0          1.57       2723.1     0.91       30548.88   -452       -376       0          14891.73   36.4      
2580       6.07       2887       153        1          1.56       2699.19    0.92       30900.04   -452       -380       0          14889.78   39.03     
2580.2     5.57       2650       103        0          1.58       2726.41    0.94       31639.24   -450       -380       0          14887.63   36.6      
2580.4     5.16       2456       64         0          1.64       2832.65    0.94       31659.03   -450       -380       0          14885.67   36.92     
2580.6     5.64       2686       84         0          1.62       2802.51    0.94       31701.2    -450       -380       0          14883.77   35.29     
2580.8     6.59       3136       88         0          1.71       2962.59    0.95       32094.13   -450       -380       0          14881.86   37.3      
2581       6.38       3035       71         0          1.77       3061.68    0.97       32670.03   -450       -376       0          14879.96   35.42     
2581.2     6.93       3298       66         0          1.87       3233.6     0.97       32738.45   -450       -380       0          14878.05   35.69     
2581.4     7.33       3489       144        0          1.66       2880.17    0.98       33158.13   -450       -380       0          14876.1    34.21     
2581.6     7.79       3708       81         0          1.65       2847.54    0.95       32035.89   -450       -380       0          14874.15   34.14     
2581.8     8.06       3837       163        0          1.4        2431.55    0.93       31506.38   -450       -380       0          14872.35   35.22     
2582       7.7        3663       111        0          1.44       2495.69    0.94       31621.8    -450       -374       0          14870.39   38.85     
2582.2     7.69       3660       195        0          1.57       2722.9     0.94       31700.85   -450       -380       0          14868.39   36.84     
2582.4     7.81       3717       56         0          1.63       2826.34    0.93       31286.49   -450       -380       0          14866.49   37.51     
2582.6     7.53       3583       62         0          1.53       2651.58    0.94       31536.71   -450       -380       0          14864.54   36.36     
2582.8     7.39       3516       45         0          1.59       2754.42    0.96       32232.72   -450       -377       0          14862.63   40.99     
2583       7.7        3667       70         0          1.67       2883.43    0.94       31744.21   -450       -380       0          14860.63   36.31     
2583.2     8.15       3882       59         0          1.51       2618.96    0.92       31130.6    -450       -380       0          14858.73   35.09     
2583.4     8.08       3845       67         0          1.45       2501.47    0.91       30756.93   -450       -349       0          14856.77   37.34     
2583.6     8.21       3906       119        0          1.5        2597.67    0.93       31275.49   -450       -380       0          14854.92   37.94     
2583.8     8.23       3916       76         0          1.47       2550.81    0.92       31129.83   -450       -380       0          14852.97   34.8      
2584       8.2        3905       98         0          1.46       2518.98    0.93       31388.51   -450       -332       0          14851.11   36.94     
2584.2     8.15       3877       123        0          1.53       2651.83    0.93       31403.25   -450       -378       0          14849.2    38.52     
2584.4     7.44       3544       203        0          1.7        2947.39    0.94       31745.41   -450       -380       0          14847.15   35.32     
2584.6     6.91       3291       55         0          1.8        3109.96    0.94       31650.51   -450       -324       0          14845.2    33.76     
2584.8     7.26       3457       96         0          1.63       2812.98    0.93       31212.18   -450       -380       0          14843.29   34.99     
