~Version
 VERS              .         2.0                           : CWLS LOG ASCII STANDARD - VERSION 2.0
 WRAP              .         NO                            : ONE LINE PER DEPTH STEP
 DLM               .         SPACE                         : DELIMITING CHARACTER(SPACE TAB OR COMMA)
~Well Information
#_______________________________________________________________________________
#
#PARAMETER_NAME    .UNIT     VALUE                         : DESCRIPTION
#_______________________________________________________________________________
STRT               .M        2714.4                        : First reference value
STOP               .M        2769                          : Last reference value
STEP               .M        0.2000004                     : Step increment
NULL               .         -9999                         : Missing value
COMP               .                                       : Company
WELL               .         616                           : Well name
FLD                .                                       : Field
LOC                .                                       : Location
CNTY               .                                       : County
STAT               .                                       : State
CTRY               .                                       : Country
SRVC               .                                       : Service Company
DATE               .                                       : Date
API                .                                       : API number
PROJECT_UPGRADE_TIME .         2021-03-18T21_24_50           : 
group              .         Good                          : 
~Parameter Information Block
#_______________________________________________________________________________
#
#PARAMETER_NAME    .UNIT     VALUE                         : DESCRIPTION
#_______________________________________________________________________________
SET                .         D1163_D                       : 
OTHER              .         Программное обеспечение станции MONITOR-386EX 25/12/99 15_08_10   BGF V52 22/08/01 16_56_30   3.2_BGF_N_3070031: 
OTHER_10           .         Тарировки_                    : 
OTHER_11           .         TM.GRD = 0.00403*TM$.UE + -1.19: 
OTHER_12           .         MN.ATM = (7.1e-006*TM.GRD + 0.02017)*(MN$.UE + -3.03*TM.GRD + -1833): 
OTHER_13           .         Id error                      : 
OTHER_2            .         Kedr.exe версия 3.4.2.51      : 
OTHER_3            .         KedrData.dll версия 3.4.2.24  : 
OTHER_4            .         Драйвер версия 2.1.1.8        : 
OTHER_5            .         Мнемоники версия 3.3 S        : 
OTHER_6            .         Прибор_ КСА-М1                : 
OTHER_7            .         Номер прибора_ 265            : 
OTHER_8            .         Режим_ КСА-М1                 : 
OTHER_9            .         Форма_ ТЕРМОМЕТР              : 
PROJECT_UPGRADE_TIME .         2021-03-18T21_24_49           : 
TLFamily_DEPT      .         Measured Depth                : 
TLFamily_GK        .         Gamma Ray                     : 
TLFamily_GK$       .                                       : 
TLFamily_LM        .         Casing Collar locator         : 
TLFamily_METKA     .                                       : 
TLFamily_MN        .                                       : 
TLFamily_MN$       .                                       : 
TLFamily_RCOR      .                                       : 
TLFamily_SPID      .         Spontaneous Potential         : 
TLFamily_STD       .                                       : 
TLFamily_TENS      .         Cable Tension                 : 
TLFamily_TIME      .         Time                          : 
TLFamily_TM        .         Temperature                   : 
TLFamily_TM$       .         Temperature                   : 
TLFamily_VGD       .         Gas Volume                    : 
group              .         prim                          : 
~Curve Information
#_______________________________________________________________________________
#
#LOGNAME           .UNIT     LOG_ID                        : DESCRIPTION
#_______________________________________________________________________________
DEPT               .M                                      : 1 Глубина, м -    0.0 см 
GK                 .MKR/H                                  : 15 Гамма-активность, мкр./ч -  110.0 см 
GK$                .UE                                     : 12 Гамма-активность, усл.ед. -  110.0 см 
LM                 .                                       : 10 Локатор муфт,  -   20.0 см 
METKA              .                                       : 3 Метки,  -    0.0 см 
MN                 .ATM                                    : 14 Давление, атм. -  160.0 см 
MN$                .UE                                     : 8 Давление, усл.ед. -  160.0 см 
RCOR               .CM/KM                                  : 5 Коррекция по ролику, см/км -    0.0 см 
SPID               .M/H                                    : 2 Скорость, м/час -    0.0 см 
STD                .                                       : 11 Приток,  -  170.0 см 
TENS               .T                                      : 6 Натяжение кабеля, т -    0.0 см 
TIME               .S                                      : 4 Время, сек -    0.0 см 
TM                 .GRD                                    : 13 Температура, °C -  180.0 см 
TM$                .UE                                     : 7 Температура, усл.ед. -  180.0 см 
VGD                .                                       : 9 Влагомер,  -  170.0 см 
~Ascii
# ...
2724.2     3.99       164        1          0          252.467    14239      -1400      -317       32373      0          18559.89   89.348     22466      6501      
2724.4     4.92       208        361        0          252.488    14240      -1400      -321       32373      0          18557.5    89.348     22466      6502      
2724.6     5.33       222        1442       0          252.522    14242      -1400      -318       32372      0          18555.31   89.352     22467      6500      
2724.8     4.93       211        1          0          252.545    14243      -1400      -317       32372      0          18553.1    89.352     22467      6500      
2725       4.89       211        1          0          252.571    14244      -1400      -319       32373      0          18550.77   89.359     22469      6500      
2725.2     5.21       205        1          0          252.592    14245      -1400      -318       32373      0          18548.45   89.368     22471      6500      
2725.4     5.78       239        1          0          252.613    14246      -1400      -323       32372      0          18546.27   89.378     22474      6500      
2725.6     5.91       266        1          0          252.634    14247      -1400      -315       32373      0          18543.98   89.394     22478      6499      
2725.8     5.4        233        1          0          252.635    14247      -1400      -318       32374      0          18541.7    89.4       22479      6499      
2726       5.35       222        1          0          252.672    14249      -1400      -317       32374      0          18539.41   89.412     22482      6499      
2726.2     6.09       256        1          0          252.682    14249      -1400      -315       32373      0          18537.23   89.434     22487      6498      
2726.4     6.65       290        1          0          252.705    14250      -1400      -319       32372      0          18534.83   89.45      22491      6499      
2726.6     5.92       258        1          0          252.733    14252      -1400      -318       32373      0          18532.61   89.462     22494      6499      
2726.8     4.98       211        1          0          252.761    14253      -1400      -316       32372      0          18530.36   89.476     22498      6498      
2727       5.31       216        1          0          252.783    14254      -1400      -313       32373      0          18528.12   89.493     22502      6498      
2727.2     5.53       233        1          0          252.804    14255      -1400      -318       32372      0          18525.79   89.513     22507      6498      
2727.4     5.93       235        1          0          252.805    14255      -1400      -316       32373      0          18523.5    89.545     22515      6498      
2727.6     6.76       266        1          0          252.826    14256      -1400      -313       32373      0          18521.32   89.576     22523      6498      
2727.8     7.49       319        1          0          252.863    14258      -1400      -314       32373      0          18518.96   89.601     22529      6498      
2728       7.48       326        1          0          252.889    14259      -1400      -307       32373      0          18516.75   89.614     22532      6498      
2728.2     7.11       304        1          0          252.897    14259      -1400      -310       32372      0          18514.45   89.631     22536      6497      
2728.4     7.15       301        1          0          252.921    14261      -1400      -314       32373      0          18512.28   89.642     22539      6498      
2728.6     7.72       330        1          0          252.953    14262      -1400      -318       32372      0          18509.88   89.654     22542      6497      
2728.8     7.7        328        1          0          252.953    14262      -1400      -320       32373      0          18507.7    89.665     22545      6497      
2729       7.9        337        1          0          252.974    14263      -1400      -315       32372      0          18505.42   89.674     22547      6496      
2729.2     8.05       341        1          0          252.995    14264      -1400      -319       32372      0          18503.13   89.687     22550      6496      
2729.4     7.89       348        1          0          253.016    14265      -1400      -318       32372      0          18500.84   89.695     22552      6497      
2729.6     7.56       330        1          0          253.037    14266      -1400      -316       32373      0          18498.55   89.695     22552      6496      
2729.8     7.14       315        1          0          253.058    14267      -1400      -314       32372      0          18496.37   89.702     22554      6496      
2730       6.82       293        1          2          253.078    14268      -1400      -318       32372      0          18494.08   89.703     22554      6495      
2730.2     6.71       290        1          0          253.099    14269      -1400      -317       32373      0          18491.47   89.699     22553      6495      
2730.4     6.37       280        1          0          253.12     14270      -1400      -315       32372      0          18489.18   89.703     22554      6495      
2730.6     5.81       248        1          0          253.141    14271      -1400      -318       32373      0          18486.89   89.701     22553      6495      
2730.8     5.9        249        1          0          253.162    14272      -1400      -317       32373      0          18484.71   89.703     22554      6494      
2731       6.43       267        1          0          253.182    14273      -1400      -315       32372      0          18482.43   89.703     22554      6494      
2731.2     8.52       357        1          0          253.203    14274      -1400      -312       32373      0          18480.14   89.7       22553      6495      
2731.4     9.56       413        1          0          253.224    14275      -1400      -325       32372      0          18477.85   89.701     22553      6494      
2731.6     8.74       389        1          0          253.245    14276      -1400      -327       32372      0          18475.66   89.703     22554      6495      
2731.8     8.61       365        1          0          253.286    14278      -1400      -314       32373      0          18473.38   89.703     22554      6495      
2732       8.61       371        1          0          253.307    14279      -1400      -317       32373      0          18471.02   89.703     22554      6494      
2732.2     8.46       365        1          0          253.328    14280      -1400      -315       32372      0          18468.81   89.703     22554      6494      
2732.4     8.56       355        1          0          253.344    14281      -1400      -311       32372      0          18466.51   89.703     22554      6494      
2732.6     9.05       385        1          0          253.37     14282      -1400      -315       32372      0          18464.34   89.703     22554      6493      
2732.8     9.14       395        1          0          253.391    14283      -1400      -319       32373      0          18461.94   89.703     22554      6493      
2733       8.66       372        1          0          253.411    14284      -1400      -318       32372      0          18459.76   89.706     22555      6493      
2733.2     8.51       360        1          0          253.411    14284      -1400      -317       32372      0          18457.59   89.707     22555      6493      
2733.4     9.03       387        1          0          253.432    14285      -1400      -321       32372      0          18455.19   89.707     22555      6493      
2733.6     8.89       382        1          0          253.474    14287      -1400      -322       32373      0          18452.89   89.707     22555      6493      
2733.8     8.97       384        1          0          253.489    14288      -1400      -318       32372      0          18450.72   89.707     22555      6492      
