~Version
 VERS              .         2.0                           : CWLS LOG ASCII STANDARD - VERSION 2.0
 WRAP              .         NO                            : ONE LINE PER DEPTH STEP
 DLM               .         SPACE                         : DELIMITING CHARACTER(SPACE TAB OR COMMA)
~Well Information
#_______________________________________________________________________________
#
#PARAMETER_NAME    .UNIT     VALUE                         : DESCRIPTION
#_______________________________________________________________________________
STRT               .M        44                            : First reference value
STOP               .M        2769.2                        : Last reference value
STEP               .M        0.2                           : Step increment
NULL               .         -9999                         : Missing value
COMP               .                                       : Company
WELL               .         616                           : Well name
FLD                .                                       : Field
LOC                .                                       : Location
CNTY               .                                       : County
STAT               .                                       : State
CTRY               .                                       : Country
SRVC               .                                       : Service Company
DATE               .                                       : Date
API                .                                       : API number
PROJECT_UPGRADE_TIME .         2021-03-18T21_24_50           : 
group              .         Good                          : 
~Parameter Information Block
#_______________________________________________________________________________
#
#PARAMETER_NAME    .UNIT     VALUE                         : DESCRIPTION
#_______________________________________________________________________________
SET                .         D1160_D                       : 
OTHER              .         Программное обеспечение станции MONITOR-386EX 25/12/99 15_08_10   BGF V52 22/08/01 16_56_30   3.2_BGF_N_3070031: 
OTHER_10           .         Тарировки_                    : 
OTHER_11           .         TM.GRD = 0.00403*TM$.UE + -1.19: 
OTHER_12           .         MN.ATM = (7.1e-006*TM.GRD + 0.02017)*(MN$.UE + -3.03*TM.GRD + -1833): 
OTHER_13           .         Id error                      : 
OTHER_2            .         Kedr.exe версия 3.4.2.51      : 
OTHER_3            .         KedrData.dll версия 3.4.2.24  : 
OTHER_4            .         Драйвер версия 2.1.1.8        : 
OTHER_5            .         Мнемоники версия 3.3 S        : 
OTHER_6            .         Прибор_ КСА-М1                : 
OTHER_7            .         Номер прибора_ 265            : 
OTHER_8            .         Режим_ КСА-М1                 : 
OTHER_9            .         Форма_ ТЕРМОМЕТР              : 
PROJECT_UPGRADE_TIME .         2021-03-18T21_24_49           : 
TLFamily_DEPT      .         Measured Depth                : 
TLFamily_GK        .         Gamma Ray                     : 
TLFamily_GK$       .                                       : 
TLFamily_LM        .         Casing Collar locator         : 
TLFamily_METKA     .                                       : 
TLFamily_MN        .                                       : 
TLFamily_MN$       .                                       : 
TLFamily_RCOR      .                                       : 
TLFamily_SPID      .         Spontaneous Potential         : 
TLFamily_STD       .                                       : 
TLFamily_TENS      .         Cable Tension                 : 
TLFamily_TIME      .         Time                          : 
TLFamily_TM        .         Temperature                   : 
TLFamily_TM$       .         Temperature                   : 
TLFamily_VGD       .         Gas Volume                    : 
group              .         prim                          : 
~Curve Information
#_______________________________________________________________________________
#
#LOGNAME           .UNIT     LOG_ID                        : DESCRIPTION
#_______________________________________________________________________________
DEPT               .M                                      : 1 Глубина, м -    0.0 см 
GK                 .MKR/H                                  : 15 Гамма-активность, мкр./ч -  110.0 см 
GK$                .UE                                     : 12 Гамма-активность, усл.ед. -  110.0 см 
LM                 .                                       : 10 Локатор муфт,  -   20.0 см 
METKA              .                                       : 3 Метки,  -    0.0 см 
MN                 .ATM                                    : 14 Давление, атм. -  160.0 см 
MN$                .UE                                     : 8 Давление, усл.ед. -  160.0 см 
RCOR               .CM/KM                                  : 5 Коррекция по ролику, см/км -    0.0 см 
SPID               .M/H                                    : 2 Скорость, м/час -    0.0 см 
STD                .                                       : 11 Приток,  -  170.0 см 
TENS               .T                                      : 6 Натяжение кабеля, т -    0.0 см 
TIME               .S                                      : 4 Время, сек -    0.0 см 
TM                 .GRD                                    : 13 Температура, °C -  180.0 см 
TM$                .UE                                     : 7 Температура, усл.ед. -  180.0 см 
VGD                .                                       : 9 Влагомер,  -  170.0 см 
~Ascii
# ...
1494.4     7.5        322        100        0          133.711    8499       -1400      1923       16708      0          13185.45   50.23      12759      6399      
1494.6     7.51       322        87         0          133.731    8500       -1400      1923       16708      0          13185.81   50.235     12760      6399      
1494.8     7.52       322        58         0          133.75     8501       -1400      1923       16710      0          13186.19   50.242     12762      6400      
1495       7.61       333        32         0          133.769    8502       -1400      1922       16713      0          13186.58   50.249     12764      6399      
1495.2     7.8        351        38         0          133.787    8503       -1400      1922       16717      0          13186.96   50.253     12765      6399      
1495.4     7.94       351        55         0          133.807    8504       -1400      1922       16719      0          13187.33   50.261     12767      6399      
1495.6     8.03       351        55         0          133.825    8505       -1400      1922       16722      0          13187.69   50.268     12769      6400      
1495.8     8.09       351        55         0          133.845    8506       -1400      1922       16724      0          13188.05   50.272     12770      6399      
1496       8.13       351        49         0          133.865    8507       -1400      1921       16726      0          13188.43   50.28      12772      6400      
1496.2     8.16       351        52         0          133.884    8508       -1400      1921       16730      0          13188.81   50.287     12774      6400      
1496.4     8.21       356        27         0          133.903    8509       -1400      1921       16734      0          13189.18   50.292     12775      6400      
1496.6     8.25       356        1          0          133.911    8509       -1400      1921       16737      0          13189.54   50.296     12776      6400      
1496.8     8.27       356        47         0          133.922    8510       -1400      1921       16738      0          13189.92   50.302     12777      6400      
1497       8.29       356        126        0          133.951    8511       -1400      1921       16739      0          13190.32   50.308     12779      6400      
1497.2     8.3        356        83         0          133.98     8512       -1400      1915       16743      0          13190.7    50.313     12780      6400      
1497.4     8.31       356        83         0          133.992    8513       -1400      1921       16746      0          13191.07   50.321     12782      6400      
1497.6     8.32       356        86         0          133.998    8513       -1400      1921       16751      0          13191.45   50.327     12783      6400      
1497.8     8.29       353        115        0          134.018    8514       -1400      1921       16754      0          13191.8    50.332     12785      6400      
1498       8.26       350        97         0          134.037    8515       -1400      1917       16756      0          13192.17   50.339     12786      6401      
1498.2     8.23       350        72         0          134.055    8516       -1400      1919       16760      0          13192.54   50.343     12787      6400      
1498.4     8.22       350        76         0          134.075    8517       -1400      1925       16763      0          13192.92   50.35      12789      6401      
1498.6     8.21       350        57         0          134.095    8518       -1400      1923       16767      0          13193.3    50.354     12790      6402      
1498.8     8.2        350        53         0          134.115    8519       -1400      1924       16770      0          13193.68   50.366     12793      6402      
1499       8.24       356        36         0          134.134    8520       -1400      1923       16771      0          13194.06   50.37      12794      6402      
1499.2     8.42       375        36         0          134.135    8520       -1400      1917       16771      0          13194.44   50.377     12796      6402      
1499.4     8.53       375        31         0          134.151    8521       -1400      1914       16773      0          13194.8    50.385     12798      6402      
1499.6     8.61       375        66         0          134.17     8522       -1400      1916       16776      0          13195.17   50.392     12800      6403      
1499.8     8.66       375        56         0          134.189    8523       -1400      1923       16780      0          13195.56   50.397     12801      6403      
1500       8.7        375        43         0          134.209    8524       -1400      1926       16782      0          13195.91   50.403     12802      6403      
1500.2     8.72       375        65         2          134.228    8525       -1400      1919       16783      0          13196.32   50.411     12804      6403      
1500.4     8.54       350        57         0          134.248    8526       -1400      1913       16783      0          13196.7    50.416     12806      6403      
1500.6     8.41       347        69         0          134.268    8527       -1400      1908       16786      0          13197.08   50.422     12807      6403      
1500.8     8.31       347        73         0          134.278    8527       -1400      1904       16790      0          13197.46   50.428     12809      6402      
1501       8.25       347        74         0          134.293    8528       -1400      1906       16793      0          13197.83   50.434     12810      6402      
1501.2     8.2        347        80         0          134.325    8529       -1400      1907       16794      0          13198.21   50.441     12812      6403      
1501.4     8.18       347        246        0          134.339    8530       -1400      1908       16792      0          13198.58   50.448     12813      6404      
1501.6     7.96       322        157        0          134.346    8530       -1400      1909       16795      0          13198.96   50.451     12814      6403      
1501.8     7.7        307        107        0          134.384    8532       -1400      1910       16799      0          13199.33   50.456     12815      6403      
1502       7.53       307        72         0          134.404    8533       -1400      1911       16803      0          13199.69   50.463     12817      6403      
1502.2     7.42       307        58         0          134.423    8534       -1400      1912       16806      0          13200.06   50.465     12818      6402      
1502.4     7.34       307        55         0          134.442    8535       -1400      1913       16808      0          13200.43   50.46      12816      6402      
1502.6     7.29       307        33         0          134.462    8536       -1400      1910       16811      0          13200.81   50.479     12821      6403      
1502.8     7.25       307        245        0          134.481    8537       -1400      1905       16815      0          13201.19   50.487     12823      6403      
1503       7.25       310        5985       0          134.501    8538       -1400      1906       16819      0          13201.57   50.491     12824      6402      
1503.2     7.32       319        5985       0          134.52     8539       -1400      1909       16824      0          13201.96   50.498     12826      6401      
1503.4     7.37       319        3879       0          134.54     8540       -1400      1904       16827      0          13202.33   50.506     12828      6401      
1503.6     7.4        319        2479       0          134.558    8541       -1400      1903       16828      0          13202.68   50.513     12830      6401      
1503.8     7.42       319        1597       0          134.577    8542       -1400      1909       16829      0          13203.06   50.521     12831      6401      
1504       7.43       319        1042       0          134.584    8542       -1400      1909       16831      0          13203.45   50.528     12833      6401      
