~Version
 VERS              .         2.0                           : CWLS LOG ASCII STANDARD - VERSION 2.0
 WRAP              .         NO                            : ONE LINE PER DEPTH STEP
 DLM               .         SPACE                         : DELIMITING CHARACTER(SPACE TAB OR COMMA)
~Well Information
#_______________________________________________________________________________
#
#PARAMETER_NAME    .UNIT     VALUE                         : DESCRIPTION
#_______________________________________________________________________________
STRT               .M        209.2                         : First reference value
STOP               .M        612.6                         : Last reference value
STEP               .M        0.2                           : Step increment
NULL               .         -9999                         : Missing value
COMP               .                                       : Company
WELL               .         616                           : Well name
FLD                .                                       : Field
LOC                .                                       : Location
CNTY               .                                       : County
STAT               .                                       : State
CTRY               .                                       : Country
SRVC               .                                       : Service Company
DATE               .                                       : Date
API                .                                       : API number
PROJECT_UPGRADE_TIME .         2021-03-18T21_24_50           : 
group              .         Good                          : 
~Parameter Information Block
#_______________________________________________________________________________
#
#PARAMETER_NAME    .UNIT     VALUE                         : DESCRIPTION
#_______________________________________________________________________________
SET                .         616_3                         : 
CONF               .         00                            : 
END                .         0                             : 
ERR                .         0                             : 
GS00               .M        0610.64                       : 
GS01               .M        0206.79                       : 
MM00               .M        0060.00                       : 
NOKG               .         1                             : 
NPR                .         980119                        : 
PART               .         Палагутин                     : 
PROJECT_UPGRADE_TIME .         2021-03-18T21_24_49           : 
PRZK               .         Шакиров                       : 
TLFamily_AZIMUTH   .         True Dip Azimuth              : 
TLFamily_DEPTH     .         Measured Depth                : 
TLFamily_METKA     .                                       : 
TLFamily_ROLL      .                                       : 
TLFamily_SPEED     .         Spontaneous Potential         : 
TLFamily_ZENIT     .                                       : 
VPRG               .         310                           : 
WAY                .         UP                            : 
group              .         prim                          : 
~Curve Information
#_______________________________________________________________________________
#
#LOGNAME           .UNIT     LOG_ID                        : DESCRIPTION
#_______________________________________________________________________________
DEPTH              .M                                      :  
AZIMUTH            .DEG                                    :  
METKA              .                                       :  
ROLL               .DEG                                    :  
SPEED              .M/H                                    :  
ZENIT              .DEG                                    :  
~Ascii
# ...
355.6      267.58     0          45.01      684        25.19     
355.8      267.98     0          44.36      648        25.28     
356        267.5      0          42.11      684        25.26     
356.2      266.36     0          40.63      684        25.08     
356.4      267.36     0          41.27      720        25.1      
356.6      265.94     0          42.55      648        24.7      
356.8      267.5      0          43.6       648        24.94     
357        266.7      0          43.93      720        24.88     
357.2      265.66     0          44.06      684        24.67     
357.4      265.83     0          44.76      684        24.72     
357.6      265.23     0          45.94      684        24.74     
357.8      266.55     0          45.97      684        25.14     
358        268.08     0          44.88      648        25.32     
358.2      266.4      0          42.34      684        25.01     
358.4      266.9      0          41.12      684        25        
358.6      267.94     0          41.55      648        25.1      
358.8      266.64     0          42.1       684        24.79     
359        268.02     0          42.2       648        25.07     
359.2      267.66     0          42.16      684        24.95     
359.4      266.37     0          42.14      720        24.65     
359.6      268.48     0          41.15      684        25.03     
359.8      267.3      0          39.86      684        24.82     
360        266.37     0          39.31      684        24.57     
360.2      267.75     0          39.71      684        24.83     
360.4      267.99     0          40.32      684        24.79     
360.6      267.17     0          40.37      612        24.63     
360.8      267.55     0          40.11      720        24.73     
361        267.46     0          40.16      684        24.61     
361.2      267.56     0          40.5       648        24.61     
361.4      267.71     0          40.77      684        24.64     
361.6      267.49     0          40.96      684        24.56     
361.8      267.43     0          41.26      684        24.48     
362        267.55     0          41.89      684        24.49     
362.2      267.23     1          42.75      684        24.43     
362.4      267.32     0          43.52      684        24.43     
362.6      267.16     0          43.7       648        24.41     
362.8      266.99     0          43.43      684        24.36     
363        266.34     0          43.57      684        24.21     
363.2      267.38     0          43.54      684        24.4      
363.4      267.13     0          43.6       648        24.35     
363.6      266.24     0          43.8       648        24.1      
363.8      266.9      0          44.28      684        24.27     
364        266.91     0          44.66      684        24.22     
364.2      267.38     0          44.99      720        24.27     
364.4      267.83     0          45.26      684        24.36     
364.6      266.89     0          45.22      612        24.12     
364.8      267.97     0          44.89      720        24.2      
365        269.76     0          44.39      720        24.37     
365.2      271.37     0          44.44      684        24.3      
365.4      278.22     0          44.8       684        24.43     
365.6      303.71     0          44.81      648        24.48     
365.8      359.32     0          44.79      648        24.22     
366        143.49     0          44.88      684        24.6      
366.2      47.26      0          44.95      684        24.46     
366.4      320.13     0          44.14      684        24.41     
366.6      281.29     0          41.49      684        24.68     
366.8      273.25     0          39.63      648        24.63     
367        269.16     0          39         684        24.28     
367.2      268.5      0          40.17      684        24.34     
367.4      268.14     0          41.41      720        24.21     
367.6      267.61     0          42.07      648        24.07     
367.8      267.87     0          42.72      648        24.17     
368        267.13     0          43.13      648        24.07     
368.2      268.08     0          42.86      648        24.29     
368.4      268.81     0          41.59      648        24.52     
368.6      266.19     0          41.26      684        23.91     
368.8      267.6      0          41.7       684        24.09     
369        266.83     0          42.4       684        23.91     
369.2      266.69     0          43.56      684        23.85     
369.4      266.84     0          44.43      684        23.95     
369.6      268.04     0          44.89      684        24.2      
369.8      269.95     0          44.58      684        24.65     
370        267.38     0          43.38      684        24.21     
370.2      267.21     0          42.91      684        24.23     
370.4      266.75     0          42.87      648        24.13     
370.6      267.07     0          42.92      684        24.2      
370.8      267.32     0          43.4       684        24.22     
371        266.99     0          43.77      684        24.14     
371.2      266.93     0          43.7       648        24.17     
371.4      266.86     0          43.65      684        24.21     
371.6      266.38     0          43.74      684        24.1      
371.8      267.61     0          43.72      684        24.31     
372        266.96     0          43.79      684        24.25     
372.2      266.45     1          44.04      720        24.14     
372.4      267.11     0          44.14      648        24.26     
372.6      266.85     0          44.16      684        24.22     
372.8      266.44     0          43.89      684        24.15     
373        267.33     0          43.58      684        24.35     
373.2      267.1      0          43.46      684        24.23     
373.4      266.73     0          43.18      648        24.14     
373.6      267.38     0          43         648        24.28     
373.8      266.67     0          43.35      684        24.11     
374        267.59     0          43.92      684        24.3      
374.2      267.51     0          44.42      720        24.31     
374.4      266.59     0          44.76      684        24.08     
374.6      267.59     0          44.86      612        24.32     
374.8      267.27     0          45.07      684        24.28     
375        266.39     0          45.51      720        24.08     
375.2      267.26     0          45.84      684        24.24     
375.4      267.36     0          45.01      684        24.34     
375.6      266.7      0          44.53      648        24.11     
375.8      268.19     0          44.62      684        24.38     
376        267.65     0          44.64      720        24.26     
376.2      267.14     0          43.97      684        24.13     
376.4      267.99     0          43.14      612        24.27     
376.6      268.01     0          43.27      684        24.1      
376.8      268.2      0          43.83      648        24.06     
377        269.05     0          44.74      720        24.08     
377.2      268        0          50.4       684        23.85     
377.4      270.61     0          62.83      684        23.91     
377.6      278.18     0          74.81      684        24.21     
377.8      302.23     0          82.28      684        24.34     
378        319.08     0          87.48      648        24.17     
378.2      211.79     0          92.94      684        24.51     
378.4      169.83     0          101.38     684        24.48     
378.6      325.59     0          111.76     684        24.54     
378.8      283.12     0          121.76     684        24.7      
379        272.6      0          128.58     648        24.51     
379.2      268.65     0          131.8      684        24.36     
379.4      266.77     0          135.1      684        24.37     
379.6      265.94     0          138.75     684        24.21     
379.8      265.53     0          141.64     720        24.05     
