~Version
 VERS              .         2.0                           : CWLS LOG ASCII STANDARD - VERSION 2.0
 WRAP              .         NO                            : ONE LINE PER DEPTH STEP
 DLM               .         SPACE                         : DELIMITING CHARACTER(SPACE TAB OR COMMA)
~Well Information
#_______________________________________________________________________________
#
#PARAMETER_NAME    .UNIT     VALUE                         : DESCRIPTION
#_______________________________________________________________________________
STRT               .M        2666.2                        : First reference value
STOP               .M        2778.8                        : Last reference value
STEP               .M        0.2000002                     : Step increment
NULL               .         -9999                         : Missing value
COMP               .                                       : Company
WELL               .         616                           : Well name
FLD                .                                       : Field
LOC                .                                       : Location
CNTY               .                                       : County
STAT               .                                       : State
CTRY               .                                       : Country
SRVC               .                                       : Service Company
DATE               .                                       : Date
API                .                                       : API number
PROJECT_UPGRADE_TIME .         2021-03-18T21_24_50           : 
group              .         Good                          : 
~Parameter Information Block
#_______________________________________________________________________________
#
#PARAMETER_NAME    .UNIT     VALUE                         : DESCRIPTION
#_______________________________________________________________________________
SET                .         D0400_D                       : 
OTHER              .         Прибор_ АКП4_90               : 
OTHER_2            .         Номер прибора_ 56             : 
OTHER_3            .         Режим_ АКП4_90 - все каналы   : 
OTHER_4            .         Форма_ Г-1                    : 
OTHER_5            .         Тарировки_                    : 
OTHER_6            .         TM.GRD = 0.00379*TM$.UE + 7.11: 
OTHER_7            .         MN.ATM = (8e-006*TM.GRD + 0.02)*(MN$.UE + -8*TM.GRD + -1800): 
OTHER_8            .         GK.MKR/H = GK$.UE / 57.17 + 0 : 
PROJECT_UPGRADE_TIME .         2021-03-18T21_24_49           : 
TLFamily_DEPT      .         Measured Depth                : 
TLFamily_GK        .         Gamma Ray                     : 
TLFamily_GK$       .                                       : 
TLFamily_LM        .         Casing Collar locator         : 
TLFamily_METKA     .                                       : 
TLFamily_METKA_1   .                                       : 
TLFamily_MN        .                                       : 
TLFamily_MN$       .                                       : 
TLFamily_RCOR      .                                       : 
TLFamily_SPID      .         Spontaneous Potential         : 
TLFamily_TIME      .         Time                          : 
TLFamily_TM        .         Temperature                   : 
TLFamily_TM$       .         Temperature                   : 
group              .         second                        : 
~Curve Information
#_______________________________________________________________________________
#
#LOGNAME           .UNIT     LOG_ID                        : DESCRIPTION
#_______________________________________________________________________________
DEPT               .M                                      : 1 Глубина, м -    0.0 см 
GK                 .MKR/H                                  : 12 Гамма-активность, мкр./ч -   65.0 см 
GK$                .UE                                     : 9 Гамма-активность, усл.ед. -   65.0 см 
LM                 .                                       : 8 Локатор муфт,  -   30.0 см 
METKA              .                                       : 3 Метки,  -    0.0 см 
METKA_1            .                                       : 13 Маркеры - 65 см 
MN                 .ATM                                    : 11 Давление, атм. -  140.0 см 
MN$                .UE                                     : 7 Давление, усл.ед. -  140.0 см 
RCOR               .CM/KM                                  : 5 Коррекция по ролику, см/км -    0.0 см 
SPID               .M/H                                    : 2 Скорость, м/час -    0.0 см 
TIME               .S                                      : 4 Время, сек -    0.0 см 
TM                 .GRD                                    : 10 Температура, °C -  145.0 см 
TM$                .UE                                     : 6 Температура, усл.ед. -  145.0 см 
~Ascii
# ...
2677.4     7.55       427        585        0          0          259.458    15020      0          -260       3532.54    82.986     20020     
2677.6     7.56       436        444        0          0          259.478    15021      0          -260       3530       82.99      20021     
2677.8     7.49       426        454        0          0          259.478    15021      0          -260       3527.4     83.001     20024     
2678       7.52       433        469        0          0          259.519    15023      0          -280       3524.82    83.005     20025     
2678.2     7.46       438        494        0          0          259.532    15024      0          -300       3522.25    83.011     20027     
2678.4     7.25       439        420        0          0          259.559    15025      0          -320       3519.67    83.014     20027     
2678.6     6.88       404        549        0          0          259.58     15026      0          -260       3517.1     83.02      20029     
2678.8     6.78       377        599        0          0          259.6      15027      0          -280       3514.53    83.03      20032     
2679       6.92       399        3221       0          0          259.615    15028      0          -320       3511.96    83.035     20033     
2679.2     6.87       396        541        0          0          259.64     15029      0          -260       3509.38    83.043     20035     
2679.4     6.88       377        472        0          0          259.661    15030      0          -260       3506.81    83.05      20037     
2679.6     7.11       390        411        0          0          259.681    15031      0          -320       3504.23    83.054     20038     
2679.8     7.22       417        486        1          0          259.722    15033      0          -260       3501.66    83.054     20038     
2680       7.15       417        616        0          0          259.729    15033      0          -320       3498.18    83.062     20040     
2680.2     7.16       397        548        0          0          259.742    15034      0          -290       3495.55    83.072     20043     
2680.4     7.34       402        498        0          0          259.783    15036      0          -260       3493.04    83.078     20044     
2680.6     7.36       437        509        0          0          259.789    15036      0          -260       3490.46    83.088     20047     
2680.8     7.15       397        487        0          0          259.802    15037      0          -260       3487.88    83.1       20050     
2681       7.35       408        524        0          0          259.843    15039      0          -320       3485.32    83.105     20051     
2681.2     7.27       417        520        0          0          259.842    15039      0          -300       3482.75    83.111     20053     
2681.4     7.25       404        490        0          0          259.904    15042      0          -260       3480.17    83.118     20055     
2681.6     7.51       410        468        0          0          259.893    15041      0          -260       3477.59    83.126     20057     
2681.8     7.85       448        469        0          0          259.923    15043      0          -260       3474.9     83.137     20060     
2682       7.85       454        482        0          0          259.95     15044      0          -280       3472.33    83.149     20063     
2682.2     7.76       449        452        0          0          259.97     15045      0          -300       3469.75    83.155     20065     
2682.4     7.65       454        538        0          0          259.963    15045      0          -320       3467.19    83.164     20067     
2682.6     7.45       404        474        0          0          260.018    15048      0          -260       3464.6     83.168     20068     
2682.8     7.78       420        445        0          0          260.038    15049      0          -260       3462.04    83.175     20070     
2683       8.09       469        546        0          0          260.044    15049      0          -320       3459.45    83.185     20072     
2683.2     8.01       461        441        0          0          260.044    15049      0          -260       3456.89    83.198     20076     
2683.4     7.99       455        444        0          0          260.098    15052      0          -260       3454.31    83.202     20077     
2683.6     8.1        440        501        0          0          260.098    15052      0          -280       3451.61    83.209     20079     
2683.8     8.43       452        489        0          0          260.126    15053      0          -260       3449.03    83.213     20080     
2684       8.67       504        438        0          0          260.166    15055      0          -260       3446.34    83.217     20081     
2684.2     8.44       516        423        0          0          260.152    15054      0          -290       3443.84    83.223     20083     
2684.4     8.1        476        487        0          0          260.186    15056      0          -320       3441.32    83.232     20085     
2684.6     8.1        452        527        0          0          260.241    15059      0          -320       3438.62    83.244     20088     
2684.8     8.21       461        721        0          0          260.219    15058      0          -260       3436.11    83.25      20090     
2685       8.24       472        434        0          0          260.26     15060      0          -260       3433.5     83.255     20091     
2685.2     8.09       486        506        0          0          260.287    15061      0          -320       3430.89    83.261     20092     
2685.4     7.75       477        477        0          0          260.287    15061      0          -280       3428.46    83.27      20095     
2685.6     7.52       444        708        0          0          260.318    15063      0          -260       3425.87    83.274     20096     
2685.8     7.64       415        5880       0          0          260.348    15064      0          -300       3423.27    83.28      20098     
2686       7.95       420        3770       0          0          260.369    15065      0          -300       3420.58    83.285     20099     
2686.2     8.23       447        843        0          0          260.368    15065      0          -260       3418       83.293     20101     
2686.4     8.32       471        669        0          0          260.43     15068      0          -260       3415.44    83.297     20102     
2686.6     8.46       474        724        0          0          260.45     15069      0          -320       3412.85    83.304     20104     
2686.8     8.64       491        546        0          0          260.443    15069      0          -260       3410.28    83.311     20106     
2687       8.57       493        537        0          0          260.45     15069      0          -320       3407.71    83.308     20105     
2687.2     8.51       485        550        0          0          260.504    15072      0          -320       3405.14    83.323     20109     
2687.4     8.53       499        427        0          0          260.49     15071      0          -280       3402.56    83.331     20111     
2687.6     8.32       495        467        0          0          260.537    15073      0          -260       3399.99    83.338     20113     
2687.8     8.07       453        598        0          0          260.551    15074      0          -300       3397.42    83.347     20115     
2688       8.2        460        517        0          0          260.557    15074      0          -290       3394.79    83.357     20118     
2688.2     8.29       486        440        0          0          260.57     15075      0          -260       3392.17    83.364     20120     
2688.4     8.13       454        800        0          0          260.632    15078      0          -280       3389.7     83.37      20121     
