~Version
 VERS              .         2.0                           : CWLS LOG ASCII STANDARD - VERSION 2.0
 WRAP              .         NO                            : ONE LINE PER DEPTH STEP
 DLM               .         SPACE                         : DELIMITING CHARACTER(SPACE TAB OR COMMA)
~Well Information
#_______________________________________________________________________________
#
#PARAMETER_NAME    .UNIT     VALUE                         : DESCRIPTION
#_______________________________________________________________________________
STRT               .M        19.65                         : First reference value
STOP               .M        2766.85                       : Last reference value
STEP               .M        0.2                           : Step increment
NULL               .         -9999                         : Missing value
COMP               .                                       : Company
WELL               .         616                           : Well name
FLD                .                                       : Field
LOC                .                                       : Location
CNTY               .                                       : County
STAT               .                                       : State
CTRY               .                                       : Country
SRVC               .                                       : Service Company
DATE               .                                       : Date
API                .                                       : API number
PROJECT_UPGRADE_TIME .         2021-03-18T21_24_50           : 
group              .         Good                          : 
~Parameter Information Block
#_______________________________________________________________________________
#
#PARAMETER_NAME    .UNIT     VALUE                         : DESCRIPTION
#_______________________________________________________________________________
SET                .         D7016_D_2                     : 
NPR                .         155                           : Номер прибора
OTHER              .         Kedr.exe версия 2.1.2.32      : 
OTHER_10           .         TM.GRD = 0.00404*TM$.UE + 0.07: 
OTHER_11           .         MN.ATM = (6.33279e-006*TM.GRD + 0.02401)*(MN$.UE + 2.72*TM.GRD + -2018): 
OTHER_12           .         GK.MKR/H = GK$.UE / 43.5489 + 0: 
OTHER_13           .         RES.SM = 0.00476*CRES.UE - 1.51709: 
OTHER_14           .         PL.GSM3 = 0 + 0 * (PL.UE / 1) +  0 * (PL.UE / 1)^2: 
OTHER_15           .         Постоянная времени ГГП = 6 сек: 
OTHER_16           .         Постоянная времени ГК = 6 сек : 
OTHER_2            .         KedrData.dll версия 3.2.2.14  : 
OTHER_3            .         LasInf.dll версия 3.2.0.13    : 
OTHER_4            .         Драйвер версия 1.2.0.5        : 
OTHER_5            .         Прибор_ КСА-M1                : 
OTHER_6            .         Номер прибора_ 155+р204       : 
OTHER_7            .         Режим_ КСА-М1 + ГГП + Резистивиметр: 
OTHER_8            .         Форма_ 223\2                  : 
OTHER_9            .         Тарировки_                    : 
PR                 .         КСА-Т7 М1                     : Тип прибора
PROJECT_UPGRADE_TIME .         2021-03-18T21_24_50           : 
PRTY               .         ПП-223_2                      : Номер партии
SRV                .         ЦКРС                          : Заказчик
SRVC               .         Лузин  А.Б.                   : Начальник партии
TLFamily_DEPT      .         Measured Depth                : 
TLFamily_LM        .         Casing Collar locator         : 
TLFamily_MN        .                                       : 
TLFamily_SPID      .         Spontaneous Potential         : 
TLFamily_TM        .         Temperature                   : 
group              .         second                        : 
~Curve Information
#_______________________________________________________________________________
#
#LOGNAME           .UNIT     LOG_ID                        : DESCRIPTION
#_______________________________________________________________________________
DEPT               .M                                      : Depth curve 
LM                 .е.ацп                                  : Локация муфт 
MN                 .атм                                    : Манометрия, атм 
SPID               .м/ч                                    : Скорость записи,м/час 
TM                 .град.С                                 : Термометрия,град.С 
~Ascii
# ...
2180.45    315.979    195.74     1660       59.83     
2180.65    182.995    195.76     1660       59.83     
2180.85    148.998    195.79     1659.998   59.83     
2181.05    137.998    195.79     1645.996   59.84     
2181.25    125.031    195.83     1622.006   59.84     
2181.45    321.991    195.85     1660       59.84     
2181.65    264.004    195.86     1660       59.84     
2181.85    285.987    195.88     1660       59.85     
2182.05    207.009    195.89     1660       59.85     
2182.25    265.999    195.91     1660.009   59.85     
2182.45    258.016    195.94     1717.992   59.85     
2182.65    355.99     195.96     1666.999   59.85     
2182.85    292.996    195.97     1660       59.85     
2183.05    267.02     196        1660       59.86     
2183.25    390.002    196.01     1660       59.86     
2183.45    403.986    196.03     1660       59.86     
2183.65    313.988    196.05     1660       59.86     
2183.85    240.992    196.08     1660       59.87     
2184.05    189.997    196.09     1660       59.87     
2184.25    170.137    196.11     1660       59.87     
2184.45    7303.549   196.13     1660       59.87     
2184.65    4473.729   196.16     1660       59.87     
2184.85    2776.861   196.16     1660       59.87     
2185.05    1905.99    196.19     1660       59.88     
2185.25    1841.9     196.21     1660       59.88     
2185.45    1215.932   196.22     1659.998   59.88     
2185.65    789.954    196.25     1648.995   59.88     
2185.85    501.974    196.27     1619.007   59.88     
2186.05    340.986    196.28     1659.995   59.88     
2186.25    253.992    196.3      1628.002   59.88     
2186.45    203.996    196.33     1638.004   59.89     
2186.65    178.993    196.33     1660       59.89     
2186.85    131.998    196.36     1659.991   59.89     
2187.05    120.998    196.38     1603       59.89     
2187.25    106.998    196.41     1603.009   59.89     
2187.45    96.996     196.41     1660       59.89     
2187.65    73.999     196.44     1660       59.89     
2187.85    66.003     196.47     1660       59.9      
2188.05    85.003     196.48     1660       59.9      
2188.25    103.003    196.5      1660       59.9      
2188.45    122.072    196.52     1660       59.9      
2188.65    576.033    196.53     1660       59.91     
2188.85    780.013    196.55     1660       59.91     
2189.05    864.14     196.58     1660       59.91     
2189.25    1737.967   196.58     1660       59.91     
2189.45    1529.962   196.61     1660       59.91     
2189.65    1290.944   196.64     1660       59.91     
2189.85    942.99     196.65     1660       59.91     
2190.05    883.076    196.67     1660       59.92     
2190.25    1359.917   196.69     1660       59.92     
2190.45    840.953    196.72     1660       59.92     
2190.65    545.048    196.73     1660       59.92     
2190.85    844.055    196.75     1660       59.92     
2191.05    1189.927   196.75     1660       59.92     
2191.25    731.956    196.79     1660       59.92     
2191.45    455.973    196.82     1660.005   59.93     
2191.65    284.984    196.82     1691       59.93     
2191.85    184.991    196.85     1692.995   59.93     
2192.05    130.993    196.87     1660       59.93     
2192.25    89         196.9      1660       59.93     
2192.45    89         196.9      1660       59.94     
2192.65    87.999     196.93     1660       59.94     
2192.85    82.001     196.95     1660       59.94     
2193.05    88.998     196.96     1660       59.94     
2193.25    74.109     196.98     1660       59.94     
2193.45    754.029    197.01     1660       59.94     
2193.65    934.952    197.02     1660       59.95     
2193.85    635.97     197.04     1660       59.95     
2194.05    446.98     197.06     1660       59.95     
2194.25    322.987    197.07     1660       59.95     
2194.45    243.992    197.09     1660       59.95     
2194.65    197.003    197.12     1660       59.95     
2194.85    215.452    197.12     1660       59.95     
2195.05    3040.216   197.17     1660       59.96     
2195.25    4387.728   197.17     1660       59.96     
2195.45    2692.841   197.19     1660       59.96     
2195.65    1699.906   197.23     1660       59.96     
2195.85    1113.95    197.24     1660       59.96     
2196.05    804.963    197.26     1660       59.96     
2196.25    575.975    197.27     1660       59.96     
2196.45    419.986    197.29     1660       59.97     
2196.65    335.015    197.31     1660       59.97     
2196.85    430.991    197.34     1660       59.97     
2197.05    371.99     197.37     1660       59.97     
2197.25    312.009    197.39     1660       59.98     
2197.45    367.001    197.4      1660       59.98     
2197.65    372.999    197.42     1660       59.98     
2197.85    367.993    197.42     1660.001   59.98     
2198.05    324.996    197.45     1668.007   59.98     
2198.25    296.996    197.48     1713.991   59.98     
2198.45    275.001    197.49     1660       59.98     
2198.65    283.997    197.51     1659.995   59.98     
2198.85    264.999    197.53     1627.996   59.98     
2199.05    259.994    197.56     1600.007   59.98     
2199.25    222.996    197.56     1641.012   59.98     
2199.45    200.998    197.59     1714.003   59.98     
2199.65    190        197.61     1729.995   59.99     
2199.85    190.998    197.62     1698.994   59.99     
2200.05    176.997    197.64     1660       59.99     
2200.25    156        197.67     1660       59.99     
2200.45    156.996    197.7      1660       60        
2200.65    134        197.71     1660       60        
2200.85    136.996    197.73     1660       60        
2201.05    112.994    197.75     1659.991   60        
2201.25    78.082     197.78     1607.009   60        
2201.45    586.082    197.8      1660       60.01     
2201.65    1095.946   197.81     1660       60.01     
2201.85    756.959    197.82     1660       60.01     
2202.05    499.978    197.85     1660       60.01     
2202.25    362.986    197.8      1660       60.01     
2202.45    278.991    197.88     1660       60.02     
2202.65    222.997    197.91     1660       60.02     
2202.85    202.015    197.93     1660       60.02     
2203.05    294.995    197.94     1660       60.02     
2203.25    261.997    197.96     1660       60.02     
2203.45    246.002    197.99     1660       60.02     
2203.65    256.009    198.01     1660       60.02     
2203.85    315.013    198.02     1660       60.02     
2204.05    395.003    198.05     1660       60.02     
2204.25    414.037    198.07     1659.995   60.02     
2204.45    640.982    198.1      1626.996   60.03     
2204.65    526.974    198.1      1600.008   60.03     
2204.85    365.988    198.13     1646.994   60.03     
2205.05    289.987    198.15     1607.009   60.03     
2205.25    208.994    198.18     1660       60.03     
2205.45    170.004    198.18     1660       60.03     
2205.65    192.073    198.2      1660       60.04     
2205.85    643.823    198.21     1659.997   60.04     
2206.05    5757.645   198.24     1639.998   60.04     
2206.25    3554.799   198.25     1627       60.04     
2206.45    2304.874   198.27     1627.995   60.04     
2206.65    1522.932   198.3      1600.007   60.04     
2206.85    1099.979   198.33     1643.003   60.05     
2207.05    969.037    198.33     1660       60.05     
2207.25    1198.961   198.35     1660       60.05     
2207.45    954.06     198.37     1660.011   60.05     
2207.65    1329.005   198.4      1729.999   60.05     
2207.85    1360.935   198.41     1722.99    60.06     
2208.05    954.956    198.44     1660.002   60.06     
2208.25    679.97     198.46     1675.009   60.06     
2208.45    491.973    198.47     1729.996   60.06     
2208.65    321.988    198.49     1702.993   60.06     
2208.85    244.993    198.52     1660       60.06     
2209.05    200.995    198.52     1660       60.06     
2209.25    171        198.55     1660       60.06     
2209.45    170.998    198.57     1660       60.06     
