~Version
 VERS              .         2.0                           : CWLS LOG ASCII STANDARD - VERSION 2.0
 WRAP              .         NO                            : ONE LINE PER DEPTH STEP
 DLM               .         SPACE                         : DELIMITING CHARACTER(SPACE TAB OR COMMA)
~Well Information
#_______________________________________________________________________________
#
#PARAMETER_NAME    .UNIT     VALUE                         : DESCRIPTION
#_______________________________________________________________________________
STRT               .M        2647.6                        : First reference value
STOP               .M        2757.2                        : Last reference value
STEP               .M        0.1999997                     : Step increment
NULL               .         -9999                         : Missing value
COMP               .                                       : Company
WELL               .         616                           : Well name
FLD                .                                       : Field
LOC                .                                       : Location
CNTY               .                                       : County
STAT               .                                       : State
CTRY               .                                       : Country
SRVC               .                                       : Service Company
DATE               .                                       : Date
API                .                                       : API number
PROJECT_UPGRADE_TIME .         2021-03-18T21_24_50           : 
group              .         Good                          : 
~Parameter Information Block
#_______________________________________________________________________________
#
#PARAMETER_NAME    .UNIT     VALUE                         : DESCRIPTION
#_______________________________________________________________________________
SET                .         D7017_D                       : 
OTHER              .         Kedr.exe версия 2.1.2.32      : 
OTHER_10           .         TM.GRD = 0.00404*TM$.UE + 0.07: 
OTHER_11           .         MN.ATM = (6.33279e-006*TM.GRD + 0.02401)*(MN$.UE + 2.72*TM.GRD + -2018): 
OTHER_12           .         GK.MKR/H = GK$.UE / 43.5489 + 0: 
OTHER_13           .         RES.SM = 0.00476*CRES.UE - 1.51709: 
OTHER_14           .         PL.GSM3 = 0 + 0 * (PL.UE / 1) +  0 * (PL.UE / 1)^2: 
OTHER_15           .         Постоянная времени ГГП = 6 сек: 
OTHER_16           .         Постоянная времени ГК = 6 сек : 
OTHER_2            .         KedrData.dll версия 3.2.2.14  : 
OTHER_3            .         LasInf.dll версия 3.2.0.13    : 
OTHER_4            .         Драйвер версия 1.2.0.5        : 
OTHER_5            .         Прибор_ КСА-M1                : 
OTHER_6            .         Номер прибора_ 155+р204       : 
OTHER_7            .         Режим_ КСА-М1 + ГГП + Резистивиметр: 
OTHER_8            .         Форма_ 223\2                  : 
OTHER_9            .         Тарировки_                    : 
PROJECT_UPGRADE_TIME .         2021-03-18T21_24_50           : 
TLFamily_CRES      .                                       : 
TLFamily_DEPT      .         Measured Depth                : 
TLFamily_GK        .         Gamma Ray                     : 
TLFamily_GK$       .                                       : 
TLFamily_LM        .         Casing Collar locator         : 
TLFamily_METKA     .                                       : 
TLFamily_MN        .                                       : 
TLFamily_MN$       .                                       : 
TLFamily_PL        .                                       : 
TLFamily_PL_2      .                                       : 
TLFamily_RCOR      .                                       : 
TLFamily_RES       .         Mud Resistivity               : 
TLFamily_SPID      .         Spontaneous Potential         : 
TLFamily_STD       .                                       : 
TLFamily_TIME      .         Time                          : 
TLFamily_TM        .         Temperature                   : 
TLFamily_TM$       .         Temperature                   : 
TLFamily_VGD       .         Gas Volume                    : 
group              .         prim                          : 
~Curve Information
#_______________________________________________________________________________
#
#LOGNAME           .UNIT     LOG_ID                        : DESCRIPTION
#_______________________________________________________________________________
DEPT               .M                                      : 1 Глубина, м -    0.0 см 
CRES               .UE                                     : 9 Проводимость, усл.ед. -  222.0 см 
GK                 .MKR/H                                  : 16 Гамма-активность, мкр./ч -  106.0 см 
GK$                .UE                                     : 13 Гамма-активность, усл.ед. -  106.0 см 
LM                 .                                       : 11 Локатор муфт,  -   16.0 см 
METKA              .                                       : 3 Метки,  -    0.0 см 
MN                 .ATM                                    : 15 Давление, атм. -  160.0 см 
MN$                .UE                                     : 7 Давление, усл.ед. -  160.0 см 
PL                 .UE                                     : 10 Плотность, усл.ед. -  270.0 см 
PL_2               .GSM3                                   : 18 Плотность, г./см3 -  270.0 см 
RCOR               .CM/KM                                  : 5 Коррекция по ролику, см/км -    0.0 см 
RES                .SM                                     : 17 Проводимость,  -  222.0 см 
SPID               .M/H                                    : 2 Скорость, м/час -    0.0 см 
STD                .                                       : 12 Приток,  -  170.0 см 
TIME               .S                                      : 4 Время, сек -    0.0 см 
TM                 .GRD                                    : 14 Температура, °C -  180.0 см 
TM$                .UE                                     : 6 Температура, усл.ед. -  180.0 см 
VGD                .                                       : 8 Влагомер,  -  170.0 см 
~Ascii
# ...
2729.6     1277       13.93      626        142        0          250.918    12208      14         0          0          4.5617     -260       9421       8020.4     47.859     11829      6678      
2729.8     1284       12.89      589        159        1          250.93     12208      14         0          0          4.5948     -260       9428       8017.56    47.878     11834      6680      
2730       1287       11.79      539        144        0          250.954    12209      14         0          0          4.609      -260       9428       8013.2     47.97      11856      6680      
2730.2     1289       10.59      500        96         0          250.962    12209      13         0          0          4.6186     -237       9432       8010.35    47.968     11856      6680      
2730.4     1293       9.91       433        120        0          250.997    12210      14         0          0          4.6376     -260       9452       8007.59    48.033     11872      6680      
2730.6     1295       10.6       416        125        0          250.987    12209      13         0          0          4.6487     -260       9479       8004.8     48.114     11892      6679      
2730.8     1294       11.51      481        166        0          251.02     12210      13         0          0          4.6407     -260       9500       8002.04    48.219     11918      6681      
2731       1291       11.66      526        158        0          251.046    12211      13         0          0          4.6296     -260       9501       7999.12    48.285     11934      6681      
2731.2     1299       10.31      478        109        0          251.041    12210      13         0          0          4.6677     -260       9508       7996.49    48.363     11954      6681      
2731.4     1297       10.08      436        146        0          251.065    12211      14         0          0          4.6582     -260       9518       7993.57    48.38      11958      6682      
2731.6     1273       10.26      447        150        0          251.101    12212      13         0          0          4.5447     -260       9542       7990.81    48.445     11974      6683      
2731.8     1305       10.26      445        125        0          251.119    12212      13         0          0          4.6931     -260       9566       7988.03    48.623     12018      6683      
2732       1306       10.31      454        119        0          251.06     12209      14         0          0          4.6979     -260       9568       7985.24    48.67      12030      6682      
2732.2     1309       9.96       451        100        0          251.13     12212      13         0          0          4.7137     -260       9579       7982.48    48.716     12041      6683      
2732.4     1310       9.57       399        124        0          251.148    12212      14         0          0          4.7185     -260       9602       7979.57    48.749     12049      6682      
2732.6     1313       10.13      429        177        0          251.177    12213      14         0          0          4.7327     -260       9629       7976.79    48.888     12084      6683      
2732.8     1312       9.92       457        168        0          251.188    12213      14         0          0          4.728      -260       9632       7973.89    48.926     12093      6683      
2733       1312       9.99       420        99         0          251.19     12213      14         0          0          4.728      -260       9638       7971.12    49.005     12113      6683      
2733.2     1297       10.37      457        155        0          251.228    12214      14         0          0          4.6567     -260       9656       7968.34    49.023     12117      6683      
2733.4     1314       10.06      437        171        0          251.23     12213      14         0          0          4.7375     -260       9690       7965.57    49.128     12143      6683      
2733.6     1320       10.11      444        99         0          251.263    12214      14         0          0          4.7677     -320       9721       7962.79    49.33      12193      6681      
2733.8     1319       9.88       439        136        0          251.279    12214      13         0          0          4.7615     -260       9732       7959.89    49.394     12209      6682      
2734       1322       9.63       422        144        0          251.308    12215      14         0          0          4.7756     -190       9738       7957.1     49.512     12238      6682      
2734.2     1327       9.46       421        124        0          251.296    12214      14         0          0          4.7978     -260       9757       7954.34    49.552     12248      6683      
2734.4     1327       9.48       402        123        0          251.324    12215      14         0          0          4.801      -260       9776       7951.55    49.646     12271      6682      
2734.6     1332       9.78       412        169        0          251.344    12215      14         0          0          4.8217     -280       9794       7948.65    49.734     12293      6684      
2734.8     1331       9.57       425        203        0          251.361    12215      13         0          0          4.82       -320       9815       7945.87    49.821     12315      6682      
2735       1324       9.36       404        128        0          251.386    12216      14         0          0          4.7852     -260       9841       7943.11    49.951     12347      6683      
2735.2     1335       9.74       394        809        0          251.416    12216      13         0          0          4.8375     -260       9856       7940.32    50.019     12364      6682      
2735.4     1337       11.22      460        7016       0          251.402    12215      14         0          0          4.847      -260       9875       7937.54    50.189     12406      6681      
2735.6     1310       11.88      535        335        0          251.447    12216      13         0          0          4.7185     -260       9900       7934.68    50.267     12425      6681      
2735.8     1340       11.4       510        183        0          251.468    12216      14         0          0          4.8614     -260       9931       7931.85    50.421     12463      6681      
2736       1345       11.08      487        179        0          251.47     12216      14         0          0          4.8867     -260       9943       7929.07    50.578     12502      6681      
2736.2     1322       10.93      480        188        0          251.501    12217      14         0          0          4.774      -260       9952       7926.3     50.598     12507      6681      
2736.4     1348       10.77      476        177        0          251.526    12217      14         0          0          4.901      -260       9980       7923.49    50.651     12520      6682      
2736.6     1353       10.34      455        137        0          251.551    12218      14         0          0          4.9217     -260       10006      7920.63    50.839     12567      6682      
2736.8     1342       10.13      438        235        0          251.574    12218      14         0          0          4.871      -320       10023      7917.85    50.904     12583      6680      
2737       1357       10.19      449        181        0          251.603    12218      14         0          0          4.9422     -260       10059      7915.08    51.076     12625      6680      
2737.2     1359       10.1       431        195        0          251.604    12217      14         0          0          4.9502     -260       10079      7912.3     51.234     12664      6678      
2737.4     1343       10.43      443        192        0          251.638    12218      14         0          0          4.8742     -190       10091      7909.53    51.342     12691      6680      
2737.6     1363       10.64      460        178        0          251.657    12219      14         0          0          4.9689     -300       10112      7906.48    51.437     12715      6678      
