~Version
 VERS              .         2.0                           : CWLS LOG ASCII STANDARD - VERSION 2.0
 WRAP              .         NO                            : ONE LINE PER DEPTH STEP
 DLM               .         SPACE                         : DELIMITING CHARACTER(SPACE TAB OR COMMA)
~Well Information
#_______________________________________________________________________________
#
#PARAMETER_NAME    .UNIT     VALUE                         : DESCRIPTION
#_______________________________________________________________________________
STRT               .M        2698.8                        : First reference value
STOP               .M        2753.2                        : Last reference value
STEP               .M        0.1999996                     : Step increment
NULL               .         -9999                         : Missing value
COMP               .                                       : Company
WELL               .         616                           : Well name
FLD                .                                       : Field
LOC                .                                       : Location
CNTY               .                                       : County
STAT               .                                       : State
CTRY               .                                       : Country
SRVC               .                                       : Service Company
DATE               .                                       : Date
API                .                                       : API number
PROJECT_UPGRADE_TIME .         2021-03-18T21_24_50           : 
group              .         Good                          : 
~Parameter Information Block
#_______________________________________________________________________________
#
#PARAMETER_NAME    .UNIT     VALUE                         : DESCRIPTION
#_______________________________________________________________________________
SET                .         D1802_D                       : 
OTHER              .         Программное обеспечение станции MONITOR-386EX 25/12/99 15_08_10   BGF V52 22/08/01 16_56_30   3.1_SNGF___BGF_N_092049: 
OTHER_10           .         Тарировки_                    : 
OTHER_11           .         TM.GRD = 0.00403*TM$.UE + -1.07: 
OTHER_12           .         MN.ATM = (9.34907e-006*TM.GRD + 0.02171)*(MN$.UE + -7.93*TM.GRD + -1787): 
OTHER_13           .         GK.MKR/H = LM. / 42.4676      : 
OTHER_14           .         GK.FLT = 0.1*GK.MKR/H[-1] + (1-0.1)*GK.MKR/H[0]: 
OTHER_2            .         Kedr.exe версия 3.4.2.51      : 
OTHER_3            .         KedrData.dll версия 3.4.2.24  : 
OTHER_4            .         Драйвер версия 2.1.1.3        : 
OTHER_5            .         Мнемоники версия 3.3 S        : 
OTHER_6            .         Прибор_ КСА-Т4                : 
OTHER_7            .         Номер прибора_ 03             : 
OTHER_8            .         Режим_ КСА-Т4                 : 
OTHER_9            .         Форма_ КВА.                   : 
PROJECT_UPGRADE_TIME .         2021-03-18T21_24_49           : 
TLFamily_DEPT      .         Measured Depth                : 
TLFamily_GK        .         Gamma Ray                     : 
TLFamily_GK$       .                                       : 
TLFamily_GK_2      .         Gamma Ray                     : 
TLFamily_LM        .         Casing Collar locator         : 
TLFamily_METKA     .                                       : 
TLFamily_MN        .                                       : 
TLFamily_MN$       .                                       : 
TLFamily_RCOR      .                                       : 
TLFamily_SPID      .         Spontaneous Potential         : 
TLFamily_TENS      .         Cable Tension                 : 
TLFamily_TIME      .         Time                          : 
TLFamily_TM        .         Temperature                   : 
TLFamily_TM$       .         Temperature                   : 
group              .         prim                          : 
~Curve Information
#_______________________________________________________________________________
#
#LOGNAME           .UNIT     LOG_ID                        : DESCRIPTION
#_______________________________________________________________________________
DEPT               .M                                      : 1 Глубина, м -    0.0 см 
GK                 .MKR/H                                  : 13 Гамма-активность, мкр./ч -  110.0 см 
GK$                .UE                                     : 10 Гамма-активность, усл.ед. -  110.0 см 
GK_2               .FLT                                    : 14 Гамма-активность фильтрованная, мкр./ч -  110.0 см 
LM                 .                                       : 9 Локатор муфт,  -   20.0 см 
METKA              .                                       : 3 Метки,  -    0.0 см 
MN                 .ATM                                    : 12 Давление, атм. -  160.0 см 
MN$                .UE                                     : 8 Давление, усл.ед. -  160.0 см 
RCOR               .CM/KM                                  : 5 Коррекция по ролику, см/км -    0.0 см 
SPID               .M/H                                    : 2 Скорость, м/час -    0.0 см 
TENS               .T                                      : 6 Натяжение кабеля, т -    0.0 см 
TIME               .S                                      : 4 Время, сек -    0.0 см 
TM                 .GRD                                    : 11 Температура, °C -  170.0 см 
TM$                .UE                                     : 7 Температура, усл.ед. -  170.0 см 
~Ascii
# ...
2740.4     14.23      604        14.46      59         0          251.503    13513      -613       -198       0.17       8664.98    46.43      11787     
2740.6     15.78      670        15.78      95         0          251.524    13514      -613       -192       0.17       8661.23    46.532     11812     
2740.8     16.18      687        16.33      68         0          251.541    13515      -613       -196       0.17       8657.67    46.553     11817     
2741       15.94      677        15.93      66         0          251.555    13516      -613       -200       0.17       8653.98    46.687     11850     
2741.2     15.66      665        15.66      53         0          251.582    13518      -613       -205       0.17       8650.54    46.766     11870     
2741.4     16.41      697        16.37      97         0          251.599    13518      -613       -197       0.17       8646.78    46.835     11887     
2741.6     14.44      613        14.44      71         0          251.646    13521      -613       -205       0.17       8643.34    46.915     11907     
2741.8     13.33      566        13.32      106        0          251.662    13522      -613       -193       0.17       8639.66    47.036     11937     
2742       13.23      562        13.24      57         0          251.701    13524      -613       -196       0.17       8636.09    47.133     11961     
2742.2     12.2       518        12.18      100        0          251.72     13525      -613       -204       0.17       8632.33    47.189     11975     
2742.4     11.21      476        11.14      101        0          251.739    13526      -613       -188       0.17       8628.77    47.242     11988     
2742.6     10.6       450        10.6       71         0          251.779    13528      -613       -205       0.17       8625.2     47.27      11995     
2742.8     10.76      457        10.88      65         0          251.796    13529      -613       -200       0.17       8621.63    47.355     12016     
2743       11.63      494        11.63      93         0          251.827    13530      -613       -198       0.19       8618.06    47.405     12029     
2743.2     10.31      438        10.3       69         0          251.858    13532      -613       -202       0.17       8614.5     47.435     12036     
2743.4     10.2       433        10.2       86         0          251.876    13533      -613       -191       0.17       8610.94    47.481     12047     
2743.6     10.71      455        10.72      60         0          251.912    13535      -613       -188       0.17       8607.37    47.544     12063     
2743.8     11.66      495        11.66      78         0          251.93     13536      -613       -205       0.17       8603.61    47.673     12095     
2744       11.54      490        11.52      98         0          251.972    13538      -613       -193       0.17       8599.86    47.707     12103     
2744.2     10.33      439        9.94       73         0          251.99     13539      -613       -201       0.17       8596.42    47.761     12117     
2744.4     9.14       388        9.14       71         0          252.033    13541      -613       -208       0.17       8592.73    47.802     12127     
2744.6     9.54       405        9.63       76         0          252.074    13543      -613       -204       0.17       8589.16    47.83      12134     
2744.8     11.16      474        11.16      118        0          252.104    13545      -613       -196       0.17       8585.59    47.878     12146     
2745       10.2       433        10.12      68         0          252.135    13546      -613       -203       0.17       8582.03    47.923     12157     
2745.2     10.41      442        10.41      71         0          252.152    13547      -613       -189       0.17       8578.47    47.959     12166     
2745.4     10.36      440        10.36      150        0          252.19     13549      -613       -195       0.17       8574.89    48.011     12179     
2745.6     10.33      439        10.29      167        0          252.217    13550      -613       -204       0.17       8571.14    48.179     12220     
2745.8     9.4        399        9.39       65         0          252.265    13553      -613       -196       0.17       8567.39    48.185     12222     
2746       8.88       377        8.82       97         0          252.267    13553      -613       -203       0.17       8564.02    48.215     12229     
2746.2     9.25       393        9.26       143        0          252.304    13555      -613       -205       0.17       8560.25    48.326     12257     
2746.4     10.13      430        10.12      109        0          252.341    13557      -613       -209       0.17       8556.88    48.412     12278     
2746.6     10.34      439        10.34      108        0          252.382    13559      -613       -194       0.19       8553.13    48.514     12304     
2746.8     11         467        10.98      156        0          252.397    13560      -613       -196       0.17       8549.56    48.555     12314     
2747       9.25       393        9.25       81         0          252.413    13561      -613       -191       0.17       8546       48.648     12337     
2747.2     7.89       335        7.9        157        0          252.443    13563      -613       -195       0.19       8542.23    48.852     12387     
2747.4     9.55       405        9.87       3013       0          252.478    13565      -613       -201       0.18       8538.66    49.011     12427     
2747.6     12.17      517        12.17      269        0          252.497    13566      -613       -195       0.18       8534.91    49.093     12447     
2747.8     11.84      503        11.58      78         0          252.534    13568      -613       -197       0.17       8531.47    49.14      12459     
2748       11.28      479        11.28      79         0          252.552    13569      -613       -195       0.16       8527.77    49.257     12488     
2748.2     10.53      447        10.6       78         0          252.576    13571      -613       -199       0.17       8524.2     49.373     12517     
2748.4     10.86      461        10.85      70         0          252.615    13573      -613       -200       0.18       8520.64    49.571     12566     
2748.6     10.64      452        10.71      125        0          252.631    13574      -613       -182       0.17       8516.89    49.676     12592     
2748.8     11.75      499        11.75      85         0          252.67     13576      -613       -193       0.17       8513.14    49.793     12621     
2749       11.07      470        11.05      88         0          252.691    13577      -613       -202       0.17       8509.56    49.873     12641     
2749.2     10.62      451        10.6       93         0          252.714    13579      -613       -189       0.17       8505.81    50.046     12684     
2749.4     10.86      461        10.86      55         0          252.762    13582      -613       -189       0.17       8502.25    50.196     12721     
2749.6     10.86      461        10.68      46         0          252.777    13582      -613       -190       0.19       8498.69    50.308     12749     
2749.8     9.63       409        9.65       68         0          252.799    13584      -613       -188       0.19       8494.92    50.411     12775     
2750       10.46      444        10.75      49         2          252.822    13586      -613       -185       0.17       8491.17    50.587     12818     
2750.2     11.44      486        11.45      92         0          252.847    13587      -607       -193       0.17       8486.48    50.709     12848     
2750.4     11.63      494        11.63      130        0          252.88     13589      -607       -198       0.17       8482.53    50.844     12882     
2750.6     11.47      487        11.47      73         0          252.909    13591      -607       -199       0.19       8478.97    51.034     12929     
