~Version
 VERS              .         2.0                           : CWLS LOG ASCII STANDARD - VERSION 2.0
 WRAP              .         NO                            : ONE LINE PER DEPTH STEP
 DLM               .         SPACE                         : DELIMITING CHARACTER(SPACE TAB OR COMMA)
~Well Information
#_______________________________________________________________________________
#
#PARAMETER_NAME    .UNIT     VALUE                         : DESCRIPTION
#_______________________________________________________________________________
STRT               .M        2695.9                        : First reference value
STOP               .M        2741.2                        : Last reference value
STEP               .M        0.1000001                     : Step increment
NULL               .         -9999                         : Missing value
COMP               .                                       : Company
WELL               .         616                           : Well name
FLD                .                                       : Field
LOC                .                                       : Location
CNTY               .                                       : County
STAT               .                                       : State
CTRY               .                                       : Country
SRVC               .                                       : Service Company
DATE               .                                       : Date
API                .                                       : API number
PROJECT_UPGRADE_TIME .         2021-03-18T21_24_50           : 
group              .         Good                          : 
~Parameter Information Block
#_______________________________________________________________________________
#
#PARAMETER_NAME    .UNIT     VALUE                         : DESCRIPTION
#_______________________________________________________________________________
SET                .         D7031_D                       : 
OTHER              .         Kedr.exe версия 2.1.2.32      : 
OTHER_10           .         RGD. = 0.647457 * RGD. + 2.35279: 
OTHER_2            .         KedrData.dll версия 3.2.2.14  : 
OTHER_3            .         LasInf.dll версия 3.2.0.13    : 
OTHER_4            .         Драйвер версия 1.2.0.6        : 
OTHER_5            .         Прибор_ Расходомер            : 
OTHER_6            .         Номер прибора_ 963            : 
OTHER_7            .         Режим_ Расходомер             : 
OTHER_8            .         Форма_ Саня                   : 
OTHER_9            .         Тарировки_                    : 
PROJECT_UPGRADE_TIME .         2021-03-18T21_24_50           : 
TLFamily_DEPT      .         Measured Depth                : 
TLFamily_METKA     .                                       : 
TLFamily_RCOR      .                                       : 
TLFamily_RGD       .                                       : 
TLFamily_RGD_2     .                                       : 
TLFamily_SPID      .         Spontaneous Potential         : 
TLFamily_TIME      .         Time                          : 
group              .         prim                          : 
~Curve Information
#_______________________________________________________________________________
#
#LOGNAME           .UNIT     LOG_ID                        : DESCRIPTION
#_______________________________________________________________________________
DEPT               .M                                      : 1 Глубина, м -    0.0 см 
METKA              .                                       : 3 Метки,  -    0.0 см 
RCOR               .CM/KM                                  : 5 Коррекция по ролику, см/км -    0.0 см 
RGD                .                                       : 6 Расход, усл.ед. -   49.0 см 
RGD_2              .                                       : 7 Расход, м3/сут -   49.0 см 
SPID               .M/H                                    : 2 Скорость, м/час -    0.0 см 
TIME               .S                                      : 4 Время, сек -    0.0 см 
~Ascii
# ...
2706.3     0          0          102        68.26      -190       44824.86  
2706.4     0          0          95         63.92      -130       44822.98  
2706.5     0          0          108        72.3       -190       44820.98  
2706.6     0          0          97         65.44      -130       44819.1   
2706.7     0          0          100        67.13      -190       44817.11  
2706.8     0          0          105        70.53      -190       44814.98  
2706.9     0          0          90         60.57      -190       44813.1   
2707       0          0          100        66.97      -190       44811.12  
2707.1     0          0          91         61.01      -190       44809.11  
2707.2     0          0          83         55.79      -190       44807.11  
2707.3     0          0          109        73.1       -190       44805.11  
2707.4     0          0          86         58.14      -190       44803.11  
2707.5     0          0          92         61.83      -190       44801.1   
2707.6     0          0          94         63.15      -190       44799.09  
2707.7     0          0          100        67.1       -190       44797.1   
2707.8     0          0          106        71.02      -190       44794.97  
2707.9     0          0          97         65.43      -190       44793.11  
2708       0          0          93         62.33      -190       44791.11  
2708.1     0          0          97         65.27      -130       44789.1   
2708.2     0          0          101        67.62      -190       44787.1   
2708.3     0          0          98         65.81      -190       44784.98  
2708.4     0          0          104        69.73      -190       44783.1   
2708.5     0          0          99         66.32      -130       44781.09  
2708.6     1          0          95         63.82      -190       44778.97  
2708.7     0          0          97         65.21      -190       44776.98  
2708.8     0          0          88         59.17      -130       44774.98  
2708.9     0          0          90         60.3       -190       44773.1   
2709       0          0          88         59.43      -190       44771.1   
2709.1     0          0          93         62.79      -159       44768.97  
2709.2     0          0          99         66.31      -190       44767.09  
2709.3     0          0          103        69.34      -195       44764.97  
2709.4     0          0          101        68         -190       44763.09  
2709.5     0          0          103        68.8       -190       44760.98  
2709.6     0          0          80         54.08      -161       44758.97  
2709.7     0          0          93         62.46      -190       44757.1   
2709.8     0          0          92         61.94      -190       44754.97  
2709.9     0          0          83         56.02      -190       44753.09  
2710       1          0          100        67.28      -190       44751.09  
2710.1     0          0          93         62.31      -190       44746.34  
2710.2     0          0          99         66.2       -190       44744.34  
2710.3     0          0          101        67.53      -190       44742.34  
2710.4     0          0          90         60.55      -190       44740.34  
2710.5     0          0          98         65.51      -190       44738.33  
2710.6     0          0          84         56.99      -131       44736.32  
2710.7     0          0          88         59.15      -190       44734.35  
2710.8     0          0          103        68.87      -160       44732.46  
2710.9     0          0          95         63.77      -190       44730.46  
2711       0          0          107        71.31      -190       44728.58  
2711.1     0          0          112        74.73      -130       44726.46  
2711.2     1          0          101        67.47      -190       44724.46  
2711.3     0          0          114        76.24      -130       44722.59  
2711.4     0          0          100        67.18      -160       44720.45  
2711.5     0          0          97         65.44      -190       44718.46  
2711.6     0          0          85         57.12      -131       44716.57  
2711.7     0          0          86         58.31      -190       44714.46  
2711.8     0          0          77         52.06      -130       44712.34  
2711.9     0          0          91         61.03      -130       44710.33  
2712       0          0          81         54.55      -190       44708.33  
2712.1     0          0          73         49.67      -130       44706.32  
2712.2     1          0          87         58.63      -190       44704.32  
2712.3     0          0          75         50.61      -190       44702.32  
2712.4     0          0          76         51.71      -190       44700.34  
2712.5     0          0          76         51.58      -190       44698.34  
2712.6     0          0          82         55.19      -131       44696.32  
2712.7     0          0          89         59.74      -190       44694.33  
2712.8     0          0          75         51.05      -130       44692.32  
2712.9     0          0          64         43.88      -190       44690.32  
2713       0          0          78         52.82      -160       44688.45  
2713.1     0          0          81         55.05      -130       44686.31  
2713.2     0          0          87         58.58      -190       44684.34  
2713.3     0          0          78         53.09      -130       44682.45  
2713.4     0          0          85         57.45      -190       44680.33  
2713.5     0          0          79         53.29      -190       44678.45  
2713.6     0          0          75         51.22      -159       44676.45  
2713.7     0          0          74         50.55      -190       44674.45  
2713.8     0          0          85         57.68      -190       44672.58  
2713.9     0          0          80         54.01      -190       44670.45  
2714       0          0          81         54.74      -130       44668.57  
2714.1     0          0          85         57.38      -130       44666.56  
2714.2     0          0          79         53.37      -190       44664.45  
2714.3     0          0          88         59.59      -190       44662.56  
2714.4     0          0          77         51.94      -190       44660.44  
2714.5     0          0          60         41.35      -190       44658.58  
2714.6     0          0          69         47.04      -190       44656.57  
2714.7     0          0          75         50.9       -190       44654.57  
2714.8     0          0          59         40.57      -130       44652.57  
2714.9     0          0          68         46.09      -190       44650.57  
2715       0          0          72         49.25      -190       44648.56  
2715.1     0          0          67         45.8       -130       44646.55  
2715.2     0          0          74         50.34      -190       44644.56  
2715.3     0          0          70         47.74      -190       44642.57  
2715.4     0          0          84         56.69      -190       44640.57  
2715.5     0          0          72         48.92      -190       44638.57  
2715.6     0          0          63         43.08      -131       44636.56  
2715.7     0          0          73         49.75      -190       44634.56  
2715.8     0          0          65         44.55      -130       44632.56  
2715.9     0          0          58         39.84      -190       44630.56  
2716       0          0          57         39.28      -190       44628.55  
2716.1     0          0          52         35.87      -190       44626.55  
2716.2     0          0          53         36.89      -190       44624.57  
2716.3     0          0          61         42.11      -130       44622.57  
2716.4     0          0          44         30.67      -190       44620.56  
2716.5     0          0          51         35.69      -190       44618.56  
2716.6     0          0          55         37.97      -190       44616.55  
