~Version
 VERS              .         2.0                           : CWLS LOG ASCII STANDARD - VERSION 2.0
 WRAP              .         NO                            : ONE LINE PER DEPTH STEP
 DLM               .         SPACE                         : DELIMITING CHARACTER(SPACE TAB OR COMMA)
~Well Information
#_______________________________________________________________________________
#
#PARAMETER_NAME    .UNIT     VALUE                         : DESCRIPTION
#_______________________________________________________________________________
STRT               .M        12                            : First reference value
STOP               .M        2758.6                        : Last reference value
STEP               .M        0.2                           : Step increment
NULL               .         -9999                         : Missing value
COMP               .                                       : Company
WELL               .         616                           : Well name
FLD                .                                       : Field
LOC                .                                       : Location
CNTY               .                                       : County
STAT               .                                       : State
CTRY               .                                       : Country
SRVC               .                                       : Service Company
DATE               .                                       : Date
API                .                                       : API number
PROJECT_UPGRADE_TIME .         2021-03-18T21_24_50           : 
group              .         Good                          : 
~Parameter Information Block
#_______________________________________________________________________________
#
#PARAMETER_NAME    .UNIT     VALUE                         : DESCRIPTION
#_______________________________________________________________________________
SET                .         616ULN                        : 
PROJECT_UPGRADE_TIME .         2021-03-18T21_24_49           : 
TLFamily_AK4       .                                       : 
TLFamily_ALFAK     .                                       : 
TLFamily_AMPL      .                                       : 
TLFamily_DEPTH     .         Measured Depth                : 
TLFamily_DK1       .                                       : 
TLFamily_DK2       .                                       : 
TLFamily_DTK       .         Compressional Slowness        : 
TLFamily_QCBL      .                                       : 
TLFamily_T1        .         Travel Time 1                 : 
TLFamily_T2        .         Travel Time 2                 : 
group              .         prim                          : 
~Curve Information
#_______________________________________________________________________________
#
#LOGNAME           .UNIT     LOG_ID                        : DESCRIPTION
#_______________________________________________________________________________
DEPTH              .M                                      : 0 Depth curve 
AK4                .                                       : 2 Амплитуда - Волна по колонне - Канал1 
ALFAK              .дБ/м                                   : 1 Затухание - Волна по колонне 
AMPL               .                                       : 8 Коэффициент усиления ВС 
DK1                .дБ                                     : 3 Кривая ослабления - Волна по колонне - Канал1 
DK2                .дБ                                     : 4 Кривая ослабления - Волна по колонне - Канал2 
DTK                .мкс/м                                  : 5 ДельтаТ - Волна по породе 
QCBL               .                                       : 9 Контакт цемент-колонна 
T1                 .мкс                                    : 6 Время пробега - Волна по породе - Канал1 
T2                 .мкс                                    : 7 Время пробега - Волна по породе - Канал2 
~Ascii
# ...
1472       278.786    13.8       1          32.559     38.021     195.298    2          302.476    400.321   
1472.2     267.257    12.694     1          32.903     38.373     208.867    2          302.402    407.041   
1472.4     260.278    12.353     1          33.143     38.789     228.538    2          302.368    415.265   
1472.6     256.915    14.202     1          33.257     39.131     248.312    2          302.231    425.062   
1472.8     257.083    16.672     1          33.26      39.62      264.622    2          302.131    433.182   
1473       265.613    18.562     1          32.984     39.878     269.01     2          302.039    435.294   
1473.2     281.999    20.206     1          32.491     39.797     264.785    2          302.081    430.89    
1473.4     300.817    21.089     1          31.917     39.695     251.966    2          302.146    423.878   
1473.6     323.151    20.501     1          31.313     39.425     238.908    2          302.474    414.258   
1473.8     338.575    19.341     1          30.904     39.056     224.464    2          302.699    406.161   
1474       349.288    18.049     1          30.643     38.572     210.817    2          303.013    399.641   
1474.2     350.164    17.264     1          30.621     38.331     201.533    2          303.092    397.337   
1474.4     353.12     16.852     1          30.544     37.959     194.933    2          303.142    396.267   
1474.6     350.101    17.054     1          30.597     37.745     192.859    2          302.919    398.384   
1474.8     342.988    17.32      1          30.767     37.68      197.637    2          302.876    401.76    
1475       335.722    17.779     1          30.94      37.822     204.684    2          302.697    405.098   
1475.2     331.665    18.59      1          31.048     37.697     211.951    2          302.756    408.091   
1475.4     323.125    19.753     1          31.298     37.83      225.357    2          302.687    411.586   
1475.6     304.383    21.743     1          31.847     37.966     238.032    3          302.856    413.631   
1475.8     286.938    24.434     1          32.39      38.516     245.944    3          302.805    414.294   
1476       269.465    27.276     1          32.935     39.225     251.493    3          302.813    414.817   
1476.2     254.434    29.608     1          33.399     40.669     251.954    3          302.605    415.539   
1476.4     247.52     31.483     1          33.594     42.088     248.8      3          302.638    417.055   
1476.6     255.485    32.1       1          33.334     43.408     244.85     3          302.532    419.364   
1476.8     274.675    31.431     1          32.735     44.223     243.434    3          302.548    421.857   
1477       290.259    30.697     1          32.247     44.835     246.438    3          302.307    423.942   
1477.2     300.481    29.763     1          31.924     44.993     256.428    3          302.173    425.672   
1477.4     302.252    28.578     1          31.856     44.627     265.481    3          301.777    426.995   
1477.6     292.506    27.569     1          32.109     43.931     275.912    3          302        428.757   
1477.8     278.823    27.91      1          32.611     43.088     286.216    3          302.814    431.617   
1478       255.822    28.58      1          33.254     42.45      294.508    3          304.71     434.939   
1478.2     237.573    29.131     1          33.766     41.957     297.723    3          306.326    438.722   
1478.4     221.081    29.666     1          34.15      41.915     295.993    3          307.814    440.679   
1478.6     226.979    29.913     1          34.05      41.888     287.007    3          308.565    439.964   
1478.8     242.548    29.545     1          33.514     42.211     279.807    3          308.682    437.814   
1479       281.511    28.89      1          32.462     42.209     276.856    3          307.899    436.348   
1479.2     325.503    28.282     1          31.311     41.91      274.477    3          306.084    434.276   
1479.4     371.255    27.062     1          30.193     41.433     272.535    3          303.308    430.815   
1479.6     399.327    24.872     1          29.455     40.693     268.598    2          300.624    426.443   
1479.8     425.511    22.464     1          28.904     39.498     258.342    2          297.928    420.457   
1480       460.204    20.524     1          28.287     38.201     240.724    2          295.682    412.772   
1480.2     503.936    19.167     1          27.556     37.142     222.662    2          294.983    404.681   
1480.4     550.748    18.28      1          26.784     36.321     205.122    2          295.544    397.738   
1480.6     587.272    18.152     1          26.168     35.678     192.706    2          296.087    392.442   
1480.8     597.54     17.167     1          25.985     35.001     185.699    2          296.421    389.272   
1481       575.962    15.39      1          26.334     34.463     182.864    2          296.618    387.533   
1481.2     530.009    13.325     1          27.109     34.104     181.229    2          296.833    386.93    
1481.4     480.347    11.664     1          27.94      33.772     179.407    2          297.937    387.124   
1481.6     440.229    10.664     1          28.629     33.961     174.761    2          299.349    387.024   
1481.8     420.719    11.143     1          28.96      34.531     169.189    2          300.594    386.823   
1482       421.19     12.782     1          28.949     35.34      164.786    2          301.137    387.648   
1482.2     434.917    15.209     1          28.682     36.147     169.421    2          300.286    389.788   
1482.4     457.607    17.798     1          28.252     37.01      183.774    2          297.95     394.629   
1482.6     480.787    19.784     1          27.812     37.801     200.816    2          295.385    399.774   
1482.8     499.383    21.126     1          27.468     38.249     214.85     2          293.256    403.321   
1483       504.787    21.131     1          27.365     38.148     221.602    2          292.669    405.427   
1483.2     502.558    20.157     1          27.4       37.836     220.986    2          294.314    406.09    
1483.4     480.487    18.253     1          27.834     37.32      210.668    2          296.933    404.169   
1483.6     449.253    16.168     1          28.476     36.681     200.415    2          299.963    402.072   
1483.8     406.536    13.753     1          29.409     36.285     193.682    2          302.781    401.523   
1484       367.967    12.186     1          30.293     36.386     192.195    2          304.443    401.16    
1484.2     330.51     11.257     1          31.181     36.462     190.563    2          304.95     400.851   
1484.4     305.96     11.714     1          31.773     36.947     194.094    2          305.014    402.063   
1484.6     293.846    12.924     1          32.068     37.512     197.394    2          304.569    403.268   
1484.8     296.196    14.175     1          31.999     38.08      199.946    2          304.478    404.453   
1485       302.23     14.99      1          31.824     38.312     198.925    2          304.431    403.896   
1485.2     312.373    15.467     1          31.539     38.613     198.041    2          304.428    403.45    
1485.4     321.502    15.275     1          31.289     38.602     194.31     2          304.366    401.523   
1485.6     331.376    14.868     1          31.027     38.473     190.86     2          304.396    399.827   
1485.8     337.282    15.934     1          30.871     38.454     191.076    3          304.273    399.812   
1486       339.84     17.75      1          30.809     38.889     198.097    3          304.118    403.168   
1486.2     338.32     19.062     1          30.848     39.259     205.151    3          303.874    406.451   
1486.4     336.305    19.994     1          30.9       39.396     209.035    3          303.708    408.227   
