~Version
 VERS              .         2.0                           : CWLS LOG ASCII STANDARD - VERSION 2.0
 WRAP              .         NO                            : ONE LINE PER DEPTH STEP
 DLM               .         SPACE                         : DELIMITING CHARACTER(SPACE TAB OR COMMA)
~Well Information
#_______________________________________________________________________________
#
#PARAMETER_NAME    .UNIT     VALUE                         : DESCRIPTION
#_______________________________________________________________________________
STRT               .M        10.2                          : First reference value
STOP               .M        2753.6                        : Last reference value
STEP               .M        0.2                           : Step increment
NULL               .         -9999                         : Missing value
COMP               .                                       : Company
WELL               .         616                           : Well name
FLD                .                                       : Field
LOC                .                                       : Location
CNTY               .                                       : County
STAT               .                                       : State
CTRY               .                                       : Country
SRVC               .                                       : Service Company
DATE               .                                       : Date
API                .                                       : API number
PROJECT_UPGRADE_TIME .         2021-03-18T21_24_50           : 
group              .         Good                          : 
~Parameter Information Block
#_______________________________________________________________________________
#
#PARAMETER_NAME    .UNIT     VALUE                         : DESCRIPTION
#_______________________________________________________________________________
SET                .         D7028_D                       : 
OTHER              .         Kedr.exe версия 2.1.2.32      : 
OTHER_10           .         TM.GRD = 0.00404*TM$.UE + 0.07: 
OTHER_11           .         MN.ATM = (6.33279e-006*TM.GRD + 0.02401)*(MN$.UE + 2.72*TM.GRD + -2018): 
OTHER_12           .         GK.MKR/H = GK$.UE / 43.5489 + 0: 
OTHER_13           .         RES.SM = 0.00476*CRES.UE - 1.51709: 
OTHER_14           .         PL.GSM3 = 0 + 0 * (PL.UE / 1) +  0 * (PL.UE / 1)^2: 
OTHER_15           .         Постоянная времени ГГП = 6 сек: 
OTHER_16           .         Постоянная времени ГК = 6 сек : 
OTHER_2            .         KedrData.dll версия 3.2.2.14  : 
OTHER_3            .         LasInf.dll версия 3.2.0.13    : 
OTHER_4            .         Драйвер версия 1.2.0.5        : 
OTHER_5            .         Прибор_ КСА-M1                : 
OTHER_6            .         Номер прибора_ 155+р204       : 
OTHER_7            .         Режим_ КСА-М1 + ГГП + Резистивиметр: 
OTHER_8            .         Форма_ 223\2                  : 
OTHER_9            .         Тарировки_                    : 
PROJECT_UPGRADE_TIME .         2021-03-18T21_24_50           : 
TLFamily_CRES      .                                       : 
TLFamily_DEPT      .         Measured Depth                : 
TLFamily_GK        .         Gamma Ray                     : 
TLFamily_GK$       .                                       : 
TLFamily_LM        .         Casing Collar locator         : 
TLFamily_METKA     .                                       : 
TLFamily_MN        .                                       : 
TLFamily_MN$       .                                       : 
TLFamily_PL        .                                       : 
TLFamily_PL_2      .                                       : 
TLFamily_RCOR      .                                       : 
TLFamily_RES       .         Mud Resistivity               : 
TLFamily_SPID      .         Spontaneous Potential         : 
TLFamily_STD       .                                       : 
TLFamily_TIME      .         Time                          : 
TLFamily_TM        .         Temperature                   : 
TLFamily_TM$       .         Temperature                   : 
TLFamily_VGD       .         Gas Volume                    : 
group              .         prim                          : 
~Curve Information
#_______________________________________________________________________________
#
#LOGNAME           .UNIT     LOG_ID                        : DESCRIPTION
#_______________________________________________________________________________
DEPT               .M                                      : 1 Глубина, м -    0.0 см 
CRES               .UE                                     : 9 Проводимость, усл.ед. -  222.0 см 
GK                 .MKR/H                                  : 16 Гамма-активность, мкр./ч -  106.0 см 
GK$                .UE                                     : 13 Гамма-активность, усл.ед. -  106.0 см 
LM                 .                                       : 11 Локатор муфт,  -   16.0 см 
METKA              .                                       : 3 Метки,  -    0.0 см 
MN                 .ATM                                    : 15 Давление, атм. -  160.0 см 
MN$                .UE                                     : 7 Давление, усл.ед. -  160.0 см 
PL                 .UE                                     : 10 Плотность, усл.ед. -  270.0 см 
PL_2               .GSM3                                   : 18 Плотность, г./см3 -  270.0 см 
RCOR               .CM/KM                                  : 5 Коррекция по ролику, см/км -    0.0 см 
RES                .SM                                     : 17 Проводимость,  -  222.0 см 
SPID               .M/H                                    : 2 Скорость, м/час -    0.0 см 
STD                .                                       : 12 Приток,  -  170.0 см 
TIME               .S                                      : 4 Время, сек -    0.0 см 
TM                 .GRD                                    : 14 Температура, °C -  180.0 см 
TM$                .UE                                     : 6 Температура, усл.ед. -  180.0 см 
VGD                .                                       : 8 Влагомер,  -  170.0 см 
~Ascii
# ...
2199.6     1270       9.94       432        560        0          198.763    10009      14         0          0          4.5281     -1860      11531      19801.04   58.985     14583      6605      
2199.8     1269       9.95       432        854        1          198.788    10010      14         0          0          4.5236     -1860      11532      19800.64   58.99      14584      6608      
2200       1270       9.95       432        1321       0          198.812    10011      14         0          0          4.5277     -1860      11533      19800.24   58.994     14585      6605      
2200.2     1269       9.96       432        289        0          198.837    10012      14         0          0          4.5236     -1790      11534      19799.62   58.998     14586      6600      
2200.4     1269       9.97       440        341        0          198.861    10013      14         0          0          4.5233     -1832      11534      19799.22   59.002     14587      6595      
2200.6     1270       9.93       444        388        0          198.862    10013      14         0          0          4.5279     -1860      11534      19798.83   59.006     14588      6593      
2200.8     1270       9.87       444        474        0          198.886    10014      14         0          0          4.5281     -1860      11535      19798.44   59.006     14588      6600      
2201       1270       9.8        444        469        0          198.911    10015      14         0          0          4.5281     -1860      11535      19798.05   59.01      14589      6601      
2201.2     1270       9.64       444        308        0          198.911    10015      14         0          0          4.5281     -1860      11536      19797.67   59.014     14590      6601      
2201.4     1270       9.51       444        372        0          198.935    10016      13         0          0          4.5281     -1860      11537      19797.27   59.018     14591      6596      
2201.6     1270       9.36       433        343        0          198.96     10017      14         0          0          4.5281     -1860      11537      19796.88   59.018     14591      6596      
2201.8     1270       9.22       405        364        0          199        10019      14         0          0          4.5281     -1825      11537      19796.49   59.022     14592      6601      
2202       1270       9.2        405        409        0          199.025    10020      14         0          0          4.5281     -1827      11538      19796.09   59.026     14593      6605      
2202.2     1270       9.18       405        379        0          199.035    10020      14         0          0          4.5281     -1860      11539      19795.7    59.028     14594      6601      
2202.4     1270       9.15       405        340        0          199.048    10021      14         0          0          4.5281     -1825      11540      19795.29   59.032     14595      6608      
2202.6     1270       9.12       405        417        0          199.073    10022      14         0          0          4.5281     -1790      11541      19794.9    59.034     14595      6602      
2202.8     1270       9.08       401        544        0          199.097    10023      14         0          0          4.5281     -1790      11542      19794.5    59.036     14596      6608      
2203       1270       9.06       381        470        0          199.109    10023      14         0          0          4.5281     -1790      11541      19794.1    59.04      14597      6607      
2203.2     1270       9.12       381        615        0          199.122    10024      14         0          0          4.526      -1827      11542      19793.7    59.044     14598      6589      
2203.4     1269       9.21       381        625        0          199.146    10025      14         0          0          4.5233     -1860      11543      19793.3    59.046     14598      6594      
2203.6     1269       9.32       381        689        0          199.172    10026      14         0          0          4.5233     -1860      11544      19792.91   59.048     14599      6593      
2203.8     1269       9.44       381        572        0          199.196    10027      14         0          0          4.5233     -1823      11545      19792.51   59.052     14600      6607      
2204       1269       9.61       389        735        0          199.208    10027      14         0          0          4.5233     -1827      11543      19792.12   59.056     14601      6588      
2204.2     1269       9.77       421        716        0          199.22     10027      14         0          0          4.5254     -1860      11543      19791.73   59.058     14601      6595      
2204.4     1270       9.79       421        691        0          199.245    10028      14         0          0          4.5281     -1860      11544      19791.33   59.06      14601      6601      
2204.6     1270       9.82       421        513        0          199.258    10029      14         0          0          4.5262     -1827      11546      19790.94   59.064     14602      6592      
2204.8     1269       9.85       421        583        0          199.271    10030      14         0          0          4.5252     -1823      11546      19790.55   59.066     14603      6596      
2205       1270       9.9        421        578        0          199.296    10031      14         0          0          4.5281     -1860      11547      19790.16   59.068     14604      6600      
2205.2     1270       9.95       421        683        0          199.32     10032      14         0          0          4.5281     -1860      11547      19789.77   59.07      14604      6593      
2205.4     1270       10.02      424        992        0          199.345    10033      14         0          0          4.5281     -1829      11548      19789.37   59.072     14605      6583      
2205.6     1270       10.08      434        1276       0          199.357    10033      14         0          0          4.5281     -1790      11549      19788.97   59.076     14606      6594      
2205.8     1270       10.11      434        2037       0          199.37     10034      14         0          0          4.5281     -1790      11548      19788.58   59.078     14606      6605      
2206       1270       10.14      434        3233       0          199.394    10035      14         0          0          4.5261     -1820      11549      19788.17   59.08      14607      6594      
2206.2     1269       10.18      434        5197       0          199.419    10035      14         0          0          4.5213     -1832      11550      19787.78   59.084     14608      6607      
2206.4     1268       10.23      434        539        0          199.444    10036      14         0          0          4.5205     -1790      11549      19787.38   59.088     14608      6591      
2206.6     1269       10.29      436        511        0          199.457    10037      14         0          0          4.5233     -1820      11550      19786.98   59.092     14609      6587      
2206.8     1269       10.36      451        441        0          199.468    10037      14         0          0          4.5233     -1830      11551      19786.59   59.094     14610      6589      
2207       1269       10.36      451        521        0          199.493    10038      14         0          0          4.5251     -1790      11552      19786.2    59.096     14610      6587      
2207.2     1270       10.36      451        638        0          199.517    10039      14         0          0          4.5281     -1818      11553      19785.8    59.1       14611      6619      
2207.4     1270       10.36      451        866        0          199.541    10040      14         0          0          4.5298     -1831      11554      19785.4    59.102     14612      6607      
2207.6     1271       10.36      451        1242       0          199.556    10041      14         0          0          4.5329     -1790      11554      19785.01   59.104     14612      6588      
