~Version
 VERS              .         2.0                           : CWLS LOG ASCII STANDARD - VERSION 2.0
 WRAP              .         NO                            : ONE LINE PER DEPTH STEP
 DLM               .         SPACE                         : DELIMITING CHARACTER(SPACE TAB OR COMMA)
~Well Information
#_______________________________________________________________________________
#
#PARAMETER_NAME    .UNIT     VALUE                         : DESCRIPTION
#_______________________________________________________________________________
STRT               .M        2659.4                        : First reference value
STOP               .M        2769.4                        : Last reference value
STEP               .M        0.2                           : Step increment
NULL               .         -9999                         : Missing value
COMP               .                                       : Company
WELL               .         616                           : Well name
FLD                .                                       : Field
LOC                .                                       : Location
CNTY               .                                       : County
STAT               .                                       : State
CTRY               .                                       : Country
SRVC               .                                       : Service Company
DATE               .                                       : Date
API                .                                       : API number
PROJECT_UPGRADE_TIME .         2021-03-18T21_24_50           : 
group              .         Good                          : 
~Parameter Information Block
#_______________________________________________________________________________
#
#PARAMETER_NAME    .UNIT     VALUE                         : DESCRIPTION
#_______________________________________________________________________________
SET                .         D1171_D                       : 
OTHER              .         Программное обеспечение станции MONITOR-386EX 25/12/99 15_08_10   BGF V52 22/08/01 16_56_30   3.2_BGF_N_3070031: 
OTHER_10           .         Тарировки_                    : 
OTHER_11           .         TM.GRD = 0.00403*TM$.UE + -1.19: 
OTHER_12           .         MN.ATM = (7.1e-006*TM.GRD + 0.02017)*(MN$.UE + -3.03*TM.GRD + -1833): 
OTHER_13           .         Id error                      : 
OTHER_2            .         Kedr.exe версия 3.4.2.51      : 
OTHER_3            .         KedrData.dll версия 3.4.2.24  : 
OTHER_4            .         Драйвер версия 2.1.1.8        : 
OTHER_5            .         Мнемоники версия 3.3 S        : 
OTHER_6            .         Прибор_ КСА-М1                : 
OTHER_7            .         Номер прибора_ 265            : 
OTHER_8            .         Режим_ КСА-М1                 : 
OTHER_9            .         Форма_ ТЕРМОМЕТР              : 
PROJECT_UPGRADE_TIME .         2021-03-18T21_24_49           : 
TLFamily_DEPT      .         Measured Depth                : 
TLFamily_GK        .         Gamma Ray                     : 
TLFamily_GK$       .                                       : 
TLFamily_LM        .         Casing Collar locator         : 
TLFamily_METKA     .                                       : 
TLFamily_MN        .                                       : 
TLFamily_MN$       .                                       : 
TLFamily_RCOR      .                                       : 
TLFamily_SPID      .         Spontaneous Potential         : 
TLFamily_STD       .                                       : 
TLFamily_TENS      .         Cable Tension                 : 
TLFamily_TIME      .         Time                          : 
TLFamily_TM        .         Temperature                   : 
TLFamily_TM$       .         Temperature                   : 
TLFamily_VGD       .         Gas Volume                    : 
group              .         prim                          : 
~Curve Information
#_______________________________________________________________________________
#
#LOGNAME           .UNIT     LOG_ID                        : DESCRIPTION
#_______________________________________________________________________________
DEPT               .M                                      : 1 Глубина, м -    0.0 см 
GK                 .MKR/H                                  : 15 Гамма-активность, мкр./ч -  110.0 см 
GK$                .UE                                     : 12 Гамма-активность, усл.ед. -  110.0 см 
LM                 .                                       : 10 Локатор муфт,  -   20.0 см 
METKA              .                                       : 3 Метки,  -    0.0 см 
MN                 .ATM                                    : 14 Давление, атм. -  160.0 см 
MN$                .UE                                     : 8 Давление, усл.ед. -  160.0 см 
RCOR               .CM/KM                                  : 5 Коррекция по ролику, см/км -    0.0 см 
SPID               .M/H                                    : 2 Скорость, м/час -    0.0 см 
STD                .                                       : 11 Приток,  -  170.0 см 
TENS               .T                                      : 6 Натяжение кабеля, т -    0.0 см 
TIME               .S                                      : 4 Время, сек -    0.0 см 
TM                 .GRD                                    : 13 Температура, °C -  180.0 см 
TM$                .UE                                     : 7 Температура, усл.ед. -  180.0 см 
VGD                .                                       : 9 Влагомер,  -  170.0 см 
~Ascii
# ...
2679       8.99       386        1          0          256.886    14457      -1400      611        30898      0          27718.37   84.645     21299      6590      
2679.2     9.06       389        1          0          256.907    14458      -1400      616        30902      0          27719.55   84.645     21299      6590      
2679.4     9.09       389        1          0          256.927    14459      -1400      616        30904      0          27720.66   84.651     21301      6590      
2679.6     8.88       375        1          0          256.948    14460      -1400      618        30907      0          27721.89   84.654     21301      6590      
2679.8     8.81       375        1          0          256.961    14461      -1400      613        30910      0          27723.05   84.661     21303      6590      
2680       9.05       394        1          2          256.977    14461      -1400      617        30914      0          27724.22   84.668     21305      6590      
2680.2     9.16       394        1          0          256.993    14462      -1400      616        30917      0          27725.54   84.673     21306      6590      
2680.4     9.5        423        1          0          257.011    14463      -1400      618        30920      0          27726.65   84.677     21307      6590      
2680.6     9.77       423        1          0          257.032    14464      -1400      618        30921      0          27727.82   84.677     21307      6590      
2680.8     9.68       403        1          0          257.053    14465      -1400      623        30925      0          27728.96   84.685     21309      6590      
2681       9.51       403        1          0          257.053    14465      -1400      616        30930      0          27730.13   84.689     21310      6590      
2681.2     9.54       414        1          0          257.074    14466      -1400      622        30932      0          27731.3    84.693     21311      6590      
2681.4     9.72       419        1          0          257.104    14467      -1400      626        30933      0          27732.46   84.7       21313      6590      
2681.6     9.76       417        1          0          257.119    14468      -1400      618        30934      0          27733.63   84.707     21314      6589      
2681.8     9.63       409        1002       0          257.142    14469      -1400      614        30936      0          27734.79   84.714     21316      6589      
2682       9.49       397        261        0          257.158    14470      -1400      620        30939      0          27735.95   84.719     21317      6589      
2682.2     9.26       391        1          0          257.179    14471      -1400      625        30940      0          27737.1    84.726     21319      6589      
2682.4     9.16       388        1          0          257.199    14472      -1400      616        30941      0          27738.32   84.732     21321      6589      
2682.6     8.83       370        1          0          257.22     14473      -1400      622        30947      0          27739.5    84.738     21322      6589      
2682.8     8.71       370        1          0          257.235    14474      -1400      621        30953      0          27740.59   84.742     21323      6588      
2683       8.83       381        1          0          257.262    14475      -1400      624        30957      0          27741.8    84.751     21325      6588      
2683.2     8.88       381        1          0          257.283    14476      -1400      613        30959      0          27742.98   84.758     21327      6588      
2683.4     9.45       429        1          0          257.304    14477      -1400      616        30963      0          27744.1    84.766     21329      6589      
2683.6     9.85       429        1          0          257.316    14478      -1400      615        30964      0          27745.24   84.773     21331      6589      
2683.8     9.94       425        1          0          257.346    14479      -1400      616        30966      0          27746.47   84.78      21333      6588      
2684       9.94       425        1          0          257.349    14479      -1400      616        30969      0          27747.58   84.786     21334      6589      
2684.2     9.91       422        1          0          257.364    14480      -1400      622        30971      0          27748.72   84.79      21335      6588      
2684.4     9.84       419        1          0          257.4      14482      -1400      621        30973      0          27749.9    84.798     21337      6588      
2684.6     9.95       436        1          0          257.414    14482      -1400      621        30976      0          27751.1    84.804     21338      6588      
2684.8     10.12      436        1          0          257.43     14483      -1400      615        30978      0          27752.27   84.81      21340      6588      
2685       10.12      430        1          0          257.451    14484      -1400      615        30982      0          27753.41   84.818     21342      6588      
2685.2     9.99       424        1          0          257.472    14485      -1400      616        30987      0          27754.58   84.822     21343      6588      
2685.4     9.94       424        1          0          257.493    14486      -1400      622        30990      0          27755.76   84.826     21344      6588      
2685.6     9.72       411        1          0          257.514    14487      -1400      618        30994      0          27756.92   84.834     21346      6588      
2685.8     9.65       411        1          0          257.535    14488      -1400      614        30996      0          27758.1    84.838     21347      6588      
2686       9.9        432        1          0          257.555    14489      -1400      616        30998      0          27759.3    84.844     21348      6585      
2686.2     10.04      432        1          0          257.576    14490      -1400      613        31000      0          27760.46   84.847     21349      6589      
2686.4     10.22      445        1          0          257.597    14491      -1400      614        31002      0          27761.63   84.855     21351      6589      
2686.6     10.35      445        1          0          257.618    14492      -1400      607        31004      0          27762.82   84.861     21353      6588      
2686.8     10.8       496        1          0          257.639    14493      -1400      612        31008      0          27764      84.867     21354      6588      
2687       11.34      496        1          0          257.657    14494      -1400      609        31011      0          27765.17   84.871     21355      6589      
2687.2     11.6       506        1          0          257.669    14494      -1400      607        31014      0          27766.37   84.882     21358      6588      
2687.4     11.94      517        1          0          257.702    14496      -1400      603        31021      0          27767.55   84.885     21359      6588      
2687.6     11.19      409        1          0          257.723    14497      -1400      611        31023      0          27768.72   84.892     21360      6588      
2687.8     10.1       409        1          0          257.723    14497      -1400      614        31026      0          27769.83   84.895     21361      6588      
2688       9.44       372        1          0          257.747    14498      -1400      611        31028      0          27771.06   84.903     21363      6588      
2688.2     8.14       322        1          0          257.765    14499      -1400      616        31030      0          27772.2    84.909     21365      6588      
2688.4     7.72       322        1          0          257.786    14500      -1400      617        31033      0          27773.43   84.916     21366      6587      
2688.6     7.34       306        1          0          257.804    14501      -1400      617        31035      0          27774.55   84.924     21368      6587      
