~Version
 VERS              .         2.0                           : CWLS LOG ASCII STANDARD - VERSION 2.0
 WRAP              .         NO                            : ONE LINE PER DEPTH STEP
 DLM               .         SPACE                         : DELIMITING CHARACTER(SPACE TAB OR COMMA)
~Well Information
#_______________________________________________________________________________
#
#PARAMETER_NAME    .UNIT     VALUE                         : DESCRIPTION
#_______________________________________________________________________________
STRT               .M        9                             : First reference value
STOP               .M        197.4                         : Last reference value
STEP               .M        0.2                           : Step increment
NULL               .         -9999                         : Missing value
COMP               .                                       : Company
WELL               .         616                           : Well name
FLD                .                                       : Field
LOC                .                                       : Location
CNTY               .                                       : County
STAT               .                                       : State
CTRY               .                                       : Country
SRVC               .                                       : Service Company
DATE               .                                       : Date
API                .                                       : API number
PROJECT_UPGRADE_TIME .         2021-03-18T21_24_50           : 
group              .         Good                          : 
~Parameter Information Block
#_______________________________________________________________________________
#
#PARAMETER_NAME    .UNIT     VALUE                         : DESCRIPTION
#_______________________________________________________________________________
SET                .         616                           : 
CONF               .         00                            : 
END                .         0                             : 
ERR                .         0                             : 
GS00               .M        0195.38                       : 
GS01               .M        0006.66                       : 
MM00               .M        0080.00                       : 
NOKG               .         0                             : 
NPR                .         980402                        : 
PART               .         Палагутин                     : 
PROJECT_UPGRADE_TIME .         2021-03-18T21_24_49           : 
PRZK               .         Шакиров                       : 
TLFamily_AZIMUTH   .         True Dip Azimuth              : 
TLFamily_DEPTH     .         Measured Depth                : 
TLFamily_METKA     .                                       : 
TLFamily_ROLL      .                                       : 
TLFamily_SPEED     .         Spontaneous Potential         : 
TLFamily_ZENIT     .                                       : 
VPRG               .         310                           : 
WAY                .         UP                            : 
group              .         prim                          : 
~Curve Information
#_______________________________________________________________________________
#
#LOGNAME           .UNIT     LOG_ID                        : DESCRIPTION
#_______________________________________________________________________________
DEPTH              .M                                      :  
AZIMUTH            .DEG                                    :  
METKA              .                                       :  
ROLL               .DEG                                    :  
SPEED              .M/H                                    :  
ZENIT              .DEG                                    :  
~Ascii
9.0        106.37     0          163.29     504        0.43      
9.2        102.2      1          161.19     468        0.44      
9.4        98.1       0          160.79     900        0.43      
9.6        100.12     0          151.41     432        0.39      
9.8        87.23      1          159.11     504        0.44      
10         86.18      0          158.6      1008       0.49      
10.2       91.41      0          153.88     540        0.55      
10.4       83.89      0          157.73     504        0.54      
10.6       94.69      1          141.88     540        0.41      
10.8       76.61      0          154.44     684        0.49      
11         79.69      0          143.62     504        0.46      
11.2       122.7      0          142.05     540        0.57      
11.4       325.02     1          150.06     540        0.53      
11.6       3.72       0          148.36     936        0.51      
11.8       77.94      0          144.95     540        0.48      
12         73.85      0          154.22     504        0.54      
12.2       77.43      1          150.22     540        0.54      
12.4       75.86      0          151.64     1908       0.53      
12.6       76.2       0          151.21     1908       0.53      
12.8       77.7       0          149.65     540        0.52      
13         82.32      0          145.13     504        0.5       
13.2       80.92      0          145.79     540        0.51      
13.4       81.91      0          145.12     540        0.44      
13.6       76.91      0          148.95     468        0.46      
13.8       71.57      0          153.83     468        0.41      
14         80.16      0          146.14     540        0.3       
14.2       70.3       0          154.65     504        0.45      
14.4       72.79      0          151.28     504        0.46      
14.6       84.3       0          139.77     504        0.44      
14.8       90.02      0          134.15     540        0.38      
15         72.86      0          149.97     540        0.41      
15.2       67.26      0          154.24     540        0.41      
15.4       69.74      1          150.75     936        0.53      
15.6       74.58      0          148.74     936        0.3       
15.8       84.4       0          136.3      504        0.44      
16         90.87      0          130.47     504        0.45      
16.2       80.68      0          139.77     504        0.49      
16.4       87.46      0          132.84     540        0.43      
16.6       79.31      0          140.35     504        0.44      
16.8       92.31      0          126.79     504        0.47      
17         84.9       0          133.69     504        0.45      
17.2       99.41      0          118.81     540        0.39      
17.4       87.83      0          129.62     432        0.42      
17.6       83.66      0          134.25     576        0.39      
17.8       90.26      0          128.26     540        0.41      
18         95.53      0          122.61     504        0.43      
18.2       92.5       0          125.11     504        0.47      
18.4       94.76      0          122.86     504        0.47      
18.6       99.03      0          118.49     540        0.47      
18.8       100.19     0          118.21     540        0.44      
19         102.38     0          116.14     504        0.42      
19.2       99.36      0          118.9      468        0.39      
19.4       95.31      0          122.54     504        0.46      
19.6       98.96      0          119.06     540        0.48      
19.8       91.58      0          126.3      540        0.45      
20         101.76     0          116.58     504        0.43      
20.2       97.18      0          121.03     504        0.45      
20.4       98.07      0          120.03     540        0.46      
20.6       97.32      0          120.75     504        0.41      
20.8       98.16      0          120.06     504        0.45      
21         106.31     0          111.44     540        0.41      
21.2       97.41      0          119.69     468        0.42      
21.4       94.89      0          121.8      468        0.42      
21.6       94.27      0          122.94     504        0.47      
21.8       99.84      0          117.24     540        0.46      
22         100.26     0          116.54     504        0.47      
22.2       109.29     1          109.4      504        0.43      
22.4       104.1      0          114.26     504        0.49      
22.6       98.14      0          120.09     504        0.5       
22.8       98.02      0          120.44     540        0.45      
23         90.32      0          128.08     540        0.49      
23.2       85.65      0          131.28     540        0.48      
23.4       97.79      0          119.53     540        0.56      
23.6       89.75      0          125.06     504        0.55      
23.8       86.73      0          121.85     504        0.54      
24         86.93      0          118.21     540        0.49      
24.2       33.57      0          112.61     540        0.44      
24.4       97.12      0          94.43      576        0.43      
24.6       151.69     0          59.75      468        0.43      
24.8       159.04     0          47.97      504        0.46      
25         177.7      0          27.66      540        0.37      
25.2       189.74     0          13.35      468        0.31      
25.4       199.69     0          1.81       468        0.31      
25.6       199.24     0          1.76       540        0.32      
25.8       195.86     0          3.65       432        0.34      
26         193.29     0          6.02       468        0.36      
26.2       183        0          16.62      468        0.42      
26.4       178.85     0          20.56      576        0.46      
26.6       176.51     0          23.51      540        0.49      
26.8       173.3      0          26.58      540        0.53      
27         170.78     0          29.47      504        0.64      
27.2       168.57     0          30.48      504        0.62      
27.4       164.89     0          33.16      540        0.62      
27.6       167.14     0          32.43      504        0.63      
27.8       164.99     0          35.86      684        0.55      
28         165.15     0          37.81      432        0.49      
28.2       165.24     0          38.35      504        0.48      
28.4       168.01     0          35.69      540        0.47      
28.6       170.62     0          33.5       540        0.47      
28.8       171.12     0          32.84      540        0.45      
29         175.28     0          28.67      540        0.44      
29.2       177.05     0          27.17      396        0.44      
29.4       177.27     0          26.95      540        0.46      
29.6       176.93     0          27.25      540        0.49      
29.8       179.39     0          25.49      504        0.52      
30         179.95     0          24.9       540        0.55      
30.2       174.17     0          30.45      468        0.6       
30.4       173.89     0          31.66      540        0.61      
30.6       174.96     0          30.06      540        0.6       
30.8       172.62     0          32.12      504        0.67      
31         170.39     0          34.84      540        0.63      
31.2       168.72     0          36.48      468        0.66      
31.4       164.89     0          40.62      468        0.65      
31.6       163.21     0          43.17      540        0.65      
31.8       163.84     0          43.92      504        0.66      
32         161.95     0          46.35      540        0.62      
32.2       161.3      1          47.49      504        0.63      
32.4       161.17     0          48.08      540        0.62      
32.6       161.15     0          48.27      540        0.6       
32.8       158.52     0          50.43      540        0.58      
33         160.41     0          48.07      540        0.61      
33.2       160.48     0          47.47      504        0.57      
