~Version
 VERS              .         2.0                           : CWLS LOG ASCII STANDARD - VERSION 2.0
 WRAP              .         NO                            : ONE LINE PER DEPTH STEP
 DLM               .         SPACE                         : DELIMITING CHARACTER(SPACE TAB OR COMMA)
~Well Information
#_______________________________________________________________________________
#
#PARAMETER_NAME    .UNIT     VALUE                         : DESCRIPTION
#_______________________________________________________________________________
STRT               .M        8.21                          : First reference value
STOP               .M        2780.41                       : Last reference value
STEP               .M        0.2                           : Step increment
NULL               .         -9999                         : Missing value
COMP               .                                       : Company
WELL               .         616                           : Well name
FLD                .                                       : Field
LOC                .                                       : Location
CNTY               .                                       : County
STAT               .                                       : State
CTRY               .                                       : Country
SRVC               .                                       : Service Company
DATE               .                                       : Date
API                .                                       : API number
PROJECT_UPGRADE_TIME .         2021-03-18T21_24_50           : 
group              .         Good                          : 
~Parameter Information Block
#_______________________________________________________________________________
#
#PARAMETER_NAME    .UNIT     VALUE                         : DESCRIPTION
#_______________________________________________________________________________
SET                .         ULN_2                         : 
PROJECT_UPGRADE_TIME .         2021-03-18T21_24_50           : 
TLFamily_AK4       .                                       : 
TLFamily_ALFAK     .                                       : 
TLFamily_AMPL      .                                       : 
TLFamily_DEPTH     .         Measured Depth                : 
TLFamily_DK1       .                                       : 
TLFamily_DK2       .                                       : 
TLFamily_DTK       .         Compressional Slowness        : 
TLFamily_QCBL      .                                       : 
TLFamily_T1        .         Travel Time 1                 : 
TLFamily_T2        .         Travel Time 2                 : 
group              .         prim                          : 
~Curve Information
#_______________________________________________________________________________
#
#LOGNAME           .UNIT     LOG_ID                        : DESCRIPTION
#_______________________________________________________________________________
DEPTH              .M                                      : 0 Depth curve 
AK4                .                                       : 2 Амплитуда - Волна по колонне - Канал1 
ALFAK              .дБ/м                                   : 1 Затухание - Волна по колонне 
AMPL               .                                       : 8 Коэффициент усиления ВС 
DK1                .дБ                                     : 3 Кривая ослабления - Волна по колонне - Канал1 
DK2                .дБ                                     : 4 Кривая ослабления - Волна по колонне - Канал2 
DTK                .мкс/м                                  : 5 ДельтаТ - Волна по породе 
QCBL               .                                       : 9 Контакт цемент-колонна 
T1                 .мкс                                    : 6 Время пробега - Волна по породе - Канал1 
T2                 .мкс                                    : 7 Время пробега - Волна по породе - Канал2 
~Ascii
# ...
1658.01    7379.849   12.293     1          10.706     16.852     172.98     2          342.264    428.755   
1658.21    7469.769   12.427     1          10.58      16.794     170.855    2          342.858    428.286   
1658.41    7742.176   14.276     1          9.784      16.922     170.595    2          343.474    428.771   
1658.61    7480.643   14.354     1          10.091     17.268     169.335    2          343.931    428.599   
1658.81    7256.596   15.368     1          10.374     18.058     170.167    2          343.355    428.439   
1659.01    6698.501   14.095     1          11.57      18.618     169.462    2          343.219    427.951   
1659.21    5916.248   12.456     1          12.754     18.982     169.183    2          343.398    427.99    
1659.41    4688.357   10.104     1          14.789     19.841     169.392    2          343.176    427.872   
1659.61    3909.886   9.981      1          16.282     21.272     170.172    2          342.574    427.661   
1659.81    3652.26    11.881     1          16.801     22.742     170.301    2          341.938    427.089   
1660.01    3707.336   14.821     1          16.673     24.083     168.685    2          342.145    426.488   
1660.21    4008.359   15.637     1          16.015     23.834     167.761    2          342.167    426.048   
1660.41    4954.338   16.929     1          14.436     22.9       168.211    2          342.606    426.712   
1660.61    6626.93    19.426     1          11.989     21.702     168.246    2          343.202    427.326   
1660.81    8854.834   21.936     1          9.282      20.251     167.117    2          344.361    427.92    
1661.01    10546.92   22.23      1          7.65       18.765     167.687    2          344.604    428.448   
1661.21    11654.84   20.539     1          6.717      16.987     168.085    2          345.272    429.315   
1661.41    12106.83   18.491     1          6.382      15.627     168.789    2          345.457    429.852   
1661.61    12604.02   17.151     1          6.038      14.614     168.963    2          345.51     429.992   
1661.81    12611.49   15.524     1          6.033      13.795     169.351    2          345.36     430.036   
1662.01    12595.42   15.155     1          6.044      13.622     170.087    2          345.175    430.219   
1662.21    11993.57   13.407     1          6.466      13.169     168.693    2          345.744    430.091   
1662.41    11648.92   11.576     1          6.724      12.512     167.95     2          345.96     429.936   
1662.61    11100.03   10.396     1          7.138      12.336     168.826    2          345.497    429.911   
1662.81    10855.54   11.508     1          7.329      13.083     170.558    2          344.874    430.154   
1663.01    10672.86   13.87      1          7.475      14.41      171.904    2          344.247    430.199   
1663.21    10548.06   13.861     1          7.579      14.509     169.686    2          344.715    429.559   
1663.41    10679.05   13.835     1          7.476      14.393     168.501    2          345.159    429.41    
1663.61    10605.74   13.002     1          7.593      14.018     168.684    2          345.145    429.487   
1663.81    11731.85   14.253     1          7.753      13.365     170.996    2          344.811    430.309   
1664.01    11067.14   12.863     1          9.228      14.207     171.94     2          347.509    433.48    
1664.21    10233.73   13.287     1          10.455     16.785     168.002    2          350.649    434.65    
1664.41    7866.483   16.012     1          11.589     20.72      166.327    2          353.137    436.301   
1664.61    7313.692   20.565     1          11.295     22.616     164.944    2          352.678    435.15    
1664.81    8720.307   26.486     1          9.812      22.484     167.893    2          352.03     435.977   
1665.01    10325.9    31.837     1          8.349      22.503     168.34     2          351.938    436.163   
1665.21    11398.88   33.732     1          7.285      22.411     171.484    2          349.737    436.567   
1665.41    10287.31   29.05      1          7.978      21.308     176.414    2          347.767    437.065   
1665.61    9321.573   21.308     1          8.679      19.333     178.634    2          345.739    436.14    
1665.81    8301.551   15.303     1          9.211      16.862     175.658    2          345.76     433.639   
1666.01    7658.032   11.728     1          9.937      15.801     171.235    2          345.273    430.938   
1666.21    6736.667   11.714     1          11.098     16.955     168.702    2          344.724    429.076   
1666.41    5675.229   13.713     1          13.095     19.952     168.656    2          344.187    428.515   
1666.61    4600.681   14.925     1          14.959     22.422     168.075    2          343.892    427.93    
1666.81    3799.363   13.831     1          16.524     23.44      169.265    2          343.268    427.9     
1667.01    3150.117   12.542     1          18.18      24.451     168.548    2          343.063    427.337   
1667.21    3056.006   15.006     1          18.419     25.922     168.184    2          343.214    427.307   
1667.41    3142.787   16.88      1          18.201     26.641     165.964    2          343.722    426.704   
1667.61    3865.357   18.566     1          16.426     25.709     165.699    2          343.852    426.702   
1667.81    5363.08    20.069     1          13.899     23.933     165.445    2          343.944    426.667   
1668.01    6941.758   22.004     1          10.884     21.886     165.378    2          344.565    427.255   
1668.21    7939.966   22.854     1          9.003      20.429     166.012    2          344.684    427.69    
1668.41    7694.565   21.014     1          9.32       19.827     165.939    2          344.722    427.692   
1668.61    7099.935   18.444     1          10.606     19.828     167.252    2          344.218    427.845   
1668.81    6337.702   13.858     1          12.073     19.001     166.906    2          344.651    428.104   
1669.01    5092.817   9.536      1          14.265     19.033     167.084    2          344.619    428.161   
1669.21    3794.16    7.365      1          16.866     20.548     166.626    2          344.725    428.038   
1669.41    2824.633   9.612      1          19.088     23.894     166.404    2          344.046    427.249   
1669.61    2474.235   14.148     1          20.204     27.279     165.386    2          343.95     426.643   
1669.81    2091.341   14.349     1          21.83      29.004     165.465    2          343.861    426.594   
1670.01    1818.091   15.575     1          22.984     30.772     166.4      2          344.102    427.303   
1670.21    1546.005   16.593     1          24.279     32.576     167.716    2          343.973    427.831   
1670.41    1610.558   21.396     1          23.933     34.631     166.81     2          343.915    427.32    
1670.61    1662.536   22.37      1          23.678     34.863     167.859    2          343.336    427.265   
1670.81    1966.809   23.118     1          22.256     33.815     167.797    2          343.515    427.414   
1671.01    2401.087   24.807     1          20.625     33.029     168.774    2          343.557    427.944   
1671.21    3001.889   26.873     1          18.638     32.074     166.941    2          343.869    427.34    
1671.41    3330.908   27.552     1          17.62      31.396     165.633    2          343.32     426.137   
1671.61    3228.97    24.756     1          17.929     30.308     163.482    2          343.277    425.019   
1671.81    2733.34    21.014     1          19.456     29.963     162.858    2          343.472    424.901   
1672.01    2194.664   16.997     1          21.372     29.87      162.826    2          344.011    425.424   
1672.21    1806.425   14.06      1          22.989     30.019     163.878    2          344.112    426.051   
1672.41    1616.279   14.778     1          23.881     31.27      165.354    2          344.092    426.77    
