~Version
 VERS              .         2.0                           : CWLS LOG ASCII STANDARD - VERSION 2.0
 WRAP              .         NO                            : ONE LINE PER DEPTH STEP
 DLM               .         SPACE                         : DELIMITING CHARACTER(SPACE TAB OR COMMA)
~Well Information
#_______________________________________________________________________________
#
#PARAMETER_NAME    .UNIT     VALUE                         : DESCRIPTION
#_______________________________________________________________________________
STRT               .M        2648.2                        : First reference value
STOP               .M        2758.600166                   : Last reference value
STEP               .M        0.2000003                     : Step increment
NULL               .         -9999                         : Missing value
COMP               .                                       : Company
WELL               .         616                           : Well name
FLD                .                                       : Field
LOC                .                                       : Location
CNTY               .                                       : County
STAT               .                                       : State
CTRY               .                                       : Country
SRVC               .                                       : Service Company
DATE               .                                       : Date
API                .                                       : API number
PROJECT_UPGRADE_TIME .         2021-03-18T21_24_50           : 
group              .         Good                          : 
~Parameter Information Block
#_______________________________________________________________________________
#
#PARAMETER_NAME    .UNIT     VALUE                         : DESCRIPTION
#_______________________________________________________________________________
SET                .         D7020_D                       : 
OTHER              .         Kedr.exe версия 2.1.2.32      : 
OTHER_10           .         TM.GRD = 0.00404*TM$.UE + 0.07: 
OTHER_11           .         MN.ATM = (6.33279e-006*TM.GRD + 0.02401)*(MN$.UE + 2.72*TM.GRD + -2018): 
OTHER_12           .         GK.MKR/H = GK$.UE / 43.5489 + 0: 
OTHER_13           .         RES.SM = 0.00476*CRES.UE - 1.51709: 
OTHER_14           .         PL.GSM3 = 0 + 0 * (PL.UE / 1) +  0 * (PL.UE / 1)^2: 
OTHER_15           .         Постоянная времени ГГП = 6 сек: 
OTHER_16           .         Постоянная времени ГК = 6 сек : 
OTHER_2            .         KedrData.dll версия 3.2.2.14  : 
OTHER_3            .         LasInf.dll версия 3.2.0.13    : 
OTHER_4            .         Драйвер версия 1.2.0.5        : 
OTHER_5            .         Прибор_ КСА-M1                : 
OTHER_6            .         Номер прибора_ 155+р204       : 
OTHER_7            .         Режим_ КСА-М1 + ГГП + Резистивиметр: 
OTHER_8            .         Форма_ 223\2                  : 
OTHER_9            .         Тарировки_                    : 
PROJECT_UPGRADE_TIME .         2021-03-18T21_24_50           : 
TLFamily_CRES      .                                       : 
TLFamily_DEPT      .         Measured Depth                : 
TLFamily_GK        .         Gamma Ray                     : 
TLFamily_GK$       .                                       : 
TLFamily_LM        .         Casing Collar locator         : 
TLFamily_METKA     .                                       : 
TLFamily_MN        .                                       : 
TLFamily_MN$       .                                       : 
TLFamily_PL        .                                       : 
TLFamily_PL_2      .                                       : 
TLFamily_RCOR      .                                       : 
TLFamily_RES       .         Mud Resistivity               : 
TLFamily_SPID      .         Spontaneous Potential         : 
TLFamily_STD       .                                       : 
TLFamily_TIME      .         Time                          : 
TLFamily_TM        .         Temperature                   : 
TLFamily_TM$       .         Temperature                   : 
TLFamily_VGD       .         Gas Volume                    : 
group              .         prim                          : 
~Curve Information
#_______________________________________________________________________________
#
#LOGNAME           .UNIT     LOG_ID                        : DESCRIPTION
#_______________________________________________________________________________
DEPT               .M                                      : 1 Глубина, м -    0.0 см 
CRES               .UE                                     : 9 Проводимость, усл.ед. -  222.0 см 
GK                 .MKR/H                                  : 16 Гамма-активность, мкр./ч -  106.0 см 
GK$                .UE                                     : 13 Гамма-активность, усл.ед. -  106.0 см 
LM                 .                                       : 11 Локатор муфт,  -   16.0 см 
METKA              .                                       : 3 Метки,  -    0.0 см 
MN                 .ATM                                    : 15 Давление, атм. -  160.0 см 
MN$                .UE                                     : 7 Давление, усл.ед. -  160.0 см 
PL                 .UE                                     : 10 Плотность, усл.ед. -  270.0 см 
PL_2               .GSM3                                   : 18 Плотность, г./см3 -  270.0 см 
RCOR               .CM/KM                                  : 5 Коррекция по ролику, см/км -    0.0 см 
RES                .SM                                     : 17 Проводимость,  -  222.0 см 
SPID               .M/H                                    : 2 Скорость, м/час -    0.0 см 
STD                .                                       : 12 Приток,  -  170.0 см 
TIME               .S                                      : 4 Время, сек -    0.0 см 
TM                 .GRD                                    : 14 Температура, °C -  180.0 см 
TM$                .UE                                     : 6 Температура, усл.ед. -  180.0 см 
VGD                .                                       : 8 Влагомер,  -  170.0 см 
~Ascii
# ...
2672.800037 1247       8.55       377        98         0          245.261    11974      14         0          0          4.4193     580        9424       11325.45   48.102     11889      6670      
2673.000037 1246       8.61       379        90         0          245.304    11976      14         0          0          4.4123     568        9423       11326.76   48.097     11888      6671      
2673.200037 1246       8.66       379        84         0          245.328    11977      14         0          0          4.4139     580        9423       11328.03   48.083     11884      6671      
2673.400038 1244       8.73       391        78         0          245.355    11978      14         0          0          4.4051     557        9423       11329.34   48.081     11884      6670      
2673.600038 1243       8.85       391        85         0          245.374    11979      13         0          0          4.4004     569        9425       11330.73   48.076     11883      6670      
2673.800038 1242       8.99       403        95         0          245.365    11979      15         0          0          4.3972     580        9426       11331.97   48.062     11879      6671      
2674.000039 1242       9.12       403        85         0          245.395    11980      14         0          0          4.3958     580        9422       11333.31   48.052     11877      6671      
2674.200039 1241       9.23       408        101        0          245.418    11981      15         0          0          4.3901     550        9417       11334.59   48.037     11873      6671      
2674.400039 1241       9.3        408        80         0          245.441    11982      13         0          0          4.3901     510        9409       11335.87   48.024     11870      6671      
2674.60004 1240       9.06       370        82         0          245.464    11983      14         0          0          4.3837     568        9401       11337.21   48.015     11868      6671      
2674.80004 1240       8.79       370        77         0          245.388    11980      14         0          0          4.386      580        9393       11338.52   48.006     11865      6670      
2675.00004 1240       8.52       356        73         0          245.506    11985      14         0          0          4.3877     510        9387       11339.77   47.984     11860      6671      
2675.20004 1240       8.35       356        64         0          245.522    11986      14         0          0          4.3829     510        9382       11341.09   47.953     11852      6671      
2675.400041 1237       8.45       374        58         0          245.525    11986      15         0          0          4.3724     560        9374       11342.4    47.926     11846      6671      
2675.600041 1238       8.52       374        55         0          245.547    11987      14         0          0          4.3758     580        9370       11343.7    47.916     11843      6671      
2675.800041 1237       8.7        390        56         0          245.57     11988      14         0          0          4.371      510        9367       11344.99   47.897     11838      6669      
2676.000042 1236       8.82       390        53         0          245.593    11989      13         0          0          4.3679     570        9364       11346.31   47.883     11835      6670      
2676.200042 1236       9.15       414        48         0          245.617    11990      14         0          0          4.3663     580        9364       11347.57   47.876     11833      6669      
2676.400042 1234       9.32       412        215        0          245.639    11991      13         0          0          4.3581     510        9363       11348.89   47.871     11832      6668      
2676.600043 1234       9.34       408        241        0          245.628    11991      14         0          0          4.3591     580        9362       11350.16   47.855     11828      6670      
2676.800043 1233       9.36       408        115        0          245.655    11992      14         0          0          4.3535     510        9360       11351.47   47.832     11822      6670      
2677.000043 1235       9.37       409        68         0          245.677    11993      15         0          0          4.3639     580        9358       11352.76   47.795     11813      6669      
2677.200043 1232       9.43       421        70         0          245.713    11995      13         0          0          4.3456     580        9354       11354.05   47.776     11808      6668      
2677.400044 1233       9.72       436        89         0          245.742    11996      14         0          0          4.3536     570        9351       11355.31   47.758     11804      6670      
2677.600044 1229       9.89       444        72         0          245.768    11997      13         0          0          4.333      580        9348       11356.62   47.743     11800      6669      
2677.800044 1231       10.06      445        97         0          245.75     11996      13         0          0          4.3425     545        9345       11357.95   47.725     11796      6670      
2678.000045 1231       10.08      435        68         0          245.805    11999      14         0          0          4.3401     533        9345       11359.2    47.712     11793      6670      
2678.200045 1230       10.03      435        93         0          245.807    11999      14         0          0          4.3368     580        9341       11360.52   47.699     11789      6670      
2678.400045 1230       10.01      434        80         0          245.834    12000      14         0          0          4.3377     580        9340       11361.83   47.681     11785      6672      
2678.600046 1231       9.99       434        101        0          245.847    12001      13         0          0          4.3409     545        9337       11363.1    47.673     11783      6671      
2678.800046 1230       9.96       432        126        0          245.848    12001      15         0          0          4.3354     522        9332       11364.41   47.66      11780      6670      
2679.000046 1231       9.94       432        82         0          245.875    12002      13         0          0          4.3409     568        9330       11365.75   47.654     11778      6670      
2679.200046 1229       10.11      455        70         0          245.885    12002      14         0          0          4.333      580        9329       11367      47.642     11775      6670      
2679.400047 1229       10.28      455        62         0          245.925    12004      13         0          0          4.333      580        9328       11368.28   47.632     11773      6669      
2679.600047 1228       10.59      493        70         0          245.948    12005      14         0          0          4.3289     521        9324       11369.57   47.629     11772      6670      
2679.800047 1227       10.96      493        78         0          245.946    12005      13         0          0          4.325      580        9324       11370.83   47.613     11768      6670      
2680.000048 1226       11.07      485        141        0          245.967    12006      14         0          0          4.3203     580        9323       11372.15   47.597     11764      6671      
2680.200048 1228       11.1       485        84         1          245.989    12007      13         0          0          4.3282     580        9317       11374.06   47.578     11759      6670      
2680.400048 1226       11.03      476        81         0          246.013    12008      14         0          0          4.3203     580        9312       11375.35   47.556     11754      6671      
2680.600049 1227       10.98      476        58         0          246.031    12009      14         0          0          4.3235     560        9306       11376.67   47.525     11746      6670      
2680.800049 1228       10.86      464        51         0          246.038    12009      14         0          0          4.3266     580        9298       11377.96   47.502     11741      6669      
