~Version
 VERS              .         2.0                           : CWLS LOG ASCII STANDARD - VERSION 2.0
 WRAP              .         NO                            : ONE LINE PER DEPTH STEP
 DLM               .         SPACE                         : DELIMITING CHARACTER(SPACE TAB OR COMMA)
~Well Information
#_______________________________________________________________________________
#
#PARAMETER_NAME    .UNIT     VALUE                         : DESCRIPTION
#_______________________________________________________________________________
STRT               .M        2668.8                        : First reference value
STOP               .M        2773                          : Last reference value
STEP               .M        0.1999999                     : Step increment
NULL               .         -9999                         : Missing value
COMP               .                                       : Company
WELL               .         616                           : Well name
FLD                .                                       : Field
LOC                .                                       : Location
CNTY               .                                       : County
STAT               .                                       : State
CTRY               .                                       : Country
SRVC               .                                       : Service Company
DATE               .                                       : Date
API                .                                       : API number
PROJECT_UPGRADE_TIME .         2021-03-18T21_24_50           : 
group              .         Good                          : 
~Parameter Information Block
#_______________________________________________________________________________
#
#PARAMETER_NAME    .UNIT     VALUE                         : DESCRIPTION
#_______________________________________________________________________________
SET                .         D0403_D                       : 
OTHER              .         Прибор_ АКП4_90               : 
OTHER_2            .         Номер прибора_ 56             : 
OTHER_3            .         Режим_ АКП4_90 - все каналы   : 
OTHER_4            .         Форма_ Г-1                    : 
OTHER_5            .         Тарировки_                    : 
OTHER_6            .         TM.GRD = 0.00379*TM$.UE + 7.11: 
OTHER_7            .         MN.ATM = (8e-006*TM.GRD + 0.02)*(MN$.UE + -8*TM.GRD + -1800): 
OTHER_8            .         GK.MKR/H = GK$.UE / 57.17 + 0 : 
PROJECT_UPGRADE_TIME .         2021-03-18T21_24_49           : 
TLFamily_DEPT      .         Measured Depth                : 
TLFamily_GK        .         Gamma Ray                     : 
TLFamily_GK$       .                                       : 
TLFamily_LM        .         Casing Collar locator         : 
TLFamily_METKA     .                                       : 
TLFamily_METKA_1   .                                       : 
TLFamily_MN        .                                       : 
TLFamily_MN$       .                                       : 
TLFamily_RCOR      .                                       : 
TLFamily_SPID      .         Spontaneous Potential         : 
TLFamily_TIME      .         Time                          : 
TLFamily_TM        .         Temperature                   : 
TLFamily_TM$       .         Temperature                   : 
group              .         second                        : 
~Curve Information
#_______________________________________________________________________________
#
#LOGNAME           .UNIT     LOG_ID                        : DESCRIPTION
#_______________________________________________________________________________
DEPT               .M                                      : 1 Глубина, м -    0.0 см 
GK                 .MKR/H                                  : 12 Гамма-активность, мкр./ч -   65.0 см 
GK$                .UE                                     : 9 Гамма-активность, усл.ед. -   65.0 см 
LM                 .                                       : 8 Локатор муфт,  -   30.0 см 
METKA              .                                       : 3 Метки,  -    0.0 см 
METKA_1            .                                       : 13 Маркеры - 65 см 
MN                 .ATM                                    : 11 Давление, атм. -  140.0 см 
MN$                .UE                                     : 7 Давление, усл.ед. -  140.0 см 
RCOR               .CM/KM                                  : 5 Коррекция по ролику, см/км -    0.0 см 
SPID               .M/H                                    : 2 Скорость, м/час -    0.0 см 
TIME               .S                                      : 4 Время, сек -    0.0 см 
TM                 .GRD                                    : 10 Температура, °C -  145.0 см 
TM$                .UE                                     : 6 Температура, усл.ед. -  145.0 см 
~Ascii
# ...
2713.6     6.23       332        519        0          0          261.271    15119      0          -280       2290.33    86.749     21013     
2713.8     6.35       359        576        0          0          261.298    15121      0          -300       2287.9     86.816     21031     
2714       6.31       371        652        0          0          261.329    15123      0          -260       2285.46    86.892     21051     
2714.2     6.3        354        702        0          0          261.328    15123      0          -320       2283.04    86.977     21073     
2714.4     6.36       360        683        0          0          261.329    15123      0          -320       2280.69    87.052     21093     
2714.6     6.39       365        612        0          1          261.361    15125      0          -320       2278.25    87.123     21112     
2714.8     6.6        328        597        0          0          261.382    15126      0          -260       2275.8     87.21      21135     
2715       7.12       374        644        0          0          261.385    15127      0          -320       2273.48    87.284     21154     
2715.2     7.35       440        648        0          0          261.415    15128      0          -300       2271.05    87.359     21174     
2715.4     7.18       409        705        0          0          261.425    15129      0          -280       2268.59    87.412     21188     
2715.6     7.3        382        670        0          0          261.473    15131      0          -280       2266.28    87.466     21202     
2715.8     7.72       421        578        0          0          261.481    15132      0          -320       2263.85    87.519     21216     
2716       7.89       455        687        0          0          261.511    15134      0          -300       2261.39    87.575     21231     
2716.2     7.72       497        760        0          0          261.515    15134      0          -290       2259.01    87.623     21244     
2716.4     6.89       482        785        0          1          261.553    15136      0          -320       2256.63    87.668     21255     
2716.6     5.59       362        923        0          0          261.563    15137      0          -320       2254.19    87.746     21276     
2716.8     5.01       295        2692       0          0          261.582    15138      0          -260       2251.87    87.765     21281     
2717       4.88       292        886        0          0          261.588    15138      0          -320       2249.42    87.784     21286     
2717.2     4.67       285        2958       0          0          261.631    15140      0          -260       2246.96    87.77      21282     
2717.4     4.38       268        599        0          0          261.631    15140      0          -320       2244.53    87.749     21277     
2717.6     4.2        243        670        0          0          261.671    15142      0          -320       2242.21    87.776     21284     
2717.8     4.21       238        1206       0          0          261.658    15141      0          -320       2239.75    87.772     21283     
2718       4.22       244        4216       0          0          261.735    15145      0          -260       2237.36    87.761     21280     
2718.2     4.11       249        1115       0          0          261.675    15142      0          -320       2234.96    87.741     21275     
2718.4     4.16       225        6008       0          0          261.761    15146      0          -260       2232.51    87.683     21259     
2718.6     4.34       228        5235       0          0          261.749    15145      0          -320       2230.08    87.666     21255     
2718.8     4.58       235        773        0          0          261.832    15149      0          -320       2227.74    87.558     21226     
2719       4.92       245        883        0          0          261.792    15147      0          -320       2225.3     87.535     21220     
2719.2     5.04       288        824        0          0          261.867    15150      0          -275       2222.94    87.454     21199     
2719.4     4.95       300        3846       0          0          261.884    15151      0          -320       2220.52    87.269     21150     
2719.6     4.85       280        945        0          0          261.924    15152      0          -320       2218.09    87.105     21107     
2719.8     4.84       276        571        1          0          261.911    15151      0          -300       2215.75    87         21079     
2720       4.85       276        560        0          0          261.976    15154      0          -320       2212.61    86.905     21054     
2720.2     4.95       261        803        0          0          261.977    15154      0          -320       2210.09    86.891     21050     
2720.4     5.12       291        663        0          0          262.03     15156      0          -320       2207.69    86.836     21036     
2720.6     5.14       293        742        0          0          262.043    15156      0          -320       2205.26    86.71      21003     
2720.8     5.5        256        618        0          0          262.105    15159      0          -320       2202.89    86.537     20957     
2721       6.27       289        690        0          0          262.077    15157      0          -260       2200.43    86.404     20922     
2721.2     6.9        345        907        0          0          262.122    15159      0          -320       2198.02    86.355     20909     
2721.4     7.23       412        668        0          1          262.156    15160      0          -320       2195.69    86.257     20883     
2721.6     7.08       436        663        0          0          262.128    15159      0          -300       2193.23    86.166     20859     
2721.8     6.77       400        605        0          0          262.218    15163      0          -320       2190.8     86.115     20846     
2722       6.56       400        662        0          0          262.196    15162      0          -320       2188.34    86.075     20835     
2722.2     6.1        420        632        0          0          262.255    15165      0          -300       2186.03    86.01      20818     
2722.4     5.17       368        656        0          0          262.222    15163      0          -300       2183.59    85.976     20809     
2722.6     4.51       274        700        0          0          262.313    15167      0          -320       2181.24    85.933     20798     
2722.8     4.39       238        779        0          0          262.301    15167      0          -320       2178.83    85.923     20795     
2723       4.53       254        720        0          1          262.353    15169      0          -320       2176.38    85.889     20786     
2723.2     4.59       265        628        0          0          262.336    15168      0          -320       2173.95    85.836     20772     
2723.4     4.56       258        618        0          0          262.387    15170      0          -320       2171.59    85.785     20759     
2723.6     4.61       256        752        0          0          262.417    15172      0          -260       2169.17    85.73      20744     
2723.8     4.73       255        729        0          0          262.429    15172      0          -320       2166.73    85.673     20729     
2724       4.97       292        718        0          0          262.446    15173      0          -300       2164.42    85.629     20717     
2724.2     4.84       288        844        0          0          262.454    15173      0          -280       2161.97    85.593     20708     
2724.4     4.66       269        719        0          0          262.518    15176      0          -275       2159.63    85.559     20699     
2724.6     4.75       278        626        0          0          262.521    15176      0          -260       2157.22    85.525     20690     
