~Version
 VERS              .         2.0                           : CWLS LOG ASCII STANDARD - VERSION 2.0
 WRAP              .         NO                            : ONE LINE PER DEPTH STEP
 DLM               .         SPACE                         : DELIMITING CHARACTER(SPACE TAB OR COMMA)
~Well Information
#_______________________________________________________________________________
#
#PARAMETER_NAME    .UNIT     VALUE                         : DESCRIPTION
#_______________________________________________________________________________
STRT               .M        2645.2                        : First reference value
STOP               .M        2753.000054                   : Last reference value
STEP               .M        0.2000001                     : Step increment
NULL               .         -9999                         : Missing value
COMP               .                                       : Company
WELL               .         616                           : Well name
FLD                .                                       : Field
LOC                .                                       : Location
CNTY               .                                       : County
STAT               .                                       : State
CTRY               .                                       : Country
SRVC               .                                       : Service Company
DATE               .                                       : Date
API                .                                       : API number
PROJECT_UPGRADE_TIME .         2021-03-18T21_24_50           : 
group              .         Good                          : 
~Parameter Information Block
#_______________________________________________________________________________
#
#PARAMETER_NAME    .UNIT     VALUE                         : DESCRIPTION
#_______________________________________________________________________________
SET                .         D4407_D                       : 
OTHER              .         Запись производится в присутствии: 
OTHER_10           .         Максимальная температура      : 
OTHER_11           .         Тип промывочной жидкости      : 
OTHER_12           .         Сопротивление ПЖ (Ом*м) при 20°C: 
OTHER_13           .         Плотность ПЖ(г/см3)           : 
OTHER_14           .         Вязкость ПЖ(с)                : 
OTHER_15           .         Водоотдача ПЖ(см3/30мин)      : 
OTHER_16           .         Уровень ПЖ                    : 
OTHER_17           .         Нефть ПЖ (%)                  : 
OTHER_18           .         Барит ПЖ (%)                  : 
OTHER_19           .         Гематит ПЖ (%)                : 
OTHER_2            .         Заказчик ННСН  ЦДНГ-1         : 
OTHER_20           .         КМЦ ПЖ (%)                    : 
OTHER_21           .         Разгазирование ПЖ (да,нет)    : 
OTHER_22           .         Подъемник                     : 
OTHER_23           .         Лаборатория                   : 
OTHER_24           .         Тип кабеля                    : 
OTHER_25           .         Длина кабеля (м)              : 
OTHER_26           .         Цена последней метки          : 
OTHER_27           .         Цена контрольной метки        : 
OTHER_28           .         Диаметр долота (мм)           : 
OTHER_29           .         Глубина бурения (м)           : 
OTHER_3            .         Площадь                       : 
OTHER_30           .         Искусственный забой (м)       : 
OTHER_31           .         Диаметр колонны (мм)          : 
OTHER_32           .         Толщина колонны (мм)          : 
OTHER_33           .         Башмак колонны (м)            : 
OTHER_34           .         Диаметр НКТ (мм)              : 
OTHER_35           .         Толщина НКТ (мм)              : 
OTHER_36           .         Воронка НКТ (м)               : 
OTHER_37           .         Дата цементожа                : 
OTHER_38           .         Тип, количество(т) и плотность цемента: 
OTHER_39           .         Интервалы перфорации (м)      : 
OTHER_4            .         Категория                     : 
OTHER_40           .         Направление, диаметр (мм)     : 
OTHER_41           .         Направление, глубина (м)      : 
OTHER_42           .         Кондуктор, диаметр (мм)       : 
OTHER_43           .         Кондуктор, глубина (м)        : 
OTHER_44           .         Техническая колонна, диаметр (мм): 
OTHER_45           .         Техническая колонна, глубина (м): 
OTHER_46           .         Эксплуатационная колонна, диаметр (мм): 
OTHER_47           .         Эксплуатационная колонна, глубина (м): 
OTHER_48           .         Программа Кедр-02 версия 3.4  : 
OTHER_49           .         Операционная система Windows NT 5.1 build 2600 Service Pack 2: 
OTHER_5            .         Назначение исследований       : 
OTHER_50           .         Программное обеспечение станции MONITOR-386EX 25/12/99 15_08_10   BGF V54 20/09/05 15_32_17   3.3__BGF_9030071: 
OTHER_51           .         Kedr.exe версия 3.4.2.74      : 
OTHER_52           .         KedrData.dll версия 3.4.2.29  : 
OTHER_53           .         Мнемоники версия 3.18 S       : 
OTHER_54           .         Драйвер версия 2.1.1.4        : 
OTHER_55           .         LasInf.dll 4.3.0.35           : 
OTHER_56           .         Прибор_ КСА-Т4                : 
OTHER_57           .         Номер прибора_ 160            : 
OTHER_58           .         Режим_ КСА-Т4                 : 
OTHER_59           .         Форма_ С.А.Б.                 : 
OTHER_6            .         Альтитуда стола ротора        : 
OTHER_60           .         Тарировки_                    : 
OTHER_61           .         <_techsia_sc_> Дата тарировки температуры 25.05.2010: 
OTHER_62           .         Ручной ввод коэффициентов     : 
OTHER_63           .         TM.DEGC = 0.00402*RTM.E.ACP + -0.994: 
OTHER_64           .         <_techsia_sc_> Дата тарировки давления 25.05.2010: 
OTHER_65           .         Ручной ввод коэффициентов     : 
OTHER_66           .         MN.ATM = (2.27521e-006*TM.DEGC + 0.02078)*(RMN.E.ACP + 6.2*TM.DEGC + -1688): 
OTHER_67           .         <_techsia_sc_> Дата тарировки ГК 25.05.2010: 
OTHER_68           .         Ручной ввод коэффициентов     : 
OTHER_69           .         GR.UR/H = RGR.IMP/MIN / 45.5144: 
OTHER_7            .         Вид исследований 3  6         : 
OTHER_70           .         GK.FLT = 0.1*GR.UR/H[-1] + (1-0.1)*GR.UR/H[0]: 
OTHER_8            .         Начало бурения интервала каротажа: 
OTHER_9            .         Окончание бурения интервала каротажа: 
PROJECT_UPGRADE_TIME .         2021-03-18T21_24_50           : 
TLFamily_CCLC      .                                       : 
TLFamily_DEPT      .         Measured Depth                : 
TLFamily_GK        .         Gamma Ray                     : 
TLFamily_GR        .         Gamma Ray                     : 
TLFamily_METKA     .                                       : 
TLFamily_MN        .                                       : 
TLFamily_RCOR      .                                       : 
TLFamily_RGR       .                                       : 
TLFamily_RMN       .                                       : 
TLFamily_RTEN      .                                       : 
TLFamily_RTM       .                                       : 
TLFamily_SPEE      .         Cable Speed                   : 
TLFamily_TIME      .         Time                          : 
TLFamily_TM        .         Temperature                   : 
group              .         prim                          : 
~Curve Information
#_______________________________________________________________________________
#
#LOGNAME           .UNIT     LOG_ID                        : DESCRIPTION
#_______________________________________________________________________________
DEPT               .M                                      : 1 Глубина, м -    0.0 см 
CCLC               .E.ACP                                  : 9 Локатор муфт,  -   20.0 см 
GK                 .FLT                                    : 14 Гамма-активность фильтрованная, мкр./ч -  110.0 см 
GR                 .UR/H                                   : 13 Гамма-активность, мкр./ч -  110.0 см 
METKA              .CU                                     : 3 Метки,  -    0.0 см 
MN                 .ATM                                    : 12 Давление, атм. -  160.0 см 
RCOR               .CM/KM                                  : 5 Коррекция по ролику, см/км -    0.0 см 
RGR                .IMP/MIN                                : 10 Гамма-активность, усл.ед. -  110.0 см 
RMN                .E.ACP                                  : 8 Давление, усл.ед. -  160.0 см 
RTEN               .T                                      : 6 Натяжение кабеля, т -    0.0 см 
RTM                .E.ACP                                  : 7 Температура, усл.ед. -  170.0 см 
SPEE               .M/H                                    : 2 Скорость, м/час -    0.0 см 
TIME               .S                                      : 4 Время, сек -    0.0 см 
TM                 .DEGC                                   : 11 Температура, °C -  170.0 см 
~Ascii
# ...
2707.600031 84         11.21      11.21      0          242.697    -1106      510        12982      0.26       13081      567        396.39     51.592    
2707.800031 81         11.21      11.21      0          242.715    -1106      510        12983      0.26       13073      565        397.65     51.561    
2708.000031 76         10.63      10.63      0          242.745    -1106      484        12985      0.26       13062      563        399.02     51.514    
2708.200032 85         10.63      10.63      0          242.753    -1106      484        12986      0.26       13044      563        400.28     51.442    
2708.400032 68         10.94      10.94      0          242.785    -1106      498        12988      0.26       13024      562        401.58     51.362    
2708.600032 84         10.94      10.94      0          242.796    -1106      498        12989      0.26       13011      562        402.83     51.308    
2708.800032 107        11.01      11.01      0          242.831    -1106      501        12991      0.26       12996      561        404.2      51.25     
2709.000032 156        11.01      11.01      0          242.846    -1106      501        12992      0.26       12986      560        405.47     51.21     
2709.200032 105        11.18      11.18      0          242.878    -1106      509        12994      0.26       12977      561        406.73     51.175    
2709.400032 118        11.18      11.18      0          242.894    -1106      509        12995      0.26       12965      561        408.03     51.125    
2709.600032 77         11.84      11.84      0          242.905    -1106      539        12996      0.26       12950      561        409.29     51.065    
2709.800032 97         11.84      11.84      0          242.937    -1106      539        12998      0.26       12933      563        410.6      50.999    
2710.000032 118        11.86      11.86      0          242.965    -1106      540        13000      0.26       12921      569        411.84     50.95     
2710.200032 131        11.86      11.86      0          242.985    -1106      540        13001      0.26       12910      568        413.16     50.903    
2710.400033 97         11.64      11.64      0          243.014    -1106      530        13003      0.26       12898      566        414.41     50.856    
2710.600033 123        11.64      11.64      0          243.036    -1106      530        13004      0.26       12889      565        415.76     50.82     
2710.800033 90         11.84      11.84      0          243.051    -1106      539        13005      0.26       12879      564        417.03     50.778    
2711.000033 87         11.84      11.84      0          243.087    -1106      539        13007      0.26       12870      563        418.28     50.741    
2711.200033 89         11.34      11.34      0          243.104    -1106      516        13008      0.26       12865      563        419.53     50.721    
2711.400033 74         11.3       11.3       0          243.119    -1106      514        13009      0.26       12855      564        420.79     50.683    
2711.600033 48         11.1       11.1       0          243.157    -1106      505        13011      0.26       12846      569        422.11     50.648    
2711.800033 76         10.89      10.89      0          243.183    -1106      496        13013      0.26       12840      573        423.32     50.622    
2712.000033 115        9.89       9.89       0          243.207    -1106      450        13014      0.26       12832      577        424.61     50.59     
2712.200033 68         9.89       9.89       0          243.228    -1106      450        13015      0.26       12828      573        425.86     50.575    
2712.400034 47         8.5        8.5        0          243.261    -1106      387        13017      0.26       12821      569        427.17     50.545    
2712.600034 82         10.71      10.71      0          243.28     -1106      487        13018      0.26       12812      567        428.47     50.508    
2712.800034 90         11.6       11.6       0          243.307    -1106      528        13020      0.26       12804      566        429.74     50.479    
2713.000034 120        11.92      11.92      0          243.332    -1106      543        13021      0.26       12797      566        431.04     50.449    
2713.200034 99         13.51      13.51      0          243.359    -1106      615        13022      0.26       12791      564        432.34     50.424    
2713.400034 97         13.51      13.51      0          243.389    -1106      615        13024      0.26       12784      564        433.61     50.398    
2713.600034 180        11.14      11.14      0          243.429    -1106      507        13026      0.26       12780      564        434.89     50.381    
2713.800034 191        11.8       11.8       0          243.447    -1106      537        13027      0.26       12775      563        436.17     50.363    
2714.000034 62         11.8       11.8       0          243.467    -1106      537        13028      0.26       12773      561        437.44     50.353    
2714.200034 65         12.27      12.27      0          243.489    -1106      559        13029      0.26       12769      561        438.81     50.337    
2714.400035 2215       12.39      12.39      0          243.519    -1106      564        13031      0.26       12760      563        440.06     50.301    
2714.600035 1199       9.82       9.82       0          243.539    -1106      447        13032      0.26       12752      561        441.35     50.268    
2714.800035 349        9.16       9.16       0          243.575    -1106      417        13034      0.26       12747      562        442.63     50.25     
2715.000035 149        8.02       8.02       0          243.614    -1106      365        13036      0.26       12743      562        443.94     50.232    
2715.200035 81         8.02       8.02       0          243.641    -1106      365        13037      0.26       12738      562        445.25     50.214    
2715.400035 65         8.04       8.04       0          243.651    -1106      366        13038      0.26       12734      562        446.51     50.196    
2715.600035 55         8.04       8.04       0          243.69     -1106      366        13040      0.26       12731      562        447.78     50.183    
2715.800035 77         7.23       7.23       0          243.704    -1106      329        13041      0.26       12727      562        449.08     50.169    
2716.000035 70         7.23       7.23       2          243.726    -1106      329        13042      0.26       12721      561        450.44     50.146    
2716.200036 65         9.49       9.49       0          243.755    -1110      432        13044      0.26       12714      561        451.95     50.117    
2716.400036 117        9.49       9.49       0          243.782    -1110      432        13045      0.26       12710      561        453.2      50.099    
2716.600036 173        13.86      13.86      0          243.821    -1110      631        13047      0.26       12706      562        454.49     50.085    
2716.800036 181        13.86      13.86      0          243.839    -1110      631        13048      0.26       12702      562        455.83     50.066    
2717.000036 138        12.37      12.37      0          243.865    -1110      563        13049      0.26       12698      562        457.12     50.052    
2717.200036 67         11.93      11.93      0          243.892    -1110      543        13051      0.26       12695      562        458.39     50.04     
2717.400036 64         9.73       9.73       0          243.917    -1110      443        13052      0.26       12692      563        459.64     50.026    
2717.600036 75         9.73       9.73       0          243.935    -1110      443        13053      0.26       12688      562        460.94     50.012    
2717.800036 92         9.93       9.93       0          243.992    -1110      452        13056      0.26       12684      562        462.28     49.995    
