~Version
 VERS              .         2.0                           : CWLS LOG ASCII STANDARD - VERSION 2.0
 WRAP              .         NO                            : ONE LINE PER DEPTH STEP
 DLM               .         SPACE                         : DELIMITING CHARACTER(SPACE TAB OR COMMA)
~Well Information
#_______________________________________________________________________________
#
#PARAMETER_NAME    .UNIT     VALUE                         : DESCRIPTION
#_______________________________________________________________________________
STRT               .M        44.8                          : First reference value
STOP               .M        2755.2                        : Last reference value
STEP               .M        0.2                           : Step increment
NULL               .         -9999                         : Missing value
COMP               .                                       : Company
WELL               .         616                           : Well name
FLD                .                                       : Field
LOC                .                                       : Location
CNTY               .                                       : County
STAT               .                                       : State
CTRY               .                                       : Country
SRVC               .                                       : Service Company
DATE               .                                       : Date
API                .                                       : API number
PROJECT_UPGRADE_TIME .         2021-03-18T21_24_50           : 
group              .         Good                          : 
~Parameter Information Block
#_______________________________________________________________________________
#
#PARAMETER_NAME    .UNIT     VALUE                         : DESCRIPTION
#_______________________________________________________________________________
SET                .         D4390_D_2                     : 
COMM               .                                       : 
OTHER              .         Запись производится в присутствии: 
OTHER_10           .         Максимальная температура      : 
OTHER_100          .         GK.FLT = 0.1*GR.UR/H[-1] + (1-0.1)*GR.UR/H[0]: 
OTHER_11           .         Тип промывочной жидкости      : 
OTHER_12           .         Сопротивление ПЖ (Ом*м) при 20°C: 
OTHER_13           .         Плотность ПЖ(г/см3)           : 
OTHER_14           .         Вязкость ПЖ(с)                : 
OTHER_15           .         Водоотдача ПЖ(см3/30мин)      : 
OTHER_16           .         Уровень ПЖ                    : 
OTHER_17           .         Нефть ПЖ (%)                  : 
OTHER_18           .         Барит ПЖ (%)                  : 
OTHER_19           .         Гематит ПЖ (%)                : 
OTHER_2            .         Заказчик ННСН  ЦДНГ-1         : 
OTHER_20           .         КМЦ ПЖ (%)                    : 
OTHER_21           .         Разгазирование ПЖ (да,нет)    : 
OTHER_22           .         Подъемник                     : 
OTHER_23           .         Лаборатория                   : 
OTHER_24           .         Тип кабеля                    : 
OTHER_25           .         Длина кабеля (м)              : 
OTHER_26           .         Цена последней метки          : 
OTHER_27           .         Цена контрольной метки        : 
OTHER_28           .         Диаметр долота (мм)           : 
OTHER_29           .         Глубина бурения (м)           : 
OTHER_3            .         Площадь                       : 
OTHER_30           .         Искусственный забой (м)       : 
OTHER_31           .         Диаметр колонны (мм)          : 
OTHER_32           .         Толщина колонны (мм)          : 
OTHER_33           .         Башмак колонны (м)            : 
OTHER_34           .         Диаметр НКТ (мм)              : 
OTHER_35           .         Толщина НКТ (мм)              : 
OTHER_36           .         Воронка НКТ (м)               : 
OTHER_37           .         Дата цементожа                : 
OTHER_38           .         Тип, количество(т) и плотность цемента: 
OTHER_39           .         Интервалы перфорации (м)      : 
OTHER_4            .         Категория                     : 
OTHER_40           .         Направление, диаметр (мм)     : 
OTHER_41           .         Направление, глубина (м)      : 
OTHER_42           .         Кондуктор, диаметр (мм)       : 
OTHER_43           .         Кондуктор, глубина (м)        : 
OTHER_44           .         Техническая колонна, диаметр (мм): 
OTHER_45           .         Техническая колонна, глубина (м): 
OTHER_46           .         Эксплуатационная колонна, диаметр (мм): 
OTHER_47           .         Эксплуатационная колонна, глубина (м): 
OTHER_48           .         Программа Кедр-02 версия 3.4  : 
OTHER_49           .         Операционная система Windows NT 5.1 build 2600 Service Pack 2: 
OTHER_5            .         Назначение исследований       : 
OTHER_50           .         Программное обеспечение станции MONITOR-386EX 25/12/99 15_08_10   BGF V54 20/09/05 15_32_17   3.3__BGF_9030071: 
OTHER_51           .         Kedr.exe версия 3.4.2.74      : 
OTHER_52           .         KedrData.dll версия 3.4.2.29  : 
OTHER_53           .         Мнемоники версия 3.18 S       : 
OTHER_54           .         Драйвер версия 2.1.1.4        : 
OTHER_55           .         LasInf.dll 4.3.0.35           : 
OTHER_56           .         Прибор_ КСА-Т4                : 
OTHER_57           .         Номер прибора_ 160            : 
OTHER_58           .         Режим_ КСА-Т4                 : 
OTHER_59           .         Форма_ С.А.Б.                 : 
OTHER_6            .         Альтитуда стола ротора        : 
OTHER_60           .         Тарировки_                    : 
OTHER_61           .         <_techsia_sc_> Дата тарировки температуры 25.05.2010: 
OTHER_62           .         Ручной ввод коэффициентов     : 
OTHER_63           .         TM.DEGC = 0.00402*RTM.E.ACP + -0.994: 
OTHER_64           .         <_techsia_sc_> Дата тарировки давления 25.05.2010: 
OTHER_65           .         Ручной ввод коэффициентов     : 
OTHER_66           .         MN.ATM = (2.27521e-006*TM.DEGC + 0.02078)*(RMN.E.ACP + 6.2*TM.DEGC + -1688): 
OTHER_67           .         <_techsia_sc_> Дата тарировки ГК 25.05.2010: 
OTHER_68           .         Ручной ввод коэффициентов     : 
OTHER_69           .         GR.UR/H = RGR.IMP/MIN / 45.5144: 
OTHER_7            .         Вид исследований 3  6         : 
OTHER_70           .         GK.FLT = 0.1*GR.UR/H[-1] + (1-0.1)*GR.UR/H[0]: 
OTHER_71           .         <_techsia_sc_> Дата тарировки температуры 25.05.2010: 
OTHER_72           .         Ручной ввод коэффициентов     : 
OTHER_73           .         TM.DEGC = 0.00402*RTM.E.ACP + -0.994: 
OTHER_74           .         <_techsia_sc_> Дата тарировки давления 25.05.2010: 
OTHER_75           .         Ручной ввод коэффициентов     : 
OTHER_76           .         MN.ATM = (2.27521e-006*TM.DEGC + 0.02078)*(RMN.E.ACP + 6.2*TM.DEGC + -1688): 
OTHER_77           .         <_techsia_sc_> Дата тарировки ГК 25.05.2010: 
OTHER_78           .         Ручной ввод коэффициентов     : 
OTHER_79           .         GR.UR/H = RGR.IMP/MIN / 45.5144: 
OTHER_8            .         Начало бурения интервала каротажа: 
OTHER_80           .         GK.FLT = 0.1*GR.UR/H[-1] + (1-0.1)*GR.UR/H[0]: 
OTHER_81           .         <_techsia_sc_> Дата тарировки температуры 25.05.2010: 
OTHER_82           .         Ручной ввод коэффициентов     : 
OTHER_83           .         TM.DEGC = 0.00402*RTM.E.ACP + -0.994: 
OTHER_84           .         <_techsia_sc_> Дата тарировки давления 25.05.2010: 
OTHER_85           .         Ручной ввод коэффициентов     : 
OTHER_86           .         MN.ATM = (2.27521e-006*TM.DEGC + 0.02078)*(RMN.E.ACP + 6.2*TM.DEGC + -1688): 
OTHER_87           .         <_techsia_sc_> Дата тарировки ГК 25.05.2010: 
OTHER_88           .         Ручной ввод коэффициентов     : 
OTHER_89           .         GR.UR/H = RGR.IMP/MIN / 45.5144: 
OTHER_9            .         Окончание бурения интервала каротажа: 
OTHER_90           .         GK.FLT = 0.1*GR.UR/H[-1] + (1-0.1)*GR.UR/H[0]: 
OTHER_91           .         <_techsia_sc_> Дата тарировки температуры 25.05.2010: 
OTHER_92           .         Ручной ввод коэффициентов     : 
OTHER_93           .         TM.DEGC = 0.00402*RTM.E.ACP + -0.994: 
OTHER_94           .         <_techsia_sc_> Дата тарировки давления 25.05.2010: 
OTHER_95           .         Ручной ввод коэффициентов     : 
OTHER_96           .         MN.ATM = (2.27521e-006*TM.DEGC + 0.02078)*(RMN.E.ACP + 6.2*TM.DEGC + -1688): 
OTHER_97           .         <_techsia_sc_> Дата тарировки ГК 25.05.2010: 
OTHER_98           .         Ручной ввод коэффициентов     : 
OTHER_99           .         GR.UR/H = RGR.IMP/MIN / 45.5144: 
PROJECT_UPGRADE_TIME .         2021-03-18T21_24_50           : 
PRTY               .         ПП-601-1                      : N партии
SRVC               .         Барковский                    : Начальник партии
TLFamily_DEPT      .         Measured Depth                : 
TLFamily_LM        .         Casing Collar locator         : 
TLFamily_METKA     .                                       : 
TLFamily_MN        .                                       : 
TLFamily_TM        .         Temperature                   : 
group              .         second                        : 
~Curve Information
#_______________________________________________________________________________
#
#LOGNAME           .UNIT     LOG_ID                        : DESCRIPTION
#_______________________________________________________________________________
DEPT               .M                                      : Depth curve 
LM                 .е.ацп                                  : Локатор муфт,е.ацп 
METKA              .е.ацп                                  : Магнитные метки,е.ацп 
MN                 .атм                                    : 12 Давление, атм. -  160.0 см 
TM                 .град.C                                 : Термограмма по стволу скважины,град.C 
~Ascii
# ...
1125.2     6345.837   0          102.15     31.308    
1125.4     4221.893   0          102.155    31.313    
1125.6     2832.94    0          102.181    31.318    
1125.8     2045.966   0          102.196    31.319    
1126       1599.969   0          102.197    31.327    
1126.2     1195.013   0          102.215    31.332    
1126.4     1362.989   0          102.24     31.337    
1126.6     1222       0          102.264    31.343    
1126.8     1221.986   0          102.283    31.347    
1127       1042.015   0          102.284    31.352    
1127.2     1231.011   0          102.305    31.355    
1127.4     1367.99    0          102.311    31.36     
1127.6     1239.99    0          102.336    31.369    
1127.8     1116.001   0          102.362    31.375    
1128       1123.001   0          102.371    31.38     
1128.2     1139.994   0          102.372    31.384    
1128.4     1061.992   0          102.414    31.387    
1128.6     964        0          102.414    31.387    
1128.8     965.003    0          102.423    31.39     
1129       1009.998   0          102.458    31.391    
1129.2     989.999    0          102.477    31.391    
1129.4     971.003    0          102.457    31.393    
1129.6     1015.007   0          102.503    31.393    
1129.8     1101       0          102.51     31.391    
1130       1098.995   0          102.52     31.387    
1130.2     1029.01    0          102.538    31.383    
1130.4     1152.997   0          102.559    31.383    
1130.6     1118.985   0          102.561    31.381    
1130.8     925.993    0          102.579    31.379    
1131       839.005    0          102.593    31.379    
1131.2     907.993    0          102.619    31.384    
1131.4     811.028    0          102.644    31.389    
1131.6     1168.995   0          102.665    31.393    
1131.8     1103.992   0          102.666    31.398    
1132       1001.993   0          102.691    31.403    
1132.2     905.003    0          102.693    31.408    
1132.4     940.014    0          102.728    31.413    
1132.6     1120.988   0          102.735    31.42     
1132.8     965.008    0          102.761    31.426    
1133       1071.005   0          102.775    31.435    
1133.2     1136.99    0          102.791    31.441    
1133.4     1003.005   0          102.817    31.45     
1133.6     1063.997   0          102.821    31.459    
1133.8     1028.995   0          102.836    31.47     
1134       965.012    0          102.865    31.479    
1134.2     1114       0          102.879    31.484    
1134.4     1116.989   0          102.906    31.493    
1134.6     976.325    0          102.929    31.498    
1134.8     5178.014   0          102.91     31.502    
1135       5363.859   2          102.928    31.507    
1135.2     3545.874   0          102.953    31.512    
1135.4     1915.965   0          102.954    31.518    
1135.6     1463.968   0          102.977    31.526    
1135.8     1050.979   0          103.002    31.53     
1136       781.002    0          103.029    31.535    
1136.2     802.992    0          103.041    31.544    
1136.4     699.013    0          103.073    31.549    
1136.6     871.987    0          103.075    31.555    
1136.8     709.017    0          103.101    31.561    
1137       929.99     0          103.125    31.565    
1137.2     806.993    0          103.128    31.57     
1137.4     719.997    0          103.141    31.578    
1137.6     679.994    0          103.171    31.58     
1137.8     600.031    0          103.186    31.584    
1138       994.994    0          103.192    31.584    
1138.2     916.975    0          103.214    31.584    
1138.4     593.005    0          103.234    31.584    
1138.6     653.997    0          103.244    31.588    
1138.8     616.006    0          103.27     31.592    
1139       689.996    0          103.277    31.596    
1139.2     635.007    0          103.298    31.598    
1139.4     730.006    0          103.303    31.602    
1139.6     810.999    0          103.322    31.61     
1139.8     804.003    0          103.337    31.621    
1140       844.992    0          103.345    31.63     
1140.2     747.993    0          103.388    31.64     
1140.4     653.998    0          103.393    31.647    
1140.6     626.011    0          103.418    31.651    
1140.8     767.006    0          103.433    31.66     
1141       838.005    0          103.433    31.665    
1141.2     905.993    0          103.476    31.67     
1141.4     820.995    0          103.48     31.675    
1141.6     755.006    0          103.498    31.679    
1141.8     830        0          103.498    31.681    
1142       825.991    0          103.528    31.685    
1142.2     709.005    0          103.54     31.689    
1142.4     768        0          103.583    31.691    
1142.6     769.986    0          103.583    31.693    
1142.8     588.993    0          103.593    31.696    
1143       504.002    0          103.605    31.697    
1143.2     526.008    0          103.623    31.702    
1143.4     627.999    0          103.648    31.705    
1143.6     615.054    0          103.668    31.707    
1143.8     1310.445   0          103.669    31.709    
1144       7016.811   0          103.696    31.713    
1144.2     4600.881   0          103.695    31.718    
1144.4     3070.92    0          103.712    31.722    
1144.6     2049.928   0          103.739    31.727    
1144.8     1133.985   2          103.765    31.735    
1145       947.99     0          103.765    31.745    
1145.2     816.003    0          103.807    31.751    
1145.4     858.009    0          103.802    31.758    
1145.6     978.99     0          103.828    31.766    
1145.8     855.983    0          103.844    31.769    
1146       644.988    0          103.845    31.773    
1146.2     495.999    0          103.86     31.778    
1146.4     482.045    0          103.886    31.782    
1146.6     1057.009   0          103.907    31.785    
1146.8     1174.981   0          103.903    31.788    
1147       928.987    0          103.951    31.789    
1147.2     767.985    0          103.951    31.789    
1147.4     574.025    0          103.951    31.79     
1147.6     888.018    0          103.993    31.793    
1147.8     1112.997   0          103.993    31.793    
1148       1068.997   0          104.003    31.796    
1148.2     1026.997   0          104.029    31.801    
1148.4     989.991    0          104.054    31.806    
1148.6     880.007    0          104.058    31.811    
1148.8     969.99     0          104.085    31.816    
1149       841.997    0          104.102    31.824    
1149.2     809.999    0          104.115    31.829    
1149.4     799.996    0          104.142    31.835    
1149.6     748.993    0          104.146    31.843    
1149.8     662.01     0          104.152    31.848    
1150       790.016    0          104.197    31.855    
1150.2     998.997    0          104.199    31.861    
1150.4     955.998    0          104.207    31.865    
1150.6     932.014    0          104.232    31.868    
1150.8     1105.005   0          104.236    31.876    
1151       1164.986   0          104.262    31.88     
1151.2     988.979    0          104.287    31.885    
1151.4     728.01     0          104.299    31.89     
1151.6     857.994    0          104.3      31.895    
1151.8     784.025    0          104.344    31.902    
1152       1107.973   0          104.359    31.908    
1152.2     758.992    0          104.364    31.913    
1152.4     659.995    0          104.387    31.922    
1152.6     597.023    0          104.421    31.931    
1152.8     889.981    0          104.391    31.935    
1153       645.987    0          104.441    31.94     
1153.2     477.997    0          104.464    31.942    
1153.4     436.993    0          104.465    31.942    
1153.6     349.999    0          104.473    31.939    
1153.8     340.444    0          104.511    31.941    
1154       5974.835   0          104.514    31.94     
1154.2     3883.898   0          104.521    31.939    
