~Version
 VERS              .         2.0                           : CWLS LOG ASCII STANDARD - VERSION 2.0
 WRAP              .         NO                            : ONE LINE PER DEPTH STEP
 DLM               .         SPACE                         : DELIMITING CHARACTER(SPACE TAB OR COMMA)
~Well Information
#_______________________________________________________________________________
#
#PARAMETER_NAME    .UNIT     VALUE                         : DESCRIPTION
#_______________________________________________________________________________
STRT               .M        2648.2                        : First reference value
STOP               .M        2755.2                        : Last reference value
STEP               .M        0.2                           : Step increment
NULL               .         -9999                         : Missing value
COMP               .                                       : Company
WELL               .         616                           : Well name
FLD                .                                       : Field
LOC                .                                       : Location
CNTY               .                                       : County
STAT               .                                       : State
CTRY               .                                       : Country
SRVC               .                                       : Service Company
DATE               .                                       : Date
API                .                                       : API number
PROJECT_UPGRADE_TIME .         2021-03-18T21_24_50           : 
group              .         Good                          : 
~Parameter Information Block
#_______________________________________________________________________________
#
#PARAMETER_NAME    .UNIT     VALUE                         : DESCRIPTION
#_______________________________________________________________________________
SET                .         D7022_D                       : 
OTHER              .         Kedr.exe версия 2.1.2.32      : 
OTHER_10           .         TM.GRD = 0.00404*TM$.UE + 0.07: 
OTHER_11           .         MN.ATM = (6.33279e-006*TM.GRD + 0.02401)*(MN$.UE + 2.72*TM.GRD + -2018): 
OTHER_12           .         GK.MKR/H = GK$.UE / 43.5489 + 0: 
OTHER_13           .         RES.SM = 0.00476*CRES.UE - 1.51709: 
OTHER_14           .         PL.GSM3 = 0 + 0 * (PL.UE / 1) +  0 * (PL.UE / 1)^2: 
OTHER_15           .         Постоянная времени ГГП = 6 сек: 
OTHER_16           .         Постоянная времени ГК = 6 сек : 
OTHER_2            .         KedrData.dll версия 3.2.2.14  : 
OTHER_3            .         LasInf.dll версия 3.2.0.13    : 
OTHER_4            .         Драйвер версия 1.2.0.5        : 
OTHER_5            .         Прибор_ КСА-M1                : 
OTHER_6            .         Номер прибора_ 155+р204       : 
OTHER_7            .         Режим_ КСА-М1 + ГГП + Резистивиметр: 
OTHER_8            .         Форма_ 223\2                  : 
OTHER_9            .         Тарировки_                    : 
PROJECT_UPGRADE_TIME .         2021-03-18T21_24_50           : 
TLFamily_CRES      .                                       : 
TLFamily_DEPT      .         Measured Depth                : 
TLFamily_GK        .         Gamma Ray                     : 
TLFamily_GK$       .                                       : 
TLFamily_LM        .         Casing Collar locator         : 
TLFamily_METKA     .                                       : 
TLFamily_MN        .                                       : 
TLFamily_MN$       .                                       : 
TLFamily_PL        .                                       : 
TLFamily_PL_2      .                                       : 
TLFamily_RCOR      .                                       : 
TLFamily_RES       .         Mud Resistivity               : 
TLFamily_SPID      .         Spontaneous Potential         : 
TLFamily_STD       .                                       : 
TLFamily_TIME      .         Time                          : 
TLFamily_TM        .         Temperature                   : 
TLFamily_TM$       .         Temperature                   : 
TLFamily_VGD       .         Gas Volume                    : 
group              .         prim                          : 
~Curve Information
#_______________________________________________________________________________
#
#LOGNAME           .UNIT     LOG_ID                        : DESCRIPTION
#_______________________________________________________________________________
DEPT               .M                                      : 1 Глубина, м -    0.0 см 
CRES               .UE                                     : 9 Проводимость, усл.ед. -  222.0 см 
GK                 .MKR/H                                  : 16 Гамма-активность, мкр./ч -  106.0 см 
GK$                .UE                                     : 13 Гамма-активность, усл.ед. -  106.0 см 
LM                 .                                       : 11 Локатор муфт,  -   16.0 см 
METKA              .                                       : 3 Метки,  -    0.0 см 
MN                 .ATM                                    : 15 Давление, атм. -  160.0 см 
MN$                .UE                                     : 7 Давление, усл.ед. -  160.0 см 
PL                 .UE                                     : 10 Плотность, усл.ед. -  270.0 см 
PL_2               .GSM3                                   : 18 Плотность, г./см3 -  270.0 см 
RCOR               .CM/KM                                  : 5 Коррекция по ролику, см/км -    0.0 см 
RES                .SM                                     : 17 Проводимость,  -  222.0 см 
SPID               .M/H                                    : 2 Скорость, м/час -    0.0 см 
STD                .                                       : 12 Приток,  -  170.0 см 
TIME               .S                                      : 4 Время, сек -    0.0 см 
TM                 .GRD                                    : 14 Температура, °C -  180.0 см 
TM$                .UE                                     : 6 Температура, усл.ед. -  180.0 см 
VGD                .                                       : 8 Влагомер,  -  170.0 см 
~Ascii
# ...
2697.4     1183       9.81       422        84         0          338.511    15791      14         0          0          4.114      580        10007      14165.86   51.043     12617      6660      
2697.6     1181       9.75       422        87         0          338.12     15775      14         0          0          4.1052     580        10001      14167.13   51.04      12616      6655      
2697.8     1183       10.19      482        77         0          338.773    15802      14         0          0          4.114      580        9997       14168.45   51.02      12611      6656      
2698       1182       10.61      482        78         0          339.164    15818      15         0          0          4.1092     557        9994       14169.71   50.994     12605      6652      
2698.2     1179       10.94      499        81         0          340.051    15854      14         0          0          4.0973     580        9990       14171.04   50.98      12602      6651      
2698.4     1179       11.19      499        76         0          340.547    15875      14         0          0          4.0942     580        9989       14172.31   50.973     12600      6673      
2698.6     1178       11.11      470        100        0          340.216    15861      15         0          0          4.0895     510        9992       14173.64   50.966     12598      6650      
2698.8     1179       10.96      470        70         0          341.462    15913      14         0          0          4.0934     510        9994       14174.96   50.953     12595      6653      
2699       1178       10.92      475        74         0          341.046    15895      14         0          0          4.0918     580        9994       14176.23   50.944     12592      6649      
2699.2     1179       10.91      475        69         0          341.377    15909      14         0          0          4.0949     568        9990       14177.5    50.934     12590      6669      
2699.4     1177       10.95      479        61         0          341.677    15922      13         0          0          4.0862     510        9990       14178.83   50.918     12586      6664      
2699.6     1179       10.98      479        67         0          340.919    15891      14         0          0          4.0949     580        9990       14180.08   50.905     12583      6659      
2699.8     1178       11.12      494        84         0          340.138    15858      14         0          0          4.0902     550        9991       14181.38   50.897     12581      6653      
2700       1179       11.23      494        69         0          339.886    15848      13         0          0          4.0949     580        9990       14182.69   50.886     12578      6657      
2700.2     1178       11.85      549        72         0          339.63     15838      14         0          0          4.0902     580        9988       14183.96   50.874     12575      6655      
2700.4     1179       12.22      548        73         0          339.148    15818      14         0          0          4.0934     540        9987       14185.31   50.864     12573      6658      
2700.6     1179       12.32      541        87         0          338.665    15798      14         0          0          4.0926     533        9985       14186.61   50.853     12570      6662      
2700.8     1178       12.15      490        88         0          338.949    15810      13         0          0          4.091      580        9983       14187.88   50.842     12567      6656      
2701       1178       11.43      464        74         0          338.908    15808      14         0          0          4.0918     580        9981       14189.21   50.818     12561      6653      
2701.2     1177       11         455        65         0          339.815    15846      15         0          0          4.087      540        9982       14190.5    50.803     12558      6655      
2701.4     1178       10.11      402        99         0          340.159    15860      13         0          0          4.0926     533        9981       14191.79   50.788     12554      6665      
2701.6     1177       10.12      502        93         0          341.009    15895      14         0          0          4.0847     580        9979       14193.13   50.784     12553      6662      
2701.8     1176       11.56      568        102        0          341.446    15913      14         0          0          4.0807     580        9975       14194.4    50.773     12550      6661      
2702       1174       12.96      703        87         0          341.149    15901      14         0          0          4.0698     545        9972       14195.71   50.76      12547      6668      
2702.2     1174       14.55      703        103        0          342.21     15945      14         0          0          4.0688     580        9966       14196.98   50.744     12543      6669      
2702.4     1172       14.42      568        82         0          342.368    15951      14         0          0          4.0616     580        9961       14198.32   50.726     12539      6661      
2702.6     1174       13.73      568        97         0          341.964    15935      14         0          0          4.0705     522        9955       14199.59   50.708     12534      6667      
2702.8     1173       13.3       549        83         0          341.597    15920      14         0          0          4.0664     580        9947       14200.9    50.686     12529      6668      
2703       1174       12.96      549        100        0          341.151    15902      14         0          0          4.0688     580        9939       14202.17   50.669     12525      6663      
2703.2     1173       12.98      577        108        0          340.501    15875      14         0          0          4.0656     570        9936       14203.45   50.663     12523      6661      
2703.4     1174       13.11      577        144        0          340.129    15860      14         0          0          4.0711     510        9934       14204.77   50.655     12521      6664      
2703.6     1173       12.02      438        4889       0          339.697    15842      14         0          0          4.0648     580        9933       14206.08   50.655     12521      6666      
2703.8     1173       11.04      438        3009       0          340.102    15859      14         0          0          4.0648     533        9935       14207.38   50.645     12518      6659      
2704       1173       9.93       343        463        0          339.238    15823      14         0          0          4.0648     580        9934       14208.64   50.64      12517      6660      
2704.2     1172       8.9        343        143        0          340.347    15869      14         0          0          4.0624     568        9933       14209.96   50.618     12512      6663      
2704.4     1172       8.52       357        81         0          341.038    15897      14         0          0          4.0632     580        9929       14211.29   50.598     12507      6665      
2704.6     1173       8.36       357        99         0          341.546    15918      14         0          0          4.0648     560        9925       14212.58   50.574     12501      6661      
2704.8     1173       8.2        349        99         0          341.912    15934      14         0          0          4.0664     520        9923       14213.84   50.551     12495      6669      
2705       1172       8.11       349        109        0          342.253    15948      14         0          0          4.06       560        9922       14215.2    50.545     12494      6673      
2705.2     1172       9.03       436        86         0          343.04     15980      14         0          0          4.06       538        9919       14216.52   50.521     12488      6671      
2705.4     1170       9.52       436        80         0          342.791    15970      14         0          0          4.0542     568        9916       14217.82   50.508     12485      6672      
