~Version
 VERS              .         2.0                           : CWLS LOG ASCII STANDARD - VERSION 2.0
 WRAP              .         NO                            : ONE LINE PER DEPTH STEP
 DLM               .         SPACE                         : DELIMITING CHARACTER(SPACE TAB OR COMMA)
~Well Information
#_______________________________________________________________________________
#
#PARAMETER_NAME    .UNIT     VALUE                         : DESCRIPTION
#_______________________________________________________________________________
STRT               .M        209.2                         : First reference value
STOP               .M        612.6                         : Last reference value
STEP               .M        0.2                           : Step increment
NULL               .         -9999                         : Missing value
COMP               .                                       : Company
WELL               .         616                           : Well name
FLD                .                                       : Field
LOC                .                                       : Location
CNTY               .                                       : County
STAT               .                                       : State
CTRY               .                                       : Country
SRVC               .                                       : Service Company
DATE               .                                       : Date
API                .                                       : API number
PROJECT_UPGRADE_TIME .         2021-03-18T21_24_50           : 
group              .         Good                          : 
~Parameter Information Block
#_______________________________________________________________________________
#
#PARAMETER_NAME    .UNIT     VALUE                         : DESCRIPTION
#_______________________________________________________________________________
SET                .         616_3                         : 
CONF               .         00                            : 
END                .         0                             : 
ERR                .         0                             : 
GS00               .M        0610.64                       : 
GS01               .M        0206.79                       : 
MM00               .M        0060.00                       : 
NOKG               .         1                             : 
NPR                .         980119                        : 
PART               .         Палагутин                     : 
PROJECT_UPGRADE_TIME .         2021-03-18T21_24_49           : 
PRZK               .         Шакиров                       : 
TLFamily_AZIMUTH   .         True Dip Azimuth              : 
TLFamily_DEPTH     .         Measured Depth                : 
TLFamily_METKA     .                                       : 
TLFamily_ROLL      .                                       : 
TLFamily_SPEED     .         Spontaneous Potential         : 
TLFamily_ZENIT     .                                       : 
VPRG               .         310                           : 
WAY                .         UP                            : 
group              .         prim                          : 
~Curve Information
#_______________________________________________________________________________
#
#LOGNAME           .UNIT     LOG_ID                        : DESCRIPTION
#_______________________________________________________________________________
DEPTH              .M                                      :  
AZIMUTH            .DEG                                    :  
METKA              .                                       :  
ROLL               .DEG                                    :  
SPEED              .M/H                                    :  
ZENIT              .DEG                                    :  
~Ascii
# ...
575.2      259.07     0          157.83     504        27.27     
575.4      259.22     0          157.42     468        27.38     
575.6      258.5      0          158.07     468        27.41     
575.8      258.28     0          159.07     504        27.32     
576        259.72     0          159.84     468        27.44     
576.2      258.94     0          160.44     504        27.29     
576.4      259.07     0          161.54     468        27.27     
576.6      258.44     0          161.89     468        27.15     
576.8      259.7      0          162.27     468        27.53     
577        260.26     0          161.89     504        27.59     
577.2      259.52     0          162.87     504        27.56     
577.4      259.22     0          163.13     468        27.49     
577.6      258.07     0          163.67     468        27.39     
577.8      258.92     0          163.58     504        27.46     
578        258.46     0          163.21     468        27.37     
578.2      258.62     0          162.25     504        27.37     
578.4      258.32     0          161.04     504        27.36     
578.6      259.61     0          159.91     432        27.64     
578.8      258.04     0          160.47     468        27.32     
579        258.44     0          160.51     504        27.48     
579.2      257.73     0          161.93     504        27.4      
579.4      258.24     0          163.22     504        27.36     
579.6      258.28     0          162.23     504        27.34     
579.8      258.79     0          160.22     504        27.4      
580        257.52     0          159.04     504        27.28     
580.2      258.26     0          159.6      468        27.44     
580.4      258.12     0          160.5      504        27.33     
580.6      257.82     0          161.47     432        27.31     
580.8      258.19     0          162.33     504        27.35     
581        258.93     0          162.62     504        27.48     
581.2      258.32     0          162.09     504        27.39     
581.4      258.26     0          162.4      504        27.43     
581.6      258.23     0          161.87     504        27.41     
581.8      257.87     0          161.13     504        27.3      
582        258.52     0          160.38     504        27.55     
582.2      258.43     1          160.54     468        27.38     
582.4      258.17     0          160.7      468        27.4      
582.6      258.26     0          160.85     468        27.37     
582.8      258.7      0          160.84     504        27.45     
583        257.8      0          160.59     504        27.24     
583.2      259.06     0          160.3      432        27.53     
583.4      259.2      0          160.22     504        27.57     
583.6      257.97     0          160.64     540        27.36     
583.8      258.35     0          161.09     468        27.34     
584        259.72     0          161.18     504        27.53     
584.2      260.35     0          161.99     504        27.45     
584.4      262.96     0          162.82     504        27.51     
584.6      269.11     0          165.01     432        27.62     
584.8      290.21     0          165.71     468        27.47     
585        328.56     0          165.69     504        27.55     
585.2      154.05     0          165.49     504        27.75     
585.4      244.64     0          164.94     432        27.62     
585.6      344.81     0          163.97     504        27.74     
585.8      278.08     0          163.69     468        27.77     
586        264.22     0          163.97     504        27.66     
586.2      261.18     0          163.42     504        27.74     
586.4      259.45     0          161.8      504        27.76     
586.6      258.44     0          160.44     432        27.36     
586.8      258.35     0          159.22     504        27.32     
587        258.95     0          158.75     468        27.39     
587.2      257.97     0          158.28     504        27.16     
587.4      258.59     0          157.52     468        27.32     
587.6      259.13     0          156.51     504        27.55     
587.8      257.86     0          157.64     504        27.34     
588        257.79     0          158.46     504        27.28     
588.2      257.72     0          158.35     504        27.26     
588.4      257.6      0          158.98     504        27.2      
588.6      257.23     0          159.11     504        27.1      
588.8      257.83     0          158.5      504        27.22     
589        256.49     0          158.49     504        26.99     
589.2      255.4      0          159.12     504        26.89     
589.4      258.36     0          159.84     504        27.46     
589.6      257.68     0          159.78     468        27.36     
589.8      256.74     0          160        432        27.21     
590        258.33     0          160.85     504        27.53     
590.2      257.9      0          161.2      504        27.42     
590.4      258.22     0          160.92     468        27.44     
590.6      257.4      0          159.5      504        27.33     
590.8      257.41     0          159.02     504        27.37     
591        257.21     0          159.43     504        27.26     
591.2      257.95     0          160.48     468        27.38     
591.4      257.18     0          161.78     504        27.37     
591.6      258.22     0          162.24     468        27.43     
591.8      257.6      0          162.6      504        27.41     
592        257.45     0          162.69     504        27.29     
592.2      257.82     1          162.71     468        27.38     
592.4      257.86     0          162.74     4968       27.38     
592.6      257.92     0          162.78     4968       27.4      
592.8      257.98     0          162.82     4968       27.42     
593        258.05     0          162.86     4968       27.44     
593.2      258.11     0          162.89     4968       27.46     
593.4      258.18     0          162.93     4968       27.48     
593.6      258.24     0          162.97     432        27.5      
593.8      257.18     0          165.55     468        27.3      
594        257.36     0          166.13     504        27.22     
594.2      257.07     0          166.81     504        27.39     
594.4      257.15     0          166.46     504        27.18     
594.6      258.14     0          164.46     504        27.39     
594.8      258.81     0          162.47     504        27.54     
595        257.71     0          161.33     504        27.29     
595.2      257.36     0          160.27     504        27.18     
595.4      258.03     0          159.19     504        27.38     
595.6      257.61     0          158.4      468        27.26     
595.8      257.82     0          158.28     504        27.37     
596        258.33     0          158.42     504        27.46     
596.2      257.49     0          158.52     504        27.29     
596.4      257.94     0          159.05     504        27.4      
596.6      258.19     0          158.77     432        27.36     
596.8      258.47     0          158.16     468        27.44     
597        257.61     0          158.82     468        27.23     
597.2      259.23     0          157.35     504        27.34     
597.4      257.37     0          156.24     504        27.35     
597.6      259.7      0          157.28     504        27.43     
597.8      260.44     0          159.87     468        27.44     
598        266.42     0          163.07     504        27.43     
598.2      281.25     0          163.74     504        27.4      
598.4      326.33     0          163.93     468        27.54     
598.6      194.85     0          163.55     468        27.5      
598.8      166.91     0          162.91     468        27.6      
599        344.75     0          161.85     504        27.62     
599.2      287.02     0          161.72     468        27.53     
599.4      266.22     0          161.13     504        27.6      
