~Version
 VERS              .         2.0                           : CWLS LOG ASCII STANDARD - VERSION 2.0
 WRAP              .         NO                            : ONE LINE PER DEPTH STEP
 DLM               .         SPACE                         : DELIMITING CHARACTER(SPACE TAB OR COMMA)
~Well Information
#_______________________________________________________________________________
#
#PARAMETER_NAME    .UNIT     VALUE                         : DESCRIPTION
#_______________________________________________________________________________
STRT               .M        44                            : First reference value
STOP               .M        2769.2                        : Last reference value
STEP               .M        0.2                           : Step increment
NULL               .         -9999                         : Missing value
COMP               .                                       : Company
WELL               .         616                           : Well name
FLD                .                                       : Field
LOC                .                                       : Location
CNTY               .                                       : County
STAT               .                                       : State
CTRY               .                                       : Country
SRVC               .                                       : Service Company
DATE               .                                       : Date
API                .                                       : API number
PROJECT_UPGRADE_TIME .         2021-03-18T21_24_50           : 
group              .         Good                          : 
~Parameter Information Block
#_______________________________________________________________________________
#
#PARAMETER_NAME    .UNIT     VALUE                         : DESCRIPTION
#_______________________________________________________________________________
SET                .         D1160_D                       : 
OTHER              .         Программное обеспечение станции MONITOR-386EX 25/12/99 15_08_10   BGF V52 22/08/01 16_56_30   3.2_BGF_N_3070031: 
OTHER_10           .         Тарировки_                    : 
OTHER_11           .         TM.GRD = 0.00403*TM$.UE + -1.19: 
OTHER_12           .         MN.ATM = (7.1e-006*TM.GRD + 0.02017)*(MN$.UE + -3.03*TM.GRD + -1833): 
OTHER_13           .         Id error                      : 
OTHER_2            .         Kedr.exe версия 3.4.2.51      : 
OTHER_3            .         KedrData.dll версия 3.4.2.24  : 
OTHER_4            .         Драйвер версия 2.1.1.8        : 
OTHER_5            .         Мнемоники версия 3.3 S        : 
OTHER_6            .         Прибор_ КСА-М1                : 
OTHER_7            .         Номер прибора_ 265            : 
OTHER_8            .         Режим_ КСА-М1                 : 
OTHER_9            .         Форма_ ТЕРМОМЕТР              : 
PROJECT_UPGRADE_TIME .         2021-03-18T21_24_49           : 
TLFamily_DEPT      .         Measured Depth                : 
TLFamily_GK        .         Gamma Ray                     : 
TLFamily_GK$       .                                       : 
TLFamily_LM        .         Casing Collar locator         : 
TLFamily_METKA     .                                       : 
TLFamily_MN        .                                       : 
TLFamily_MN$       .                                       : 
TLFamily_RCOR      .                                       : 
TLFamily_SPID      .         Spontaneous Potential         : 
TLFamily_STD       .                                       : 
TLFamily_TENS      .         Cable Tension                 : 
TLFamily_TIME      .         Time                          : 
TLFamily_TM        .         Temperature                   : 
TLFamily_TM$       .         Temperature                   : 
TLFamily_VGD       .         Gas Volume                    : 
group              .         prim                          : 
~Curve Information
#_______________________________________________________________________________
#
#LOGNAME           .UNIT     LOG_ID                        : DESCRIPTION
#_______________________________________________________________________________
DEPT               .M                                      : 1 Глубина, м -    0.0 см 
GK                 .MKR/H                                  : 15 Гамма-активность, мкр./ч -  110.0 см 
GK$                .UE                                     : 12 Гамма-активность, усл.ед. -  110.0 см 
LM                 .                                       : 10 Локатор муфт,  -   20.0 см 
METKA              .                                       : 3 Метки,  -    0.0 см 
MN                 .ATM                                    : 14 Давление, атм. -  160.0 см 
MN$                .UE                                     : 8 Давление, усл.ед. -  160.0 см 
RCOR               .CM/KM                                  : 5 Коррекция по ролику, см/км -    0.0 см 
SPID               .M/H                                    : 2 Скорость, м/час -    0.0 см 
STD                .                                       : 11 Приток,  -  170.0 см 
TENS               .T                                      : 6 Натяжение кабеля, т -    0.0 см 
TIME               .S                                      : 4 Время, сек -    0.0 см 
TM                 .GRD                                    : 13 Температура, °C -  180.0 см 
TM$                .UE                                     : 7 Температура, усл.ед. -  180.0 см 
VGD                .                                       : 9 Влагомер,  -  170.0 см 
~Ascii
# ...
406.6      4.08       175        91         0          35.275     3613       -1400      1966       990        0          11151.74   12.669     3439       6469      
406.8      4.08       175        87         0          35.296     3614       -1400      1964       990        0          11152.11   12.675     3441       6470      
407        4.17       186        88         0          35.315     3615       -1400      1966       994        0          11152.48   12.679     3442       6469      
407.2      4.23       186        87         0          35.334     3615       -1400      1964       996        0          11152.84   12.685     3443       6469      
407.4      4.27       186        67         0          35.354     3616       -1400      1963       997        0          11153.2    12.691     3444       6468      
407.6      4.3        186        65         0          35.375     3618       -1400      1964       1000       0          11153.57   12.695     3445       6470      
407.8      4.32       186        70         0          35.394     3618       -1400      1969       1001       0          11153.94   12.701     3447       6468      
408        4.33       186        71         0          35.413     3619       -1400      1977       1003       0          11154.32   12.707     3448       6468      
408.2      4.42       196        81         0          35.434     3620       -1400      1979       1007       0          11154.67   12.711     3449       6471      
408.4      4.48       197        82         0          35.454     3621       -1400      1975       1006       0          11155.02   12.717     3451       6468      
408.6      4.52       197        67         0          35.473     3622       -1400      1976       1011       0          11155.41   12.723     3452       6468      
408.8      4.55       197        79         1          35.484     3623       -1400      1974       1013       0          11155.79   12.729     3454       6468      
409        4.57       197        84         0          35.492     3623       -1400      1971       1012       0          11156.14   12.735     3455       6468      
409.2      4.58       197        76         0          35.512     3624       -1400      1972       1017       0          11156.5    12.739     3456       6469      
409.4      4.59       197        76         0          35.533     3625       -1400      1970       1018       0          11156.87   12.745     3458       6468      
409.6      4.71       211        83         0          35.553     3626       -1400      1968       1019       0          11157.24   12.751     3459       6468      
409.8      4.81       213        68         0          35.572     3627       -1400      1969       1024       0          11157.61   12.757     3461       6467      
410        4.87       213        74         0          35.591     3628       -1400      1970       1024       0          11157.96   12.765     3463       6470      
410.2      4.9        213        72         2          35.612     3629       -1400      1971       1028       0          11158.32   12.771     3464       6468      
410.4      4.93       213        97         0          35.633     3630       -1400      1972       1030       0          11158.69   12.776     3465       6469      
410.6      4.95       213        106        0          35.652     3631       -1400      1973       1030       0          11159.06   12.782     3467       6468      
410.8      4.96       213        102        0          35.671     3632       -1400      1971       1034       0          11159.43   12.788     3468       6468      
411        4.94       209        98         0          35.684     3633       -1400      1966       1036       0          11159.78   12.793     3470       6468      
411.2      4.92       209        89         0          35.692     3633       -1400      1966       1037       0          11160.15   12.8       3471       6469      
411.4      4.91       209        85         0          35.712     3634       -1400      1968       1042       0          11160.51   12.804     3472       6469      
411.6      4.9        209        104        0          35.731     3635       -1400      1957       1042       0          11160.9    12.809     3474       6470      
411.8      4.9        209        104        0          35.751     3636       -1400      1954       1045       0          11161.25   12.816     3475       6470      
412        4.9        209        95         0          35.771     3637       -1400      1961       1049       0          11161.6    12.821     3477       6470      
412.2      4.89       209        92         0          35.791     3638       -1400      1963       1050       0          11162      12.828     3478       6473      
412.4      4.96       217        101        0          35.811     3639       -1400      1963       1053       0          11162.36   12.832     3479       6471      
412.6      5.01       219        3354       0          35.83      3640       -1400      1960       1055       0          11162.72   12.837     3481       6471      
412.8      5.05       219        2367       0          35.85      3641       -1400      1962       1056       0          11163.07   12.844     3482       6472      
413        5.07       219        1575       0          35.87      3642       -1400      1963       1060       0          11163.45   12.849     3484       6470      
413.2      5.09       219        1053       0          35.89      3643       -1400      1960       1062       0          11163.82   12.856     3485       6473      
413.4      5.1        219        697        0          35.91      3644       -1400      1962       1063       0          11164.19   12.861     3487       6471      
413.6      5.11       219        474        0          35.929     3645       -1400      1962       1067       0          11164.55   12.868     3488       6471      
413.8      5.13       221        321        0          35.95      3646       -1400      1959       1068       0          11164.91   12.873     3490       6471      
414        5.15       222        229        0          35.97      3647       -1400      1961       1072       0          11165.28   12.88      3491       6470      
414.2      5.17       222        180        0          35.989     3648       -1400      1962       1075       0          11165.65   12.885     3493       6470      
414.4      5.18       222        139        0          36.008     3649       -1400      1961       1078       0          11166.03   12.892     3494       6472      
414.6      5.18       222        136        0          36.028     3650       -1400      1969       1079       0          11166.37   12.897     3496       6471      
414.8      5.19       222        127        0          36.049     3651       -1400      1975       1083       0          11166.73   12.904     3497       6470      
415        5          198        95         0          36.069     3652       -1400      1969       1086       0          11167.12   12.908     3498       6474      
415.2      4.81       190        96         0          36.088     3653       -1400      1966       1087       0          11167.48   12.912     3499       6472      
415.4      4.68       190        87         0          36.108     3654       -1400      1966       1091       0          11167.81   12.916     3500       6470      
415.6      4.6        190        87         0          36.128     3655       -1400      1961       1094       0          11168.19   12.921     3502       6471      
415.8      4.55       190        92         0          36.149     3656       -1400      1958       1095       0          11168.57   12.928     3503       6471      
416        4.51       190        93         0          36.169     3657       -1400      1959       1099       0          11168.93   12.932     3504       6471      
416.2      4.49       190        78         0          36.183     3658       -1400      1955       1100       0          11169.3    12.937     3506       6472      
