~Version
 VERS              .         2.0                           : CWLS LOG ASCII STANDARD - VERSION 2.0
 WRAP              .         NO                            : ONE LINE PER DEPTH STEP
 DLM               .         SPACE                         : DELIMITING CHARACTER(SPACE TAB OR COMMA)
~Well Information
#_______________________________________________________________________________
#
#PARAMETER_NAME    .UNIT     VALUE                         : DESCRIPTION
#_______________________________________________________________________________
STRT               .M        139                           : First reference value
STOP               .M        251.8                         : Last reference value
STEP               .M        0.2                           : Step increment
NULL               .         -9999                         : Missing value
COMP               .                                       : Company
WELL               .         616                           : Well name
FLD                .                                       : Field
LOC                .                                       : Location
CNTY               .                                       : County
STAT               .                                       : State
CTRY               .                                       : Country
SRVC               .                                       : Service Company
DATE               .                                       : Date
API                .                                       : API number
PROJECT_UPGRADE_TIME .         2021-03-18T21_24_50           : 
group              .         Good                          : 
~Parameter Information Block
#_______________________________________________________________________________
#
#PARAMETER_NAME    .UNIT     VALUE                         : DESCRIPTION
#_______________________________________________________________________________
SET                .         616_1                         : 
CONF               .         00                            : 
END                .         0                             : 
ERR                .         0                             : 
GS00               .M        0249.70                       : 
GS01               .M        0136.66                       : 
MM00               .M        0050.00                       : 
NOKG               .         0                             : 
NPR                .         980119                        : 
PART               .         Палагутин                     : 
PROJECT_UPGRADE_TIME .         2021-03-18T21_24_49           : 
PRZK               .         Шакиров                       : 
TLFamily_AZIMUTH   .         True Dip Azimuth              : 
TLFamily_DEPTH     .         Measured Depth                : 
TLFamily_METKA     .                                       : 
TLFamily_ROLL      .                                       : 
TLFamily_SPEED     .         Spontaneous Potential         : 
TLFamily_ZENIT     .                                       : 
VPRG               .         310                           : 
WAY                .         UP                            : 
group              .         prim                          : 
~Curve Information
#_______________________________________________________________________________
#
#LOGNAME           .UNIT     LOG_ID                        : DESCRIPTION
#_______________________________________________________________________________
DEPTH              .M                                      :  
AZIMUTH            .DEG                                    :  
METKA              .                                       :  
ROLL               .DEG                                    :  
SPEED              .M/H                                    :  
ZENIT              .DEG                                    :  
~Ascii
139.0      247.04     0          235.68     648        10.41     
139.2      246.21     0          235.53     612        10.46     
139.4      246.95     0          235.27     648        10.59     
139.6      247.24     0          234.87     576        10.64     
139.8      247.33     0          234.35     648        10.65     
140        246.98     0          234.14     648        10.7      
140.2      247.43     0          233.12     648        10.64     
140.4      246        0          232.11     612        10.58     
140.6      246.21     0          231.6      648        10.55     
140.8      246.67     0          231.27     612        10.63     
141        247.18     0          231.36     648        10.68     
141.2      247.44     0          231.65     648        10.73     
141.4      247.4      0          231.88     648        10.77     
141.6      246.87     0          231.8      648        10.8      
141.8      247.65     0          232.32     576        10.88     
142        246.63     1          232.61     648        10.8      
142.2      247.05     0          232.32     612        10.79     
142.4      247.25     0          232.87     648        10.85     
142.6      247.23     0          233.89     612        10.91     
142.8      246.63     0          233.95     648        10.89     
143        246.99     0          234        612        10.94     
143.2      246.22     0          234        612        10.88     
143.4      247.46     0          233.83     648        10.95     
143.6      246.06     0          233.88     648        10.99     
143.8      247.14     0          234.44     648        11.04     
144        248.46     0          234.86     612        11.14     
144.2      248.26     0          234.81     648        11.25     
144.4      248.03     0          234.84     612        11.33     
144.6      248.76     0          234.44     648        11.43     
144.8      247.76     0          233.76     612        11.34     
145        248.59     0          233.64     684        11.32     
145.2      249.76     0          234.28     576        11.34     
145.4      251.61     0          234.42     612        11.33     
145.6      258.77     0          233.56     648        11.33     
145.8      300.21     0          233.37     648        11.44     
146        165.03     0          233.23     648        11.53     
146.2      177.52     0          232.83     576        11.64     
146.4      215.23     0          232.56     648        11.69     
146.6      232.85     0          232.12     648        11.75     
146.8      251.69     0          231.63     648        11.82     
147        248.86     0          231.09     648        11.77     
147.2      247.9      0          231.08     648        11.73     
147.4      247.04     0          231.49     612        11.55     
147.6      247.6      0          231.98     648        11.66     
147.8      247.13     0          231.69     684        11.57     
148        247.55     0          231.37     648        11.58     
148.2      247.12     0          231.43     612        11.52     
148.4      247.4      0          231.32     612        11.6      
148.6      246.66     0          230.51     612        11.6      
148.8      246.83     0          229.98     648        11.65     
149        247.74     0          229.67     648        11.67     
149.2      247.55     0          229.18     648        11.68     
149.4      247.54     0          229.56     648        11.73     
149.6      247.88     0          230.16     576        11.8      
149.8      247.57     0          230.56     648        11.8      
150        249.13     0          230.78     648        11.94     
150.2      248.19     0          230.22     612        12.06     
150.4      247.58     0          229.89     612        11.93     
150.6      247.48     0          229.34     612        11.88     
150.8      247.75     0          228.64     648        11.89     
151        247.92     0          228.48     648        11.98     
151.2      247.99     0          228.75     648        12.09     
151.4      247.57     0          228.97     612        12.15     
151.6      248.8      0          228.57     648        12.2      
151.8      248.13     0          227.83     684        12.2      
152        247.35     1          227.97     612        12.3      
152.2      247.86     0          228.18     648        12.28     
152.4      248.2      0          228.24     612        12.27     
152.6      247.81     0          228.19     648        12.27     
152.8      247.92     0          228.2      612        12.32     
153        246.82     0          227.68     648        12.23     
153.2      247.84     0          227.41     648        12.32     
153.4      248.16     0          228.05     648        12.31     
153.6      248.27     0          228.07     648        12.37     
153.8      248.08     0          228.52     648        12.46     
154        247.62     0          228.55     612        12.49     
154.2      247.92     0          227.93     612        12.49     
154.4      247.28     0          227.61     648        12.59     
154.6      248.2      0          227.69     648        12.54     
154.8      248.29     0          228.01     684        12.58     
155        247.34     0          227.8      612        12.6      
155.2      246.89     0          227.2      576        12.58     
155.4      247.81     0          227.1      648        12.51     
155.6      247.67     0          227.4      612        12.55     
155.8      247.58     0          227.4      648        12.52     
156        248.35     0          226.91     648        12.57     
156.2      247.77     0          226.73     612        12.73     
156.4      248.8      0          226.36     612        12.75     
156.6      247.67     0          226.18     684        12.71     
156.8      248        0          225.9      648        12.72     
157        248.9      0          225.37     648        12.87     
157.2      249.39     0          224.93     612        12.88     
157.4      248.49     0          223.55     612        12.81     
157.6      251.41     0          223.86     648        12.84     
157.8      254.21     0          225.45     612        12.98     
158        275.8      0          225.23     648        12.96     
158.2      268.04     0          224.86     612        13.08     
158.4      243.07     0          224.87     648        13.02     
158.6      70.59      0          224.83     612        13.1      
158.8      232.26     0          224.05     648        13.12     
159        252.47     0          223.39     648        13.22     
159.2      248.67     0          222.98     648        13.23     
159.4      247.31     0          222.21     648        13.14     
159.6      247.71     0          222.33     612        13.07     
159.8      247.58     0          222.92     648        13.02     
160        247.62     0          223.51     612        13.02     
160.2      247.62     0          224.14     612        12.96     
160.4      248.13     0          224.38     648        12.96     
160.6      248.56     0          224.19     612        13.05     
160.8      248        0          223.69     648        13.1      
161        247.86     0          223.35     612        13.07     
161.2      247.51     0          223.1      648        13.07     
161.4      247.5      0          222.7      612        13.04     
161.6      247.71     0          222.1      648        13.01     
161.8      247.56     0          222.41     612        13.12     
162        248.54     1          222.82     612        13.18     
162.2      248.24     0          222.34     612        13.23     
162.4      247.4      0          221.41     648        13.39     
162.6      248.08     0          221.55     648        13.48     
162.8      248.7      0          221.64     648        13.54     
163        248.36     0          220.69     612        13.58     
163.2      248.07     0          220.1      612        13.58     
