~Version
 VERS              .         2.0                           : CWLS LOG ASCII STANDARD - VERSION 2.0
 WRAP              .         NO                            : ONE LINE PER DEPTH STEP
 DLM               .         SPACE                         : DELIMITING CHARACTER(SPACE TAB OR COMMA)
~Well Information
#_______________________________________________________________________________
#
#PARAMETER_NAME    .UNIT     VALUE                         : DESCRIPTION
#_______________________________________________________________________________
STRT               .M        0.2                           : First reference value
STOP               .M        2774.2                        : Last reference value
STEP               .M        0.2                           : Step increment
NULL               .         -9999                         : Missing value
COMP               .                                       : Company
WELL               .         616                           : Well name
FLD                .                                       : Field
LOC                .                                       : Location
CNTY               .                                       : County
STAT               .                                       : State
CTRY               .                                       : Country
SRVC               .                                       : Service Company
DATE               .                                       : Date
API                .                                       : API number
PROJECT_UPGRADE_TIME .         2021-03-18T21_24_50           : 
group              .         Good                          : 
~Parameter Information Block
#_______________________________________________________________________________
#
#PARAMETER_NAME    .UNIT     VALUE                         : DESCRIPTION
#_______________________________________________________________________________
SET                .         D1799_D_2                     : 
NPR                .                                       : 
OTHER              .         Программное обеспечение станции MONITOR-386EX 25/12/99 15_08_10   BGF V52 22/08/01 16_56_30   3.1_SNGF___BGF_N_092049: 
OTHER_10           .         Тарировки_                    : 
OTHER_11           .         TM.GRD = 0.00403*TM$.UE + -1.07: 
OTHER_12           .         MN.ATM = (9.34907e-006*TM.GRD + 0.02171)*(MN$.UE + -7.93*TM.GRD + -1787): 
OTHER_13           .         GK.MKR/H = LM. / 42.4676      : 
OTHER_14           .         GK.FLT = 0.1*GK.MKR/H[-1] + (1-0.1)*GK.MKR/H[0]: 
OTHER_2            .         Kedr.exe версия 3.4.2.51      : 
OTHER_3            .         KedrData.dll версия 3.4.2.24  : 
OTHER_4            .         Драйвер версия 2.1.1.3        : 
OTHER_5            .         Мнемоники версия 3.3 S        : 
OTHER_6            .         Прибор_ КСА-Т4                : 
OTHER_7            .         Номер прибора_ 03             : 
OTHER_8            .         Режим_ КСА-Т4                 : 
OTHER_9            .         Форма_ КВА.                   : 
PR                 .                                       : 
PROJECT_UPGRADE_TIME .         2021-03-18T21_24_49           : 
PRTY               .         ПП-603-1                      : N партии
SRV                .                                       : 
SRVC               .         Карпов                        : Начальник партии
TLFamily_DEPT      .         Measured Depth                : 
TLFamily_LM        .         Casing Collar locator         : 
TLFamily_MN        .                                       : 
TLFamily_TM        .         Temperature                   : 
group              .         second                        : 
~Curve Information
#_______________________________________________________________________________
#
#LOGNAME           .UNIT     LOG_ID                        : DESCRIPTION
#_______________________________________________________________________________
DEPT               .M                                      : Depth curve 
LM                 .е.ацп                                  : Локатор муфт,е.ацп 
MN                 .атм                                    : Манометрия, атм 
TM                 .град.C                                 : Термограмма по стволу скважины,град.C 
~Ascii
# ...
1456.2     728.991    129.142    47.44     
1456.4     647        129.163    47.444    
1456.6     646.998    129.172    47.447    
1456.8     625.004    129.184    47.448    
1457       659.003    129.193    47.455    
1457.2     685.005    129.205    47.455    
1457.4     733.997    129.237    47.455    
1457.6     708.992    129.259    47.459    
1457.8     634        129.27     47.463    
1458       632.004    129.28     47.463    
1458.2     665.996    129.3      47.467    
1458.4     632.999    129.324    47.471    
1458.6     620        129.334    47.471    
1458.8     620.997    129.354    47.479    
1459       592.004    129.367    47.479    
1459.2     631.997    129.375    47.479    
1459.4     607.998    129.396    47.483    
1459.6     588.998    129.41     47.49     
1459.8     571.002    129.417    47.492    
1460       591.993    129.44     47.495    
1460.2     525.001    129.464    47.5      
1460.4     538.006    129.485    47.503    
1460.6     591.005    129.507    47.507    
1460.8     635.008    129.518    47.511    
1461       712.997    129.526    47.515    
1461.2     680.996    129.548    47.519    
1461.4     647.002    129.569    47.523    
1461.6     665.008    129.583    47.527    
1461.8     741.001    129.589    47.531    
1462       750.999    129.61     47.535    
1462.2     740.01     129.631    47.539    
1462.4     831.99     129.653    47.543    
1462.6     737.008    129.674    47.547    
1462.8     809.015    129.691    47.551    
1463       946.998    129.694    47.552    
1463.2     931.005    129.717    47.555    
1463.4     973.104    129.741    47.562    
1463.6     1931.034   129.778    47.566    
1463.8     2246.026   129.778    47.568    
1464       2484.922   129.779    47.57     
1464.2     1771.945   129.798    47.576    
1464.4     1267.972   129.842    47.582    
1464.6     1008.342   129.842    47.586    
1464.8     4138.401   129.862    47.59     
1465       7810.693   129.863    47.594    
1465.2     4993.808   129.883    47.6      
1465.4     3230.881   129.903    47.606    
1465.6     2144.928   129.924    47.61     
1465.8     1486.972   129.945    47.614    
1466       1229.97    129.949    47.616    
1466.2     951.987    129.964    47.619    
1466.4     833        129.985    47.625    
1466.6     833.047    130.008    47.629    
1466.8     1263.979   130.028    47.633    
1467       1067.974   130.035    47.637    
1467.2     825.998    130.047    47.641    
1467.4     811.992    130.068    47.645    
1467.6     738.989    130.091    47.649    
1467.8     640.999    130.111    47.653    
1468       635.002    130.121    47.657    
1468.2     656.013    130.13     47.661    
1468.4     778.03     130.151    47.668    
1468.6     1051.981   130.173    47.673    
1468.8     880.989    130.194    47.681    
1469       781.004    130.207    47.681    
1469.2     821.993    130.215    47.684    
1469.4     754.004    130.236    47.689    
1469.6     785.999    130.257    47.692    
1469.8     774.005    130.278    47.696    
1470       818.026    130.3      47.697    
1470.2     1059.009   130.315    47.701    
1470.4     1142.999   130.322    47.705    
1470.6     1135.986   130.344    47.709    
1470.8     1003.99    130.358    47.716    
1471       911.98     130.363    47.717    
1471.2     732.993    130.386    47.724    
1471.4     665.001    130.407    47.725    
1471.6     675.213    130.427    47.728    
1471.8     2622.02    130.444    47.732    
1472       2807.971   130.452    47.736    
1472.2     2539.983   130.477    47.743    
1472.4     2386.944   130.434    47.748    
1472.6     1880.968   130.511    47.752    
1472.8     1591.962   130.531    47.756    
1473       1242.993   130.554    47.76     
1473.2     1181.013   130.576    47.762    
1473.4     1298.025   130.596    47.764    
1473.6     1523.007   130.595    47.768    
1473.8     1587.978   130.616    47.77     
1474       1390.004   130.637    47.773    
1474.2     1428.971   130.66     47.778    
1474.4     1160.997   130.66     47.779    
1474.6     1133.992   130.678    47.784    
1474.8     1062.008   130.701    47.791    
1475       1131.056   130.703    47.795    
1475.2     1638.008   130.72     47.798    
1475.4     1713.02    130.724    47.799    
1475.6     1893.704   130.74     47.803    
1475.8     8300.684   130.779    47.807    
1476       5427       130.804    47.811    
1476.2     5426.828   130.811    47.815    
1476.4     3863.858   130.811    47.818    
1476.6     2576.913   130.836    47.822    
1476.8     1789.986   130.867    47.827    
1477       1661.99    130.887    47.834    
1477.2     1570.979   130.897    47.838    
1477.4     1382.975   130.907    47.842    
1477.6     1152.988   130.928    47.846    
1477.8     1047.007   130.948    47.854    
1478       1110.006   130.961    47.858    
1478.2     1168.028   130.969    47.862    
1478.4     1423.987   130.991    47.862    
1478.6     1302.004   131.011    47.866    
1478.8     1334.987   131.033    47.87     
1479       1213.993   131.048    47.874    
1479.2     1153.006   131.052    47.874    
1479.4     1210.983   131.074    47.877    
1479.6     1052.987   131.094    47.881    
1479.8     937.02     131.117    47.882    
1480       1122.001   131.135    47.885    
1480.2     1131.987   131.141    47.89     
1480.4     1011.993   131.168    47.894    
1480.6     945.023    131.199    47.9      
1480.8     1154.982   131.204    47.905    
1481       990.024    131.221    47.907    
1481.2     1211.029   131.224    47.909    
1481.4     1471.979   131.245    47.916    
1481.6     1278.985   131.266    47.921    
1481.8     1145.01    131.286    47.925    
1482       1238.976   131.307    47.927    
1482.2     1022.994   131.307    47.929    
1482.4     968.014    131.328    47.933    
1482.6     1098.995   131.349    47.937    
1482.8     1057.017   131.371    47.939    
1483       1210.994   131.393    47.942    
1483.2     1152.982   131.393    47.948    
1483.4     987.004    131.411    47.951    
1483.6     1020.003   131.432    47.953    
1483.8     1044.995   131.453    47.96     
1484       1001.016   131.475    47.963    
1484.2     1150.013   131.48     47.965    
1484.4     1272       131.494    47.972    
1484.6     1271.991   131.516    47.976    
1484.8     1194.992   131.536    47.98     
1485       1127       131.544    47.984    
1485.2     1129.078   131.557    47.988    
1485.4     1833.041   131.578    47.992    
1485.6     2200.002   131.599    47.995    
1485.8     2213.96    131.62     47.999    
1486       1850.983   131.64     48.003    
1486.2     1699.066   131.662    48.011    
1486.4     2296.942   131.683    48.011    
1486.6     1770.375   131.704    48.019    
1486.8     5153.101   131.717    48.019    
1487       6066.755   131.725    48.023    
1487.2     3858.866   131.745    48.027    
1487.4     2653.91    131.76     48.031    
1487.6     1843.948   131.765    48.035    
1487.8     1376.968   131.787    48.036    
1488       1084.995   131.809    48.039    
1488.2     1037.984   131.825    48.042    
1488.4     895.002    131.829    48.046    
1488.6     914.986    131.848    48.05     
1488.8     787.133    131.87     48.057    
1489       1982.958   131.889    48.062    
1489.2     1599.964   131.911    48.066    
1489.4     1276.989   131.911    48.07     
1489.6     1180.985   131.931    48.076    
1489.8     1049.987   131.953    48.08     
1490       932.984    131.975    48.084    
1490.2     786.99     131.997    48.09     
1490.4     697.013    131.998    48.092    
1490.6     817.996    132.017    48.094    
1490.8     783.994    132.04     48.098    
1491       728.001    132.062    48.1      
1491.2     739.999    132.082    48.102    
1491.4     727.003    132.083    48.106    
1491.6     751.007    132.103    48.11     
1491.8     814.992    132.123    48.115    
1492       745.019    132.126    48.12     
1492.2     915.991    132.145    48.122    
1492.4     835.993    132.167    48.124    
