~Version
 VERS              .         2.0                           : CWLS LOG ASCII STANDARD - VERSION 2.0
 WRAP              .         NO                            : ONE LINE PER DEPTH STEP
 DLM               .         SPACE                         : DELIMITING CHARACTER(SPACE TAB OR COMMA)
~Well Information
#_______________________________________________________________________________
#
#PARAMETER_NAME    .UNIT     VALUE                         : DESCRIPTION
#_______________________________________________________________________________
STRT               .M        2669.6                        : First reference value
STOP               .M        2776.19984                    : Last reference value
STEP               .M        0.1999997                     : Step increment
NULL               .         -9999                         : Missing value
COMP               .                                       : Company
WELL               .         616                           : Well name
FLD                .                                       : Field
LOC                .                                       : Location
CNTY               .                                       : County
STAT               .                                       : State
CTRY               .                                       : Country
SRVC               .                                       : Service Company
DATE               .                                       : Date
API                .                                       : API number
PROJECT_UPGRADE_TIME .         2021-03-18T21_24_50           : 
group              .         Good                          : 
~Parameter Information Block
#_______________________________________________________________________________
#
#PARAMETER_NAME    .UNIT     VALUE                         : DESCRIPTION
#_______________________________________________________________________________
SET                .         D1805_D                       : 
OTHER              .         Программное обеспечение станции MONITOR-386EX 25/12/99 15_08_10   BGF V52 22/08/01 16_56_30   3.1_SNGF___BGF_N_092049: 
OTHER_10           .         Тарировки_                    : 
OTHER_11           .         TM.GRD = 0.00403*TM$.UE + -1.07: 
OTHER_12           .         MN.ATM = (9.34907e-006*TM.GRD + 0.02171)*(MN$.UE + -7.93*TM.GRD + -1787): 
OTHER_13           .         GK.MKR/H = LM. / 42.4676      : 
OTHER_14           .         GK.FLT = 0.1*GK.MKR/H[-1] + (1-0.1)*GK.MKR/H[0]: 
OTHER_2            .         Kedr.exe версия 3.4.2.51      : 
OTHER_3            .         KedrData.dll версия 3.4.2.24  : 
OTHER_4            .         Драйвер версия 2.1.1.3        : 
OTHER_5            .         Мнемоники версия 3.3 S        : 
OTHER_6            .         Прибор_ КСА-Т4                : 
OTHER_7            .         Номер прибора_ 03             : 
OTHER_8            .         Режим_ КСА-Т4                 : 
OTHER_9            .         Форма_ КВА.                   : 
PROJECT_UPGRADE_TIME .         2021-03-18T21_24_49           : 
TLFamily_DEPT      .         Measured Depth                : 
TLFamily_GK        .         Gamma Ray                     : 
TLFamily_GK$       .                                       : 
TLFamily_GK_2      .         Gamma Ray                     : 
TLFamily_LM        .         Casing Collar locator         : 
TLFamily_METKA     .                                       : 
TLFamily_MN        .                                       : 
TLFamily_MN$       .                                       : 
TLFamily_RCOR      .                                       : 
TLFamily_SPID      .         Spontaneous Potential         : 
TLFamily_TENS      .         Cable Tension                 : 
TLFamily_TIME      .         Time                          : 
TLFamily_TM        .         Temperature                   : 
TLFamily_TM$       .         Temperature                   : 
group              .         prim                          : 
~Curve Information
#_______________________________________________________________________________
#
#LOGNAME           .UNIT     LOG_ID                        : DESCRIPTION
#_______________________________________________________________________________
DEPT               .M                                      : 1 Глубина, м -    0.0 см 
GK                 .MKR/H                                  : 13 Гамма-активность, мкр./ч -  110.0 см 
GK$                .UE                                     : 10 Гамма-активность, усл.ед. -  110.0 см 
GK_2               .FLT                                    : 14 Гамма-активность фильтрованная, мкр./ч -  110.0 см 
LM                 .                                       : 9 Локатор муфт,  -   20.0 см 
METKA              .                                       : 3 Метки,  -    0.0 см 
MN                 .ATM                                    : 12 Давление, атм. -  160.0 см 
MN$                .UE                                     : 8 Давление, усл.ед. -  160.0 см 
RCOR               .CM/KM                                  : 5 Коррекция по ролику, см/км -    0.0 см 
SPID               .M/H                                    : 2 Скорость, м/час -    0.0 см 
TENS               .T                                      : 6 Натяжение кабеля, т -    0.0 см 
TIME               .S                                      : 4 Время, сек -    0.0 см 
TM                 .GRD                                    : 11 Температура, °C -  170.0 см 
TM$                .UE                                     : 7 Температура, усл.ед. -  170.0 см 
~Ascii
# ...
2679.999984 6.81       289        6.8        202        2          325.475    16870      -623       550        0.03       3294.03    55.979     14156     
2680.199984 7.44       316        7.4        180        0          323.948    16801      -630       562        0.01       3295.74    55.983     14157     
2680.399984 7.44       316        7.44       202        0          325.543    16873      -630       546        0.03       3297.18    55.979     14156     
2680.599983 7.86       334        7.84       221        0          324.845    16842      -630       544        0.03       3298.44    55.979     14156     
2680.799983 7.86       334        7.86       205        0          325.608    16876      -630       538        0.02       3299.77    55.979     14156     
2680.999983 7.84       333        7.84       217        0          325.855    16887      -630       541        0.03       3301.09    55.978     14156     
2681.199983 7.98       339        7.94       251        0          324.426    16823      -630       548        0.01       3302.35    55.979     14156     
2681.399982 7.98       339        7.98       300        0          326.645    16923      -630       539        0.01       3303.67    55.978     14156     
2681.599982 8.52       362        8.39       1356       0          324.875    16843      -630       548        0.03       3305       55.975     14155     
2681.799982 8.52       362        8.52       549        0          325.254    16860      -630       548        0.01       3306.33    55.979     14156     
2681.999981 8.41       357        8.42       227        0          324.997    16848      -630       546        0.03       3307.71    55.979     14156     
2682.199981 8.41       357        8.41       225        0          326.314    16908      -630       549        0.03       3308.97    55.975     14155     
2682.399981 8.43       358        8.43       221        0          325.44     16868      -630       553        0.03       3310.3     55.971     14154     
2682.599981 8.43       358        8.43       211        0          325.395    16866      -630       543        0.03       3311.63    55.975     14155     
2682.79998 9          382        8.97       175        0          325.844    16887      -630       551        0.03       3312.9     55.971     14154     
2682.99998 9          382        8.99       211        0          324.985    16848      -630       544        0.03       3314.2     55.971     14154     
2683.19998 9.09       386        9.09       161        0          326.094    16898      -630       543        0.02       3315.52    55.968     14153     
2683.399979 9.09       386        9.09       211        0          326.121    16899      -630       542        0.03       3316.85    55.967     14153     
2683.599979 9.44       401        9.43       207        0          325.599    16875      -630       536        0.03       3318.24    55.967     14153     
2683.799979 9.91       421        9.74       165        0          327.053    16941      -630       543        0.03       3319.56    55.965     14153     
2683.999978 10.15      431        10.14      211        0          324.864    16842      -630       548        0.03       3320.81    55.963     14152     
2684.199978 10.01      425        10.06      214        0          325.3      16862      -630       552        0.01       3322.14    55.962     14152     
2684.399978 9.94       422        9.94       180        0          326.423    16913      -630       546        0.03       3323.47    55.963     14152     
2684.599978 9.58       407        9.66       166        0          326.08     16897      -630       553        0.03       3324.77    55.963     14152     
2684.799977 9.58       407        9.59       215        0          326.808    16930      -630       542        0.01       3326.06    55.963     14152     
2684.999977 9.58       407        9.58       185        0          324.886    16843      -630       549        0.03       3327.42    55.963     14152     
2685.199977 9.58       407        9.58       210        0          325.926    16890      -630       546        0.02       3328.75    55.959     14151     
2685.399976 9.4        399        9.44       242        0          326.475    16915      -630       544        0.03       3330.03    55.954     14150     
2685.599976 9.4        399        9.4        221        0          326.1      16898      -630       546        0.02       3331.41    55.954     14150     
2685.799976 9.44       401        9.44       216        0          325.83     16886      -630       547        0.02       3332.66    55.954     14150     
2685.999975 9.44       401        9.44       201        0          325.352    16864      -630       544        0.03       3334.05    55.954     14150     
2686.199975 9.02       383        9.05       158        0          325.961    16892      -630       543        0.03       3335.31    55.954     14150     
2686.399975 9.02       383        9.02       187        0          326.398    16911      -630       542        0.03       3336.63    55.954     14150     
2686.599974 9.32       396        9.3        194        0          326.567    16919      -630       543        0.02       3337.95    55.954     14150     
2686.799974 9.33       396        9.33       170        0          326.279    16906      -630       541        0.03       3339.29    55.95      14149     
2686.999974 10.34      439        10.3       213        0          325.459    16869      -630       535        0.03       3340.66    55.95      14149     
2687.199974 10.34      439        10.34      216        0          326.334    16909      -630       546        0.03       3341.92    55.95      14149     
2687.399973 10.46      444        10.45      197        0          326.005    16894      -630       552        0.02       3343.25    55.95      14149     
2687.599973 10.27      436        10.34      210        0          326.352    16909      -630       542        0.03       3344.57    55.948     14148     
2687.799973 10.27      436        10.27      182        0          326.968    16937      -630       549        0.03       3345.89    55.946     14148     
2687.999972 10.46      444        10.39      168        0          326.645    16923      -630       545        0.03       3347.22    55.946     14148     
2688.199972 10.46      444        10.45      178        0          326.735    16927      -630       549        0.03       3348.51    55.946     14148     
2688.399972 10.2       433        10.29      182        0          325.656    16878      -630       547        0.03       3349.86    55.946     14148     
2688.599971 10.15      431        10.15      164        0          326.941    16936      -630       552        0.03       3351.19    55.942     14147     
2688.799971 10.01      425        10.03      214        0          326.939    16936      -630       554        0.03       3352.5     55.942     14147     
2688.999971 10.01      425        10.01      193        0          326.604    16921      -630       557        0.03       3353.83    55.942     14147     
2689.199971 10.86      461        10.71      190        0          327.425    16958      -630       545        0.03       3355.09    55.944     14147     
2689.39997 10.86      461        10.85      212        0          325.127    16854      -630       552        0.04       3356.48    55.942     14147     
2689.59997 10.6       450        10.61      218        0          326.827    16931      -630       546        0.01       3357.74    55.942     14147     
2689.79997 10.6       450        10.6       190        0          326.846    16932      -630       546        0.03       3359.1     55.942     14147     
2689.999969 10.17      432        10.19      160        2          326.487    16915      -630       548        0.03       3360.44    55.938     14146     
2690.199969 10.17      432        10.17      204        0          326.772    16928      -636       551        0          3362.14    55.934     14145     
