~Version
 VERS              .         2.0                           : CWLS LOG ASCII STANDARD - VERSION 2.0
 WRAP              .         NO                            : ONE LINE PER DEPTH STEP
 DLM               .         SPACE                         : DELIMITING CHARACTER(SPACE TAB OR COMMA)
~Well Information
#_______________________________________________________________________________
#
#PARAMETER_NAME    .UNIT     VALUE                         : DESCRIPTION
#_______________________________________________________________________________
STRT               .M        21.55                         : First reference value
STOP               .M        2764.75                       : Last reference value
STEP               .M        0.2                           : Step increment
NULL               .         -9999                         : Missing value
COMP               .                                       : Company
WELL               .         616                           : Well name
FLD                .                                       : Field
LOC                .                                       : Location
CNTY               .                                       : County
STAT               .                                       : State
CTRY               .                                       : Country
SRVC               .                                       : Service Company
DATE               .                                       : Date
API                .                                       : API number
PROJECT_UPGRADE_TIME .         2021-03-18T21_24_50           : 
group              .         Good                          : 
~Parameter Information Block
#_______________________________________________________________________________
#
#PARAMETER_NAME    .UNIT     VALUE                         : DESCRIPTION
#_______________________________________________________________________________
SET                .         D7028_D_2                     : 
NPR                .         155                           : Номер прибора
OTHER              .         Kedr.exe версия 2.1.2.32      : 
OTHER_10           .         TM.GRD = 0.00404*TM$.UE + 0.07: 
OTHER_11           .         MN.ATM = (6.33279e-006*TM.GRD + 0.02401)*(MN$.UE + 2.72*TM.GRD + -2018): 
OTHER_12           .         GK.MKR/H = GK$.UE / 43.5489 + 0: 
OTHER_13           .         RES.SM = 0.00476*CRES.UE - 1.51709: 
OTHER_14           .         PL.GSM3 = 0 + 0 * (PL.UE / 1) +  0 * (PL.UE / 1)^2: 
OTHER_15           .         Постоянная времени ГГП = 6 сек: 
OTHER_16           .         Постоянная времени ГК = 6 сек : 
OTHER_2            .         KedrData.dll версия 3.2.2.14  : 
OTHER_3            .         LasInf.dll версия 3.2.0.13    : 
OTHER_4            .         Драйвер версия 1.2.0.5        : 
OTHER_5            .         Прибор_ КСА-M1                : 
OTHER_6            .         Номер прибора_ 155+р204       : 
OTHER_7            .         Режим_ КСА-М1 + ГГП + Резистивиметр: 
OTHER_8            .         Форма_ 223\2                  : 
OTHER_9            .         Тарировки_                    : 
PR                 .         КСА-Т7 М1                     : Тип прибора
PROJECT_UPGRADE_TIME .         2021-03-18T21_24_50           : 
PRTY               .         ПП-223_2                      : Номер партии
SRV                .         ЦКРС                          : Заказчик
SRVC               .         Лузин  А.Б.                   : Начальник партии
TLFamily_DEPT      .         Measured Depth                : 
TLFamily_LM        .         Casing Collar locator         : 
TLFamily_MN        .                                       : 
TLFamily_SPID      .         Spontaneous Potential         : 
TLFamily_TM        .         Temperature                   : 
group              .         second                        : 
~Curve Information
#_______________________________________________________________________________
#
#LOGNAME           .UNIT     LOG_ID                        : DESCRIPTION
#_______________________________________________________________________________
DEPT               .M                                      : Depth curve 
LM                 .е.ацп                                  : Локация муфт 
MN                 .атм                                    : Манометрия, атм 
SPID               .м/ч                                    : Скорость записи,м/час 
TM                 .град.С                                 : Термометрия,град.С 
~Ascii
# ...
1831.95    5004.439   162.53     -1845.994  52.49     
1832.15    722.972    162.54     -1800.999  52.49     
1832.35    509.979    162.58     -1790      52.5      
1832.55    349.007    162.58     -1790      52.5      
1832.75    405.006    162.6      -1790      52.5      
1832.95    449        162.62     -1790      52.51     
1833.15    451        162.65     -1790.009  52.51     
1833.35    450.997    162.65     -1856.001  52.52     
1833.55    428.014    162.67     -1859.991  52.53     
1833.75    537.006    162.7      -1790      52.53     
1833.95    586.015    162.73     -1790      52.53     
1834.15    698.004    162.75     -1790.001  52.54     
1834.35    731.993    162.75     -1794.009  52.55     
1834.55    676.005    162.78     -1860      52.55     
1834.75    717.025    162.8      -1860      52.55     
1834.95    907.027    162.8      -1860      52.56     
1835.15    1116.029   162.83     -1860      52.56     
1835.35    1334.982   162.85     -1860      52.57     
1835.55    1200.979   162.86     -1860      52.57     
1835.75    1043.038   162.88     -1860      52.57     
1835.95    1329.991   162.91     -1859.999  52.58     
1836.15    1260.958   162.93     -1852.986  52.58     
1836.35    944.035    162.95     -1743.015  52.59     
1836.55    1208.057   162.96     -1860      52.59     
1836.75    1639.123   162.98     -1860      52.59     
1836.95    2575.081   163.01     -1860      52.6      
1837.15    3190.885   163.03     -1860      52.6      
1837.35    2318.954   163.03     -1860      52.6      
1837.55    1965.93    163.06     -1860      52.61     
1837.75    1430.948   163.08     -1860      52.61     
1837.95    1033.01    163.11     -1859.999  52.61     
1838.15    1110.963   163.13     -1855.992  52.62     
1838.35    832.985    163.13     -1794.009  52.62     
1838.55    722.001    163.16     -1860      52.63     
1838.75    726.012    163.18     -1859.999  52.63     
1838.95    816.984    163.18     -1852.985  52.64     
1839.15    693.019    163.21     -1737.016  52.64     
1839.35    835.034    163.23     -1859.999  52.64     
1839.55    1096.07    163.25     -1848.994  52.65     
1839.75    1630.123   163.25     -1801.008  52.65     
1839.95    2567.868   163.28     -1860      52.66     
1840.15    1562.933   163.3      -1859.999  52.66     
1840.35    1052.922   163.33     -1848.992  52.66     
1840.55    460.008    163.33     -1790.002  52.67     
1840.75    517.014    163.35     -1804.006  52.67     
1840.95    623.014    163.38     -1846.992  52.68     
1841.15    725.994    163.41     -1790      52.68     
1841.35    677.005    163.43     -1790.007  52.68     
1841.55    717.012    163.43     -1845.002  52.69     
1841.75    806.018    163.46     -1860      52.69     
1841.95    943.044    163.48     -1860      52.7      
1842.15    1275.088   163.48     -1860      52.7      
1842.35    1941.125   163.51     -1860      52.7      
1842.55    2890.198   163.53     -1860.006  52.71     
1842.75    4389       163.55     -1907.996  52.71     
1842.95    4388.578   163.56     -1875.998  52.71     
1843.15    1189.922   163.6      -1860.006  52.72     
1843.35    595.002    163.62     -1901.991  52.72     
1843.55    609.997    163.63     -1833      52.73     
1843.75    587.004    163.65     -1836.003  52.73     
1843.95    618.999    163.67     -1859.994  52.74     
1844.15    615.003    163.68     -1816.003  52.74     
1844.35    640.982    163.7      -1836.003  52.74     
1844.55    503.005    163.72     -1860      52.75     
1844.75    542.993    163.74     -1859.993  52.75     
1844.95    490.007    163.75     -1808.997  52.75     
1845.15    546.02     163.77     -1790.007  52.76     
1845.35    693.992    163.79     -1841.996  52.76     
1845.55    635.991    163.82     -1807.992  52.76     
1845.75    570.986    163.84     -1746.998  52.77     
1845.95    463.999    163.87     -1730.013  52.77     
1846.15    460.005    163.88     -1829.004  52.77     
1846.35    496.988    163.89     -1860      52.78     
1846.55    406.011    163.92     -1860      52.78     
1846.75    487.002    163.93     -1860      52.79     
1846.95    499.018    163.94     -1860      52.79     
1847.15    632.009    163.97     -1860      52.8      
1847.35    697.017    163.99     -1859.992  52.8      
1847.55    823.026    164        -1800.999  52.8      
1847.75    1018.007   164.02     -1790.008  52.81     
1847.95    1073.997   164.04     -1851.993  52.81     
1848.15    1048.065   164.05     -1799.999  52.82     
1848.35    1542.114   164.07     -1790.008  52.82     
1848.55    2400.935   164.1      -1853.001  52.82     
1848.75    1909.868   164.1      -1859.992  52.83     
1848.95    913.993    164.12     -1800.999  52.83     
1849.15    863.013    164.15     -1790      52.84     
1849.35    959.984    164.17     -1790.008  52.84     
1849.55    840.993    164.2      -1850.001  52.84     
1849.75    786.971    164.22     -1860      52.85     
1849.95    565.999    164.22     -1860      52.85     
1850.15    555.014    164.25     -1860      52.86     
1850.35    663.998    164.27     -1859.992  52.86     
1850.55    647.986    164.27     -1797.007  52.86     
1850.75    546        164.3      -1853.001  52.87     
1850.95    548.003    164.32     -1860      52.88     
1851.15    571.99     164.32     -1860      52.88     
1851.35    496.001    164.35     -1860      52.88     
1851.55    507.003    164.37     -1860      52.88     
1851.75    527.014    164.4      -1860      52.89     
1851.95    632.006    164.42     -1860      52.89     
1852.15    678.019    164.42     -1859.995  52.89     
1852.35    823.02     164.45     -1820.001  52.9      
1852.55    970.975    164.47     -1831.004  52.9      
1852.75    782.027    164.47     -1860      52.9      
1852.95    987.046    164.5      -1859.995  52.91     
1853.15    1336.08    164.54     -1819.001  52.91     
1853.35    1941.111   164.56     -1830.004  52.92     
1853.55    2780.194   164.57     -1860      52.93     
1853.75    4245.936   164.59     -1859.995  52.93     
1853.95    3762.637   164.6      -1822.996  52.93     
1854.15    1027.009   164.63     -1790.005  52.94     
1854.35    1092.995   164.65     -1828.999  52.94     
1854.55    1052.027   164.66     -1820.996  52.95     
1854.75    1256.994   164.69     -1790      52.95     
1854.95    1209.989   164.71     -1790.006  52.96     
1855.15    1130.029   164.72     -1831.998  52.96     
1855.35    1349.019   164.74     -1817.996  52.96     
1855.55    1494.943   164.76     -1790.006  52.97     
1855.75    1062.976   164.79     -1833.004  52.97     
1855.95    881.989    164.8      -1860      52.97     
1856.15    797.986    164.81     -1859.994  52.98     
1856.35    695.988    164.84     -1814.003  52.98     
1856.55    609.009    164.85     -1835.003  52.99     
1856.75    677.01     164.86     -1859.994  52.99     
1856.95    754.982    164.89     -1813.003  53        
1857.15    621.996    164.91     -1837.003  53        
1857.35    593.989    164.94     -1860      53        
1857.55    510.02     164.95     -1860      53.01     
1857.75    659.017    164.96     -1860      53.01     
1857.95    789.012    164.99     -1860      53.01     
1858.15    879.01     165        -1859.994  53.02     
1858.35    952.046    165.01     -1813.003  53.02     
1858.55    1296.082   165.04     -1838.003  53.03     
1858.75    1909.015   165.06     -1859.994  53.03     
1858.95    2017.832   165.07     -1812.004  53.04     
1859.15    754.958    165.09     -1839.003  53.04     
1859.35    440.015    165.11     -1860.006  53.04     
1859.55    554.002    165.14     -1902.99   53.05     
1859.75    569.013    165.15     -1827.002  53.05     
1859.95    667.009    165.16     -1839.003  53.05     
1860.15    730.985    165.19     -1860      53.06     
1860.35    620.003    165.21     -1859.993  53.06     
1860.55    645.995    165.22     -1810.997  53.07     
1860.75    610.005    165.24     -1790.007  53.07     
1860.95    651.011    165.26     -1842.002  53.08     
