~Version
 VERS              .         2.0                           : CWLS LOG ASCII STANDARD - VERSION 2.0
 WRAP              .         NO                            : ONE LINE PER DEPTH STEP
 DLM               .         SPACE                         : DELIMITING CHARACTER(SPACE TAB OR COMMA)
~Well Information
#_______________________________________________________________________________
#
#PARAMETER_NAME    .UNIT     VALUE                         : DESCRIPTION
#_______________________________________________________________________________
STRT               .M        9                             : First reference value
STOP               .M        197.4                         : Last reference value
STEP               .M        0.2                           : Step increment
NULL               .         -9999                         : Missing value
COMP               .                                       : Company
WELL               .         616                           : Well name
FLD                .                                       : Field
LOC                .                                       : Location
CNTY               .                                       : County
STAT               .                                       : State
CTRY               .                                       : Country
SRVC               .                                       : Service Company
DATE               .                                       : Date
API                .                                       : API number
PROJECT_UPGRADE_TIME .         2021-03-18T21_24_50           : 
group              .         Good                          : 
~Parameter Information Block
#_______________________________________________________________________________
#
#PARAMETER_NAME    .UNIT     VALUE                         : DESCRIPTION
#_______________________________________________________________________________
SET                .         616                           : 
CONF               .         00                            : 
END                .         0                             : 
ERR                .         0                             : 
GS00               .M        0195.38                       : 
GS01               .M        0006.66                       : 
MM00               .M        0080.00                       : 
NOKG               .         0                             : 
NPR                .         980402                        : 
PART               .         Палагутин                     : 
PROJECT_UPGRADE_TIME .         2021-03-18T21_24_49           : 
PRZK               .         Шакиров                       : 
TLFamily_AZIMUTH   .         True Dip Azimuth              : 
TLFamily_DEPTH     .         Measured Depth                : 
TLFamily_METKA     .                                       : 
TLFamily_ROLL      .                                       : 
TLFamily_SPEED     .         Spontaneous Potential         : 
TLFamily_ZENIT     .                                       : 
VPRG               .         310                           : 
WAY                .         UP                            : 
group              .         prim                          : 
~Curve Information
#_______________________________________________________________________________
#
#LOGNAME           .UNIT     LOG_ID                        : DESCRIPTION
#_______________________________________________________________________________
DEPTH              .M                                      :  
AZIMUTH            .DEG                                    :  
METKA              .                                       :  
ROLL               .DEG                                    :  
SPEED              .M/H                                    :  
ZENIT              .DEG                                    :  
~Ascii
# ...
179.8      248.77     0          274.97     468        15.58     
180        246.32     0          275.22     540        15.12     
180.2      247.09     0          276.09     504        15.37     
180.4      247.24     0          276.08     540        15.25     
180.6      245.95     0          275.19     540        15.09     
180.8      248.48     0          273.62     504        15.42     
181        248.16     0          272.59     540        15.4      
181.2      247.64     0          270.79     504        15.25     
181.4      247.31     0          268.73     540        15.21     
181.6      247.54     0          266.49     504        15.19     
181.8      248.17     0          264.84     432        15.35     
182        247.94     0          263.89     540        15.36     
182.2      248.9      1          264.31     432        15.27     
182.4      252.78     0          267.01     540        15.48     
182.6      268.25     0          269.21     540        15.75     
182.8      282.49     0          269.79     504        15.63     
183        212.07     0          270.66     540        15.48     
183.2      110.16     0          271.26     540        15.91     
183.4      130.95     0          270.54     504        15.72     
183.6      256.24     2          270.12     504        15.69     
183.8      250.45     0          272.7      360        15.73     
184        250.19     0          273.89     504        15.99     
184.2      247.76     0          274.46     540        15.69     
184.4      247.41     0          276.6      540        15.54     
184.6      248.99     0          277.25     540        15.75     
184.8      248.07     0          274.89     504        15.51     
185        246.69     0          271.25     540        15.27     
185.2      247.88     0          268.83     540        15.42     
185.4      247.54     0          266.11     540        15.43     
185.6      247.3      0          264.16     504        15.45     
185.8      247.49     0          263.01     468        15.6      
186        247.33     0          261.9      540        15.42     
186.2      247.11     0          260.41     504        15.45     
186.4      247.7      0          259.27     540        15.71     
186.6      248.05     0          258.83     504        15.73     
186.8      246.6      0          259.15     504        15.62     
187        248.25     0          258.99     540        15.92     
187.2      247.69     0          258.35     540        15.8      
187.4      247.79     0          257.91     540        15.95     
187.6      247.72     0          257.89     504        15.92     
187.8      247.51     0          258.35     468        15.95     
188        247.49     0          258.89     540        15.96     
188.2      248.56     0          258.64     540        16.2      
188.4      247.68     0          258.05     540        15.98     
188.6      247.05     0          257.53     504        15.99     
188.8      249.17     0          257.44     540        16.29     
189        247.77     0          257.95     504        16.15     
189.2      247.34     0          258.98     504        16.04     
189.4      248.93     0          259.69     540        16.36     
189.6      248.87     0          260.48     504        16.43     
189.8      247.42     0          261.08     504        16.07     
190        248.21     0          261.04     540        16.3      
190.2      250.11     0          260.98     540        16.72     
190.4      247.32     0          260.94     504        16.12     
190.6      247.81     0          260.27     540        16.24     
190.8      250.05     0          259.42     540        16.86     
191        248.97     0          259.24     540        16.59     
191.2      248.42     0          259.42     504        16.44     
191.4      249.55     0          260.1      540        16.73     
191.6      249.49     0          260.92     504        16.69     
191.8      249.8      0          261.65     504        16.72     
192        250.39     0          262.01     540        16.75     
192.2      251.6      1          261.25     540        16.99     
192.4      250.97     0          261.18     792        16.87     
192.6      251.99     0          261.94     540        16.92     
192.8      252.79     0          261.41     540        17.03     
193        253.77     0          260.6      540        17.1      
193.2      254.08     2          260.51     252        17.08     
193.4      256.92     0          261.76     396        17.32     
193.6      258.31     0          260.28     540        17.09     
193.8      261.21     0          258.55     432        17.08     
194        268.68     0          257.9      504        17.54     
194.2      276.47     0          257.64     540        17.49     
194.4      289.31     0          256.92     504        17.49     
194.6      313.49     0          255.55     504        17.74     
194.8      338.88     0          254.71     504        17.83     
195        353.66     0          253.87     540        17.83     
195.2      256.75     0          252.19     504        18.32     
195.4      179.68     0          250.94     540        18.37     
195.6      134.71     0          250.93     540        18.39     
195.8      358.57     0          251.07     432        18.7      
196        202.99     0          250.91     504        18.91     
196.2      163.11     0          249.92     540        18.74     
196.4      103.89     0          248.81     540        18.95     
196.6      83.17      0          245.55     504        18.56     
196.8      54.1       0          241.79     468        18.68     
197        62.17      0          231.54     504        18.92     
197.2      37.49      0          190.73     540        17.84     
197.4      339.32     0          121.19     504        18.47     
