~Version
 VERS              .         2.0                           : CWLS LOG ASCII STANDARD - VERSION 2.0
 WRAP              .         NO                            : ONE LINE PER DEPTH STEP
 DLM               .         SPACE                         : DELIMITING CHARACTER(SPACE TAB OR COMMA)
~Well Information
#_______________________________________________________________________________
#
#PARAMETER_NAME    .UNIT     VALUE                         : DESCRIPTION
#_______________________________________________________________________________
STRT               .M        2667.4                        : First reference value
STOP               .M        2776                          : Last reference value
STEP               .M        0.2000002                     : Step increment
NULL               .         -9999                         : Missing value
COMP               .                                       : Company
WELL               .         616                           : Well name
FLD                .                                       : Field
LOC                .                                       : Location
CNTY               .                                       : County
STAT               .                                       : State
CTRY               .                                       : Country
SRVC               .                                       : Service Company
DATE               .                                       : Date
API                .                                       : API number
PROJECT_UPGRADE_TIME .         2021-03-18T21_24_50           : 
group              .         Good                          : 
~Parameter Information Block
#_______________________________________________________________________________
#
#PARAMETER_NAME    .UNIT     VALUE                         : DESCRIPTION
#_______________________________________________________________________________
SET                .         D1800_D                       : 
OTHER              .         Программное обеспечение станции MONITOR-386EX 25/12/99 15_08_10   BGF V52 22/08/01 16_56_30   3.1_SNGF___BGF_N_092049: 
OTHER_10           .         Тарировки_                    : 
OTHER_11           .         TM.GRD = 0.00403*TM$.UE + -1.07: 
OTHER_12           .         MN.ATM = (9.34907e-006*TM.GRD + 0.02171)*(MN$.UE + -7.93*TM.GRD + -1787): 
OTHER_13           .         GK.MKR/H = LM. / 42.4676      : 
OTHER_14           .         GK.FLT = 0.1*GK.MKR/H[-1] + (1-0.1)*GK.MKR/H[0]: 
OTHER_2            .         Kedr.exe версия 3.4.2.51      : 
OTHER_3            .         KedrData.dll версия 3.4.2.24  : 
OTHER_4            .         Драйвер версия 2.1.1.3        : 
OTHER_5            .         Мнемоники версия 3.3 S        : 
OTHER_6            .         Прибор_ КСА-Т4                : 
OTHER_7            .         Номер прибора_ 03             : 
OTHER_8            .         Режим_ КСА-Т4                 : 
OTHER_9            .         Форма_ КВА.                   : 
PROJECT_UPGRADE_TIME .         2021-03-18T21_24_49           : 
TLFamily_DEPT      .         Measured Depth                : 
TLFamily_GK        .         Gamma Ray                     : 
TLFamily_GK$       .                                       : 
TLFamily_GK_2      .         Gamma Ray                     : 
TLFamily_LM        .         Casing Collar locator         : 
TLFamily_METKA     .                                       : 
TLFamily_MN        .                                       : 
TLFamily_MN$       .                                       : 
TLFamily_RCOR      .                                       : 
TLFamily_SPID      .         Spontaneous Potential         : 
TLFamily_TENS      .         Cable Tension                 : 
TLFamily_TIME      .         Time                          : 
TLFamily_TM        .         Temperature                   : 
TLFamily_TM$       .         Temperature                   : 
group              .         prim                          : 
~Curve Information
#_______________________________________________________________________________
#
#LOGNAME           .UNIT     LOG_ID                        : DESCRIPTION
#_______________________________________________________________________________
DEPT               .M                                      : 1 Глубина, м -    0.0 см 
GK                 .MKR/H                                  : 13 Гамма-активность, мкр./ч -  110.0 см 
GK$                .UE                                     : 10 Гамма-активность, усл.ед. -  110.0 см 
GK_2               .FLT                                    : 14 Гамма-активность фильтрованная, мкр./ч -  110.0 см 
LM                 .                                       : 9 Локатор муфт,  -   20.0 см 
METKA              .                                       : 3 Метки,  -    0.0 см 
MN                 .ATM                                    : 12 Давление, атм. -  160.0 см 
MN$                .UE                                     : 8 Давление, усл.ед. -  160.0 см 
RCOR               .CM/KM                                  : 5 Коррекция по ролику, см/км -    0.0 см 
SPID               .M/H                                    : 2 Скорость, м/час -    0.0 см 
TENS               .T                                      : 6 Натяжение кабеля, т -    0.0 см 
TIME               .S                                      : 4 Время, сек -    0.0 см 
TM                 .GRD                                    : 11 Температура, °C -  170.0 см 
TM$                .UE                                     : 7 Температура, усл.ед. -  170.0 см 
~Ascii
# ...
2750.6     12.24      520        12.24      77         0          252.789    13585      -608       -234       0.17       6412.89    50.905     12897     
2750.8     11.44      486        11.44      49         0          252.8      13586      -608       -232       0.17       6409.89    51.042     12931     
2751       10.95      465        10.93      81         0          252.833    13588      -608       -233       0.17       6406.82    51.19      12968     
2751.2     10.9       463        10.91      62         0          252.844    13589      -608       -231       0.17       6403.56    51.388     13017     
2751.4     11.26      478        11.25      61         0          252.878    13591      -608       -226       0.17       6400.5     51.513     13048     
2751.6     11.11      472        11.13      64         0          252.883    13592      -608       -226       0.17       6397.31    51.707     13096     
2751.8     11.04      469        11.04      101        0          252.921    13594      -608       -229       0.17       6394.12    51.892     13142     
2752       10.5       446        10.5       71         0          252.935    13595      -608       -233       0.17       6390.92    52.025     13175     
2752.2     10.17      432        10.17      68         0          252.947    13596      -608       -230       0.17       6387.92    52.131     13201     
2752.4     10.05      427        9.99       88         0          252.967    13598      -608       -233       0.17       6384.8     52.329     13250     
2752.6     10.6       450        10.6       90         0          252.991    13599      -608       -236       0.17       6381.67    52.447     13280     
2752.8     11.28      479        11.29      81         0          253.002    13600      -608       -226       0.17       6378.55    52.65      13330     
2753       11.84      503        11.73      55         0          253.032    13602      -608       -218       0.17       6375.41    52.858     13382     
2753.2     10.78      458        10.41      69         0          253.038    13603      -608       -233       0.17       6372.16    53.004     13418     
2753.4     10.83      460        10.83      71         0          253.043    13604      -608       -232       0.17       6368.97    53.277     13486     
2753.6     10.88      462        10.87      83         0          253.075    13606      -608       -233       0.17       6365.9     53.486     13537     
2753.8     10.53      447        10.5       109        0          253.085    13607      -608       -239       0.17       6362.78    53.605     13567     
2754       10.05      427        10.06      76         0          253.094    13608      -608       -231       0.17       6359.64    53.831     13623     
2754.2     10.27      436        10.27      78         0          253.104    13609      -608       -233       0.17       6356.58    54.002     13665     
2754.4     11.02      468        11.05      90         0          253.139    13611      -608       -232       0.17       6353.39    54.177     13709     
2754.6     11.89      505        11.86      94         0          253.133    13611      -608       -231       0.17       6350.2     54.323     13745     
2754.8     11.56      491        11.4       73         0          253.162    13613      -608       -228       0.17       6347       54.492     13787     
2755       10.86      461        10.86      67         0          253.17     13614      -608       -227       0.17       6343.81    54.664     13830     
2755.2     10.83      460        10.83      61         0          253.202    13616      -608       -220       0.17       6340.63    54.826     13870     
2755.4     10.69      454        10.67      71         0          253.214    13617      -608       -228       0.17       6337.63    55.002     13914     
2755.6     10.36      440        10.26      102        0          253.219    13618      -608       -232       0.17       6334.42    55.189     13960     
2755.8     9.65       410        9.66       106        0          253.229    13619      -608       -230       0.17       6331.2     55.384     14009     
2756       9.96       423        9.96       67         0          253.231    13620      -608       -226       0.17       6328.19    55.643     14073     
2756.2     9.98       424        9.91       69         0          253.242    13621      -608       -219       0.17       6324.97    55.894     14135     
2756.4     10         425        10         63         0          253.274    13623      -608       -231       0.17       6321.63    56.045     14172     
2756.6     10.08      428        10.08      96         0          253.286    13624      -608       -232       0.17       6318.53    56.235     14220     
2756.8     10.24      435        10.25      100        0          253.298    13625      -608       -230       0.17       6315.45    56.34      14246     
2757       10.46      444        10.35      94         0          253.306    13626      -608       -224       0.18       6312.17    56.515     14289     
2757.2     9.11       387        9.11       117        0          253.31     13627      -608       -229       0.17       6309.09    56.778     14354     
2757.4     8.19       348        8.2        130        0          253.33     13629      -608       -219       0.17       6305.88    57.099     14434     
2757.6     8.52       362        8.57       106        0          253.324    13629      -608       -224       0.17       6302.66    57.288     14481     
2757.8     8.97       381        8.95       149        0          253.331    13630      -608       -224       0.17       6299.58    57.44      14519     
2758       8.62       366        8.62       92         0          253.329    13631      -608       -217       0.17       6296.23    57.705     14584     
2758.2     7.89       335        7.86       99         0          253.359    13633      -608       -213       0.17       6293.03    57.977     14652     
2758.4     5.57       236        6.38       149        0          253.359    13634      -608       -219       0.17       6289.81    58.195     14706     
2758.6     8.49       360        8.68       1981       0          253.372    13635      -608       -220       0.17       6286.59    58.445     14768     
2758.8     9.73       413        9.73       311        0          253.379    13636      -608       -222       0.17       6283.19    58.683     14827     
2759       9.94       422        9.93       129        0          253.391    13637      -608       -217       0.17       6279.98    58.852     14869     
2759.2     9.73       413        9.96       77         0          253.386    13637      -608       -221       0.17       6276.77    59.002     14906     
2759.4     10.29      437        10.28      77         0          253.402    13639      -608       -208       0.17       6273.36    59.227     14962     
2759.6     8.83       375        8.83       83         0          253.423    13640      -608       -210       0.17       6270.21    59.332     14988     
2759.8     8.57       364        8.66       53         0          253.438    13641      -608       -218       0.17       6266.75    59.441     15015     
2760       9.09       386        9.09       125        2          253.454    13642      -600       -216       0.17       6262.21    59.556     15044     
2760.2     8.81       374        8.81       93         0          253.459    13643      -600       -215       0.17       6258.81    59.698     15079     
2760.4     9          382        8.97       84         0          253.471    13644      -600       -223       0.17       6255.59    59.938     15138     
2760.6     8.74       371        8.86       60         0          253.501    13646      -600       -228       0.17       6252.31    60.049     15166     
2760.8     9.16       389        9.17       52         0          253.496    13646      -600       -213       0.17       6248.98    60.242     15214     
