~Version
 VERS              .         2.0                           : CWLS LOG ASCII STANDARD - VERSION 2.0
 WRAP              .         NO                            : ONE LINE PER DEPTH STEP
 DLM               .         SPACE                         : DELIMITING CHARACTER(SPACE TAB OR COMMA)
~Well Information
#_______________________________________________________________________________
#
#PARAMETER_NAME    .UNIT     VALUE                         : DESCRIPTION
#_______________________________________________________________________________
STRT               .M        5.8                           : First reference value
STOP               .M        2774.6                        : Last reference value
STEP               .M        0.2                           : Step increment
NULL               .         -9999                         : Missing value
COMP               .                                       : Company
WELL               .         616                           : Well name
FLD                .                                       : Field
LOC                .                                       : Location
CNTY               .                                       : County
STAT               .                                       : State
CTRY               .                                       : Country
SRVC               .                                       : Service Company
DATE               .                                       : Date
API                .                                       : API number
PROJECT_UPGRADE_TIME .         2021-03-18T21_24_50           : 
group              .         Good                          : 
~Parameter Information Block
#_______________________________________________________________________________
#
#PARAMETER_NAME    .UNIT     VALUE                         : DESCRIPTION
#_______________________________________________________________________________
SET                .         D1747_D                       : 
OTHER              .         Программное обеспечение станции MONITOR-386EX 25/12/99 15_08_10   BGF V52 22/08/01 16_56_30   3.1_SNGF___BGF_N_111239: 
OTHER_10           .         Тарировки_                    : 
OTHER_11           .         <_techsia_sc_> Постоянная времени фильтра ГК  3.0 сек, kf=0.016529: 
OTHER_12           .         <_techsia_sc_> Постоянная времени фильтра ННК  3.0 сек, kf=0.016529: 
OTHER_13           .         GK.MKR/H = GK$.IMP/476        : 
OTHER_14           .         WSAT.PERC = -12.5 + 78.0 * (NKT2$.IMP / NKT1$.IMP) * 1731/33716: 
OTHER_15           .         NKT2.PRIV = NKT2$.IMP/33716   : 
OTHER_16           .         NKT1.PRIV = NKT1$.IMP/1731    : 
OTHER_2            .         Kedr.exe версия 3.3.2.32      : 
OTHER_3            .         KedrData.dll версия 3.3.2.17  : 
OTHER_4            .         Драйвер версия 2.1.1.9        : 
OTHER_5            .         Мнемоники версия 3.2 S        : 
OTHER_6            .         Прибор_ СРК-73Ц-1N            : 
OTHER_7            .         Номер прибора_ 906            : 
OTHER_8            .         Режим_ с локатором            : 
OTHER_9            .         Форма_ 623-1                  : 
PROJECT_UPGRADE_TIME .         2021-03-18T21_24_49           : 
TLFamily_DEPT      .         Measured Depth                : 
TLFamily_GK        .         Gamma Ray                     : 
TLFamily_GK$       .                                       : 
TLFamily_LM        .         Casing Collar locator         : 
TLFamily_METKA     .                                       : 
TLFamily_NKT1      .         Neutron Far                   : 
TLFamily_NKT1$     .         Neutron Far                   : 
TLFamily_NKT2      .         Neutron Near                  : 
TLFamily_NKT2$     .         Neutron Near                  : 
TLFamily_RCOR      .                                       : 
TLFamily_SPID      .         Spontaneous Potential         : 
TLFamily_TENS      .         Cable Tension                 : 
TLFamily_TIME      .         Time                          : 
TLFamily_WSAT      .         Neutron Porosity              : 
group              .         prim                          : 
~Curve Information
#_______________________________________________________________________________
#
#LOGNAME           .UNIT     LOG_ID                        : DESCRIPTION
#_______________________________________________________________________________
DEPT               .M                                      : 1 Глубина, м -    0.0 см 
GK                 .MKR/H                                  : 11 Гамма-активность, мкр./ч -   97.0 см 
GK$                .IMP                                    : 9 Гамма-активность, имп/мин -   97.0 см 
LM                 .                                       : 10 Локатор муфт,  -   27.0 см 
METKA              .                                       : 3 Метки,  -    0.0 см 
NKT1               .PRIV                                   : 14 Большой зонд приведенный,  -  278.0 см 
NKT1$              .IMP                                    : 8 Большой зонд, имп/мин -  278.0 см 
NKT2               .PRIV                                   : 13 Малый зонд приведенный,  -  289.0 см 
NKT2$              .IMP                                    : 7 Малый зонд, имп/мин -  289.0 см 
RCOR               .CM/KM                                  : 5 Коррекция по ролику, см/км -    0.0 см 
SPID               .M/H                                    : 2 Скорость, м/час -    0.0 см 
TENS               .T                                      : 6 Натяжение кабеля, т -    0.0 см 
TIME               .S                                      : 4 Время, сек -    0.0 см 
WSAT               .PERC                                   : 12 Водонасыщенная пористость, % -  284.0 см 
~Ascii
# ...
1472.2     7.08       3368       37         0          1.59       2755.93    1.1        37120.07   -497       -640       0          22246.82   46.6      
1472.4     7.1        3379       12         0          1.56       2701.38    1.1        37144.6    -497       -640       0          22245.67   47.61     
1472.6     7.19       3422       32         0          1.55       2685.04    1.1        37043.57   -497       -699       0          22244.57   45.54     
1472.8     6.89       3277       43         0          1.52       2638.67    1.09       36691.93   -497       -581       0          22243.46   48.19     
1473       6.75       3215       29         0          1.55       2674.52    1.09       36877.97   -497       -640       0          22242.3    50.76     
1473.2     6.76       3218       46         0          1.53       2654.44    1.1        37040.36   -497       -641       0          22241.2    51.76     
1473.4     6.96       3313       63         0          1.53       2650.71    1.11       37287.9    -497       -640       0          22240.08   50.51     
1473.6     6.83       3252       36         0          1.51       2615.48    1.09       36863.89   -497       -699       0          22239      48.56     
1473.8     7.15       3403       46         0          1.48       2561.38    1.09       36756.93   -497       -640       0          22237.9    49.16     
1474       7.12       3391       33         0          1.47       2536.53    1.1        37015.55   -497       -671       0          22236.85   50.14     
1474.2     6.96       3315       29         0          1.49       2581.07    1.12       37787.68   -497       -612       0          22235.69   50.31     
1474.4     6.5        3096       37         0          1.5        2588.75    1.11       37580.34   -497       -643       0          22234.59   52.85     
1474.6     6.52       3106       33         0          1.56       2698.39    1.12       37609.22   -497       -674       0          22233.49   52.93     
1474.8     7.09       3376       38         0          1.58       2733.08    1.11       37420.63   -497       -604       0          22232.39   51.07     
1475       7.57       3603       54         0          1.55       2684.39    1.09       36835.89   -497       -668       0          22231.24   51.06     
1475.2     7.43       3535       42         0          1.59       2750.17    1.1        36966.57   -497       -640       0          22230.14   48.48     
1475.4     7.24       3446       38         0          1.63       2819.46    1.09       36772.86   -497       -640       0          22229.03   46.54     
1475.6     7.12       3391       7          0          1.7        2937.08    1.1        37227.57   -497       -640       0          22227.93   47.07     
1475.8     6.94       3303       32         0          1.65       2854.27    1.11       37488.59   -497       -640       0          22226.78   46.6      
1476       7.01       3337       29         0          1.6        2777.22    1.11       37513.14   -497       -677       0          22225.68   44.12     
1476.2     7.11       3383       21         0          1.57       2713.28    1.11       37353.59   -497       -655       0          22224.58   50.03     
1476.4     7.25       3453       25         0          1.61       2779.12    1.1        36957.38   -497       -640       0          22223.53   50.08     
1476.6     7.4        3522       33         0          1.66       2865.4     1.11       37371.9    -497       -692       0          22222.43   47.48     
1476.8     7.57       3604       52         0          1.64       2845.69    1.1        37053.12   -497       -587       0          22221.32   46.39     
1477       6.99       3328       29         0          1.61       2795.17    1.1        37253.69   -497       -650       0          22220.17   47.08     
1477.2     6.95       3307       29         0          1.56       2697.64    1.1        37166.16   -497       -587       0          22219.07   52.06     
1477.4     7.18       3420       12         0          1.59       2744.36    1.08       36530.13   -497       -693       0          22217.97   53.9      
1477.6     7.15       3403       26         0          1.59       2748.98    1.09       36857.66   -497       -640       0          22216.87   50.16     
1477.8     7.1        3382       4          0          1.51       2608.39    1.1        37020.52   -497       -640       0          22215.77   51.23     
1478       7.3        3475       20         0          1.55       2690.65    1.09       36867.21   -497       -695       0          22214.68   48.28     
1478.2     6.81       3241       2          0          1.36       2349.26    1.08       36547.37   -497       -640       0          22213.56   51.13     
1478.4     6.87       3269       55         0          1.38       2390       1.1        36934.37   -497       -643       0          22212.45   53.47     
1478.6     6.66       3169       19         0          1.35       2329.39    1.1        37227.81   -497       -640       0          22211.35   51.4      
1478.8     6.49       3091       26         0          1.42       2452.24    1.11       37483.7    -497       -582       0          22210.25   50.47     
1479       6.41       3051       59         0          1.47       2545.1     1.12       37660.76   -497       -697       0          22209.1    48.63     
1479.2     6.41       3049       21         0          1.55       2675.43    1.1        37121.63   -497       -640       0          22207.99   45.98     
1479.4     6.89       3280       34         0          1.57       2714.26    1.09       36916.43   -497       -698       0          22206.89   46.49     
1479.6     7.16       3410       17         0          1.57       2719.56    1.11       37264.65   -497       -640       0          22205.79   45.35     
1479.8     7          3330       42         1          1.56       2697.24    1.12       37726.94   -497       -640       0          22204.71   48.65     
1480       7.12       3389       294        0          1.58       2727.96    1.11       37540.56   -497       -640       0          22203.59   46.37     
1480.2     6.59       3137       2408       0          1.55       2680.29    1.11       37377.45   -497       -640       0          22202.49   48.26     
1480.4     6.38       3039       1950       0          1.58       2731.31    1.07       35922.64   -497       -640       0          22201.33   44.53     
1480.6     6.47       3081       61         0          1.55       2675.34    1.11       37280.62   -497       -641       0          22200.23   47.33     
1480.8     6.55       3119       36         0          1.55       2677.42    1.1        37149.43   -497       -582       0          22199.13   46.95     
1481       6.34       3019       38         0          1.53       2653.3     1.1        36919.69   -497       -640       0          22198      48.23     
1481.2     6.33       3011       44         0          1.59       2752.99    1.09       36642.9    -497       -699       0          22196.93   43.7      
1481.4     6.55       3119       48         0          1.68       2903.26    1.1        37098.48   -497       -640       0          22195.83   43.55     
1481.6     6.31       3004       53         0          1.66       2878.3     1.11       37369.78   -497       -640       0          22194.75   45.92     
1481.8     6.72       3197       64         0          1.74       3016.43    1.1        37225.53   -497       -693       0          22193.62   45.23     
1482       6.75       3211       83         0          1.74       3010.39    1.11       37268.78   -497       -634       0          22192.52   44.27     
1482.2     6.89       3281       59         0          1.68       2911.59    1.1        37146.06   -497       -640       0          22191.37   41.95     
1482.4     6.77       3223       53         0          1.72       2969.73    1.1        36966.61   -497       -640       0          22190.32   40.27     
