~Version
 VERS              .         2.0                           : CWLS LOG ASCII STANDARD - VERSION 2.0
 WRAP              .         NO                            : ONE LINE PER DEPTH STEP
 DLM               .         SPACE                         : DELIMITING CHARACTER(SPACE TAB OR COMMA)
~Well Information
#_______________________________________________________________________________
#
#PARAMETER_NAME    .UNIT     VALUE                         : DESCRIPTION
#_______________________________________________________________________________
STRT               .M        2667.8                        : First reference value
STOP               .M        2773.4                        : Last reference value
STEP               .M        0.1999997                     : Step increment
NULL               .         -9999                         : Missing value
COMP               .                                       : Company
WELL               .         616                           : Well name
FLD                .                                       : Field
LOC                .                                       : Location
CNTY               .                                       : County
STAT               .                                       : State
CTRY               .                                       : Country
SRVC               .                                       : Service Company
DATE               .                                       : Date
API                .                                       : API number
PROJECT_UPGRADE_TIME .         2021-03-18T21_24_50           : 
group              .         Good                          : 
~Parameter Information Block
#_______________________________________________________________________________
#
#PARAMETER_NAME    .UNIT     VALUE                         : DESCRIPTION
#_______________________________________________________________________________
SET                .         D0401_D                       : 
OTHER              .         Kedr.exe версия 2.1.2.32      : 
OTHER_10           .         TM.GRD = 0.00379*TM$.UE + 7.11: 
OTHER_11           .         MN.ATM = (8e-006*TM.GRD + 0.02)*(MN$.UE + -8*TM.GRD + -1800): 
OTHER_12           .         GK.MKR/H = GK$.UE / 57.17 + 0 : 
OTHER_2            .         KedrData.dll версия 3.2.2.14  : 
OTHER_3            .         LasInf.dll версия 3.2.0.13    : 
OTHER_4            .         Драйвер версия 1.2.0.4        : 
OTHER_5            .         Прибор_ АКП4_90               : 
OTHER_6            .         Номер прибора_ 56             : 
OTHER_7            .         Режим_ АКП4_90 - все каналы   : 
OTHER_8            .         Форма_ Г-1                    : 
OTHER_9            .         Тарировки_                    : 
PROJECT_UPGRADE_TIME .         2021-03-18T21_24_49           : 
TLFamily_DEPT      .         Measured Depth                : 
TLFamily_GK        .         Gamma Ray                     : 
TLFamily_GK$       .                                       : 
TLFamily_LM        .         Casing Collar locator         : 
TLFamily_METKA     .                                       : 
TLFamily_METKA_1   .                                       : 
TLFamily_MN        .                                       : 
TLFamily_MN$       .                                       : 
TLFamily_RCOR      .                                       : 
TLFamily_SPID      .         Spontaneous Potential         : 
TLFamily_TIME      .         Time                          : 
TLFamily_TM        .         Temperature                   : 
TLFamily_TM$       .         Temperature                   : 
group              .         second                        : 
~Curve Information
#_______________________________________________________________________________
#
#LOGNAME           .UNIT     LOG_ID                        : DESCRIPTION
#_______________________________________________________________________________
DEPT               .M                                      : 1 Глубина, м -    0.0 см 
GK                 .MKR/H                                  : 12 Гамма-активность, мкр./ч -   65.0 см 
GK$                .UE                                     : 9 Гамма-активность, усл.ед. -   65.0 см 
LM                 .                                       : 8 Локатор муфт,  -   30.0 см 
METKA              .                                       : 3 Метки,  -    0.0 см 
METKA_1            .                                       : 13 Маркеры - 65 см 
MN                 .ATM                                    : 11 Давление, атм. -  140.0 см 
MN$                .UE                                     : 7 Давление, усл.ед. -  140.0 см 
RCOR               .CM/KM                                  : 5 Коррекция по ролику, см/км -    0.0 см 
SPID               .M/H                                    : 2 Скорость, м/час -    0.0 см 
TIME               .S                                      : 4 Время, сек -    0.0 см 
TM                 .GRD                                    : 10 Температура, °C -  145.0 см 
TM$                .UE                                     : 6 Температура, усл.ед. -  145.0 см 
~Ascii
# ...
2735       6.04       347        403        0          0          265.563    15321      0          -320       5674.48    84.828     20506     
2735.2     6.05       338        447        0          0          265.706    15328      0          -260       5671.79    84.843     20510     
2735.4     6.1        351        537        0          0          265.638    15325      0          -260       5668.89    84.845     20511     
2735.6     6.14       341        810        0          0          265.568    15321      0          -260       5666.11    84.85      20512     
2735.8     6.07       362        518        0          0          265.685    15327      0          -260       5663.16    84.854     20513     
2736       5.68       342        561        0          0          265.788    15332      0          -260       5660.33    84.858     20514     
2736.2     5.82       293        578        0          0          265.657    15326      0          -260       5657.5     84.862     20515     
2736.4     6.5        336        563        0          0          265.663    15326      0          -260       5654.8     84.869     20517     
2736.6     7.04       377        516        0          0          265.849    15335      0          -260       5651.96    84.873     20518     
2736.8     7.25       423        472        0          0          265.827    15334      0          -260       5649.13    84.881     20520     
2737       6.94       437        392        0          0          265.703    15328      0          -260       5646.44    84.888     20522     
2737.2     6.68       387        394        0          0          265.834    15334      0          -260       5643.6     84.896     20524     
2737.4     6.64       383        481        0          0          265.972    15341      0          -320       5640.77    84.898     20525     
2737.6     6.63       362        403        0          0          265.806    15333      0          -260       5637.94    84.9       20525     
2737.8     6.97       371        408        0          0          265.765    15331      0          -260       5635.12    84.904     20526     
2738       7.41       402        412        0          0          265.931    15339      0          -260       5632.41    84.907     20527     
2738.2     7.72       438        403        0          0          266.026    15344      0          -260       5629.58    84.912     20528     
2738.4     7.73       447        358        0          0          265.93     15339      0          -260       5626.76    84.915     20529     
2738.6     7.68       439        434        0          0          265.826    15334      0          -260       5623.91    84.922     20531     
2738.8     7.56       450        581        0          0          266.019    15343      0          -320       5621.22    84.928     20532     
2739       7.3        443        352        0          0          266.121    15348      0          -260       5618.4     84.934     20534     
2739.2     7.11       421        438        0          0          265.99     15342      0          -260       5615.55    84.941     20536     
2739.4     6.85       420        320        0          0          265.927    15339      0          -260       5612.73    84.953     20539     
2739.6     6.31       389        407        0          0          266.093    15347      0          -260       5609.84    84.959     20541     
2739.8     5.94       341        397        1          0          266.195    15352      0          -260       5606.93    84.965     20542     
2740       6.07       320        604        0          0          266.112    15348      0          -260       5603.21    84.964     20542     
2740.2     6.59       322        524        0          0          266.009    15343      0          -260       5600.37    84.968     20543     
2740.4     6.84       394        504        0          0          266.146    15350      0          -260       5597.42    84.976     20545     
2740.6     6.54       376        536        0          0          266.27     15356      0          -260       5594.59    84.983     20547     
2740.8     6.9        358        4100       0          0          266.234    15354      0          -320       5591.73    84.988     20548     
2741       7.36       392        7293       0          0          266.131    15349      0          -260       5588.9     84.998     20551     
2741.2     7.71       418        440        0          0          266.234    15354      0          -260       5585.93    85.002     20552     
2741.4     8.03       429        497        0          0          266.193    15352      0          -260       5583.11    85.006     20553     
2741.6     7.94       479        1137       0          0          266.214    15353      0          -260       5580.26    85.007     20553     
2741.8     7.46       439        548        0          0          266.398    15362      0          -260       5577.38    85.024     20558     
2742       7.27       417        737        0          0          266.376    15361      0          -190       5574.49    85.032     20560     
2742.2     7.28       409        473        0          0          266.259    15355      0          -260       5571.65    85.039     20562     
2742.4     7.42       410        469        0          0          266.362    15360      0          -320       5568.69    85.04      20562     
2742.6     7.52       431        514        0          0          266.459    15365      0          -260       5565.86    85.045     20563     
2742.8     7.51       422        400        0          0          266.395    15362      0          -260       5562.91    85.059     20567     
2743       7.72       435        393        0          0          266.333    15359      0          -260       5560.2     85.074     20571     
2743.2     7.81       448        492        0          0          266.446    15364      0          -260       5557.24    85.077     20572     
2743.4     7.82       438        442        0          0          266.56     15370      0          -260       5554.42    85.078     20572     
2743.6     7.92       449        403        0          0          266.504    15367      0          -260       5551.45    85.089     20575     
2743.8     7.93       456        378        0          0          266.415    15363      0          -260       5548.62    85.097     20577     
2744       7.9        454        369        0          0          266.552    15370      0          -260       5545.73    85.106     20579     
2744.2     7.76       455        483        0          0          266.682    15376      0          -260       5542.84    85.112     20581     
2744.4     7.57       433        460        0          0          266.62     15373      0          -260       5539.94    85.12      20583     
2744.6     7.6        422        474        0          0          266.516    15368      0          -260       5537.04    85.123     20584     
2744.8     7.73       452        489        0          0          266.641    15374      0          -260       5534.22    85.127     20585     
2745       7.52       452        465        0          0          266.743    15379      0          -260       5531.39    85.131     20586     
2745.2     7.48       407        587        0          0          266.66     15375      0          -190       5528.43    85.145     20590     
2745.4     7.91       408        543        0          0          266.607    15372      0          -260       5525.6     85.16      20594     
2745.6     7.92       485        457        0          0          266.741    15379      0          -191       5522.77    85.169     20596     
2745.8     7.31       425        702        0          0          266.813    15382      0          -260       5519.69    85.173     20597     
2746       7.26       400        414        0          0          266.698    15377      0          -260       5516.85    85.18      20599     
