~Version
 VERS              .         2.0                           : CWLS LOG ASCII STANDARD - VERSION 2.0
 WRAP              .         NO                            : ONE LINE PER DEPTH STEP
 DLM               .         SPACE                         : DELIMITING CHARACTER(SPACE TAB OR COMMA)
~Well Information
#_______________________________________________________________________________
#
#PARAMETER_NAME    .UNIT     VALUE                         : DESCRIPTION
#_______________________________________________________________________________
STRT               .M        44                            : First reference value
STOP               .M        2769.2                        : Last reference value
STEP               .M        0.2                           : Step increment
NULL               .         -9999                         : Missing value
COMP               .                                       : Company
WELL               .         616                           : Well name
FLD                .                                       : Field
LOC                .                                       : Location
CNTY               .                                       : County
STAT               .                                       : State
CTRY               .                                       : Country
SRVC               .                                       : Service Company
DATE               .                                       : Date
API                .                                       : API number
PROJECT_UPGRADE_TIME .         2021-03-18T21_24_50           : 
group              .         Good                          : 
~Parameter Information Block
#_______________________________________________________________________________
#
#PARAMETER_NAME    .UNIT     VALUE                         : DESCRIPTION
#_______________________________________________________________________________
SET                .         D1160_D                       : 
OTHER              .         Программное обеспечение станции MONITOR-386EX 25/12/99 15_08_10   BGF V52 22/08/01 16_56_30   3.2_BGF_N_3070031: 
OTHER_10           .         Тарировки_                    : 
OTHER_11           .         TM.GRD = 0.00403*TM$.UE + -1.19: 
OTHER_12           .         MN.ATM = (7.1e-006*TM.GRD + 0.02017)*(MN$.UE + -3.03*TM.GRD + -1833): 
OTHER_13           .         Id error                      : 
OTHER_2            .         Kedr.exe версия 3.4.2.51      : 
OTHER_3            .         KedrData.dll версия 3.4.2.24  : 
OTHER_4            .         Драйвер версия 2.1.1.8        : 
OTHER_5            .         Мнемоники версия 3.3 S        : 
OTHER_6            .         Прибор_ КСА-М1                : 
OTHER_7            .         Номер прибора_ 265            : 
OTHER_8            .         Режим_ КСА-М1                 : 
OTHER_9            .         Форма_ ТЕРМОМЕТР              : 
PROJECT_UPGRADE_TIME .         2021-03-18T21_24_49           : 
TLFamily_DEPT      .         Measured Depth                : 
TLFamily_GK        .         Gamma Ray                     : 
TLFamily_GK$       .                                       : 
TLFamily_LM        .         Casing Collar locator         : 
TLFamily_METKA     .                                       : 
TLFamily_MN        .                                       : 
TLFamily_MN$       .                                       : 
TLFamily_RCOR      .                                       : 
TLFamily_SPID      .         Spontaneous Potential         : 
TLFamily_STD       .                                       : 
TLFamily_TENS      .         Cable Tension                 : 
TLFamily_TIME      .         Time                          : 
TLFamily_TM        .         Temperature                   : 
TLFamily_TM$       .         Temperature                   : 
TLFamily_VGD       .         Gas Volume                    : 
group              .         prim                          : 
~Curve Information
#_______________________________________________________________________________
#
#LOGNAME           .UNIT     LOG_ID                        : DESCRIPTION
#_______________________________________________________________________________
DEPT               .M                                      : 1 Глубина, м -    0.0 см 
GK                 .MKR/H                                  : 15 Гамма-активность, мкр./ч -  110.0 см 
GK$                .UE                                     : 12 Гамма-активность, усл.ед. -  110.0 см 
LM                 .                                       : 10 Локатор муфт,  -   20.0 см 
METKA              .                                       : 3 Метки,  -    0.0 см 
MN                 .ATM                                    : 14 Давление, атм. -  160.0 см 
MN$                .UE                                     : 8 Давление, усл.ед. -  160.0 см 
RCOR               .CM/KM                                  : 5 Коррекция по ролику, см/км -    0.0 см 
SPID               .M/H                                    : 2 Скорость, м/час -    0.0 см 
STD                .                                       : 11 Приток,  -  170.0 см 
TENS               .T                                      : 6 Натяжение кабеля, т -    0.0 см 
TIME               .S                                      : 4 Время, сек -    0.0 см 
TM                 .GRD                                    : 13 Температура, °C -  180.0 см 
TM$                .UE                                     : 7 Температура, усл.ед. -  180.0 см 
VGD                .                                       : 9 Влагомер,  -  170.0 см 
~Ascii
# ...
1131.8     2.87       125        53         0          101.811    6930       -1400      1913       11841      0          12502      38.657     9888       6324      
1132       2.89       126        50         0          101.816    6930       -1400      1914       11842      0          12502.37   38.664     9889       6324      
1132.2     2.91       126        38         0          101.836    6931       -1400      1914       11846      0          12502.76   38.669     9891       6324      
1132.4     2.92       126        39         0          101.856    6932       -1400      1915       11848      0          12503.11   38.677     9893       6325      
1132.6     2.93       126        55         0          101.874    6933       -1400      1915       11851      0          12503.48   38.685     9894       6324      
1132.8     2.94       126        48         0          101.895    6934       -1400      1916       11854      0          12503.86   38.692     9896       6323      
1133       3.04       139        48         0          101.915    6935       -1400      1916       11857      0          12504.24   38.7       9898       6323      
1133.2     3.2        150        52         0          101.932    6936       -1400      1912       11860      0          12504.6    38.704     9899       6324      
1133.4     3.3        150        67         0          101.933    6936       -1400      1915       11862      0          12504.97   38.712     9901       6324      
1133.6     3.37       150        51         0          101.952    6937       -1400      1922       11865      0          12505.35   38.719     9903       6323      
1133.8     3.41       150        60         0          101.972    6938       -1400      1920       11868      0          12505.72   38.723     9904       6323      
1134       3.44       150        69         0          101.991    6939       -1400      1921       11871      0          12506.09   38.727     9905       6323      
1134.2     3.47       150        59         0          102.01     6940       -1400      1921       11874      0          12506.47   38.734     9907       6323      
1134.4     3.51       153        59         0          102.029    6941       -1400      1915       11876      0          12506.86   38.742     9909       6324      
1134.6     3.65       168        55         0          102.033    6941       -1400      1912       11879      0          12507.25   38.75      9911       6324      
1134.8     3.74       168        55         0          102.048    6942       -1400      1913       11881      0          12507.62   38.755     9912       6323      
1135       3.8        168        42         0          102.067    6943       -1400      1914       11885      0          12508      38.758     9913       6323      
1135.2     3.84       168        48         0          102.087    6944       -1400      1914       11888      0          12508.38   38.765     9914       6323      
1135.4     3.87       168        47         0          102.106    6945       -1400      1915       11892      0          12508.74   38.773     9916       6323      
1135.6     3.89       168        44         0          102.125    6946       -1400      1915       11895      0          12509.12   38.778     9918       6323      
1135.8     3.84       160        33         0          102.145    6947       -1400      1914       11896      0          12509.5    38.784     9919       6324      
1136       3.81       160        41         0          102.165    6948       -1400      1911       11902      0          12509.87   38.792     9921       6323      
1136.2     3.79       160        52         0          102.185    6948       -1400      1918       11903      0          12510.23   38.798     9923       6324      
1136.4     3.77       160        59         0          102.204    6949       -1400      1923       11908      0          12510.62   38.804     9924       6323      
1136.6     3.76       160        65         0          102.224    6950       -1400      1917       11909      0          12510.99   38.811     9926       6323      
1136.8     3.76       160        78         0          102.236    6951       -1400      1917       11914      0          12511.34   38.819     9928       6323      
1137       3.58       138        245        0          102.241    6951       -1400      1918       11917      0          12511.71   38.825     9929       6323      
1137.2     3.4        129        226        0          102.261    6952       -1400      1918       11918      0          12512.1    38.83      9931       6323      
1137.4     3.27       129        126        0          102.281    6953       -1400      1918       11922      0          12512.46   38.838     9933       6323      
1137.6     3.19       129        98         0          102.296    6954       -1400      1918       11923      0          12512.83   38.846     9934       6323      
1137.8     3.13       129        428        0          102.298    6954       -1400      1918       11927      0          12513.25   38.854     9936       6324      
1138       3.1        129        267        0          102.318    6955       -1400      1919       11928      0          12513.62   38.861     9938       6323      
1138.2     3.07       129        235        0          102.338    6956       -1400      1919       11930      0          12513.99   38.865     9939       6324      
1138.4     3.06       130        5886       0          102.375    6958       -1400      1919       11933      0          12514.36   38.873     9941       6324      
1138.6     3.06       131        4124       0          102.396    6959       -1400      1915       11935      0          12514.73   38.88      9943       6324      
1138.8     3.06       131        2698       0          102.398    6959       -1400      1913       11937      0          12515.1    38.869     9940       6324      
1139       3.06       131        1876       0          102.431    6961       -1400      1917       11939      0          12515.47   38.886     9945       6325      
1139.2     3.06       131        1876       0          102.438    6961       -1400      1923       11942      0          12515.84   38.895     9947       6325      
1139.4     3.06       131        1270       0          102.472    6963       -1400      1924       11945      0          12516.23   38.903     9949       6328      
1139.6     3.07       132        818        0          102.494    6964       -1400      1922       11946      0          12516.6    38.908     9950       6329      
1139.8     3.17       144        553        0          102.513    6965       -1400      1928       11950      0          12517      38.918     9952       6329      
1140       3.24       144        377        0          102.519    6965       -1400      1929       11953      0          12517.39   38.926     9954       6329      
1140.2     3.28       144        258        2          102.531    6966       -1400      1922       11953      0          12517.76   38.934     9956       6329      
1140.4     3.31       144        185        0          102.55     6967       -1400      1916       11954      0          12518.12   38.941     9958       6328      
1140.6     3.33       144        153        0          102.569    6967       -1400      1912       11959      0          12518.5    38.949     9960       6329      
1140.8     3.34       144        143        0          102.588    6968       -1400      1912       11961      0          12518.89   38.956     9962       6329      
1141       3.34       142        116        0          102.608    6969       -1400      1908       11964      0          12519.25   38.964     9964       6328      
1141.2     3.33       142        96         0          102.627    6970       -1400      1915       11968      0          12519.61   38.972     9966       6327      
1141.4     3.33       142        109        0          102.64     6971       -1400      1921       11970      0          12520      38.98      9968       6327      
