~Version
 VERS              .         2.0                           : CWLS LOG ASCII STANDARD - VERSION 2.0
 WRAP              .         NO                            : ONE LINE PER DEPTH STEP
 DLM               .         SPACE                         : DELIMITING CHARACTER(SPACE TAB OR COMMA)
~Well Information
#_______________________________________________________________________________
#
#PARAMETER_NAME    .UNIT     VALUE                         : DESCRIPTION
#_______________________________________________________________________________
STRT               .M        44.8                          : First reference value
STOP               .M        2755.2                        : Last reference value
STEP               .M        0.2                           : Step increment
NULL               .         -9999                         : Missing value
COMP               .                                       : Company
WELL               .         616                           : Well name
FLD                .                                       : Field
LOC                .                                       : Location
CNTY               .                                       : County
STAT               .                                       : State
CTRY               .                                       : Country
SRVC               .                                       : Service Company
DATE               .                                       : Date
API                .                                       : API number
PROJECT_UPGRADE_TIME .         2021-03-18T21_24_50           : 
group              .         Good                          : 
~Parameter Information Block
#_______________________________________________________________________________
#
#PARAMETER_NAME    .UNIT     VALUE                         : DESCRIPTION
#_______________________________________________________________________________
SET                .         D4390_D_2                     : 
COMM               .                                       : 
OTHER              .         Запись производится в присутствии: 
OTHER_10           .         Максимальная температура      : 
OTHER_100          .         GK.FLT = 0.1*GR.UR/H[-1] + (1-0.1)*GR.UR/H[0]: 
OTHER_11           .         Тип промывочной жидкости      : 
OTHER_12           .         Сопротивление ПЖ (Ом*м) при 20°C: 
OTHER_13           .         Плотность ПЖ(г/см3)           : 
OTHER_14           .         Вязкость ПЖ(с)                : 
OTHER_15           .         Водоотдача ПЖ(см3/30мин)      : 
OTHER_16           .         Уровень ПЖ                    : 
OTHER_17           .         Нефть ПЖ (%)                  : 
OTHER_18           .         Барит ПЖ (%)                  : 
OTHER_19           .         Гематит ПЖ (%)                : 
OTHER_2            .         Заказчик ННСН  ЦДНГ-1         : 
OTHER_20           .         КМЦ ПЖ (%)                    : 
OTHER_21           .         Разгазирование ПЖ (да,нет)    : 
OTHER_22           .         Подъемник                     : 
OTHER_23           .         Лаборатория                   : 
OTHER_24           .         Тип кабеля                    : 
OTHER_25           .         Длина кабеля (м)              : 
OTHER_26           .         Цена последней метки          : 
OTHER_27           .         Цена контрольной метки        : 
OTHER_28           .         Диаметр долота (мм)           : 
OTHER_29           .         Глубина бурения (м)           : 
OTHER_3            .         Площадь                       : 
OTHER_30           .         Искусственный забой (м)       : 
OTHER_31           .         Диаметр колонны (мм)          : 
OTHER_32           .         Толщина колонны (мм)          : 
OTHER_33           .         Башмак колонны (м)            : 
OTHER_34           .         Диаметр НКТ (мм)              : 
OTHER_35           .         Толщина НКТ (мм)              : 
OTHER_36           .         Воронка НКТ (м)               : 
OTHER_37           .         Дата цементожа                : 
OTHER_38           .         Тип, количество(т) и плотность цемента: 
OTHER_39           .         Интервалы перфорации (м)      : 
OTHER_4            .         Категория                     : 
OTHER_40           .         Направление, диаметр (мм)     : 
OTHER_41           .         Направление, глубина (м)      : 
OTHER_42           .         Кондуктор, диаметр (мм)       : 
OTHER_43           .         Кондуктор, глубина (м)        : 
OTHER_44           .         Техническая колонна, диаметр (мм): 
OTHER_45           .         Техническая колонна, глубина (м): 
OTHER_46           .         Эксплуатационная колонна, диаметр (мм): 
OTHER_47           .         Эксплуатационная колонна, глубина (м): 
OTHER_48           .         Программа Кедр-02 версия 3.4  : 
OTHER_49           .         Операционная система Windows NT 5.1 build 2600 Service Pack 2: 
OTHER_5            .         Назначение исследований       : 
OTHER_50           .         Программное обеспечение станции MONITOR-386EX 25/12/99 15_08_10   BGF V54 20/09/05 15_32_17   3.3__BGF_9030071: 
OTHER_51           .         Kedr.exe версия 3.4.2.74      : 
OTHER_52           .         KedrData.dll версия 3.4.2.29  : 
OTHER_53           .         Мнемоники версия 3.18 S       : 
OTHER_54           .         Драйвер версия 2.1.1.4        : 
OTHER_55           .         LasInf.dll 4.3.0.35           : 
OTHER_56           .         Прибор_ КСА-Т4                : 
OTHER_57           .         Номер прибора_ 160            : 
OTHER_58           .         Режим_ КСА-Т4                 : 
OTHER_59           .         Форма_ С.А.Б.                 : 
OTHER_6            .         Альтитуда стола ротора        : 
OTHER_60           .         Тарировки_                    : 
OTHER_61           .         <_techsia_sc_> Дата тарировки температуры 25.05.2010: 
OTHER_62           .         Ручной ввод коэффициентов     : 
OTHER_63           .         TM.DEGC = 0.00402*RTM.E.ACP + -0.994: 
OTHER_64           .         <_techsia_sc_> Дата тарировки давления 25.05.2010: 
OTHER_65           .         Ручной ввод коэффициентов     : 
OTHER_66           .         MN.ATM = (2.27521e-006*TM.DEGC + 0.02078)*(RMN.E.ACP + 6.2*TM.DEGC + -1688): 
OTHER_67           .         <_techsia_sc_> Дата тарировки ГК 25.05.2010: 
OTHER_68           .         Ручной ввод коэффициентов     : 
OTHER_69           .         GR.UR/H = RGR.IMP/MIN / 45.5144: 
OTHER_7            .         Вид исследований 3  6         : 
OTHER_70           .         GK.FLT = 0.1*GR.UR/H[-1] + (1-0.1)*GR.UR/H[0]: 
OTHER_71           .         <_techsia_sc_> Дата тарировки температуры 25.05.2010: 
OTHER_72           .         Ручной ввод коэффициентов     : 
OTHER_73           .         TM.DEGC = 0.00402*RTM.E.ACP + -0.994: 
OTHER_74           .         <_techsia_sc_> Дата тарировки давления 25.05.2010: 
OTHER_75           .         Ручной ввод коэффициентов     : 
OTHER_76           .         MN.ATM = (2.27521e-006*TM.DEGC + 0.02078)*(RMN.E.ACP + 6.2*TM.DEGC + -1688): 
OTHER_77           .         <_techsia_sc_> Дата тарировки ГК 25.05.2010: 
OTHER_78           .         Ручной ввод коэффициентов     : 
OTHER_79           .         GR.UR/H = RGR.IMP/MIN / 45.5144: 
OTHER_8            .         Начало бурения интервала каротажа: 
OTHER_80           .         GK.FLT = 0.1*GR.UR/H[-1] + (1-0.1)*GR.UR/H[0]: 
OTHER_81           .         <_techsia_sc_> Дата тарировки температуры 25.05.2010: 
OTHER_82           .         Ручной ввод коэффициентов     : 
OTHER_83           .         TM.DEGC = 0.00402*RTM.E.ACP + -0.994: 
OTHER_84           .         <_techsia_sc_> Дата тарировки давления 25.05.2010: 
OTHER_85           .         Ручной ввод коэффициентов     : 
OTHER_86           .         MN.ATM = (2.27521e-006*TM.DEGC + 0.02078)*(RMN.E.ACP + 6.2*TM.DEGC + -1688): 
OTHER_87           .         <_techsia_sc_> Дата тарировки ГК 25.05.2010: 
OTHER_88           .         Ручной ввод коэффициентов     : 
OTHER_89           .         GR.UR/H = RGR.IMP/MIN / 45.5144: 
OTHER_9            .         Окончание бурения интервала каротажа: 
OTHER_90           .         GK.FLT = 0.1*GR.UR/H[-1] + (1-0.1)*GR.UR/H[0]: 
OTHER_91           .         <_techsia_sc_> Дата тарировки температуры 25.05.2010: 
OTHER_92           .         Ручной ввод коэффициентов     : 
OTHER_93           .         TM.DEGC = 0.00402*RTM.E.ACP + -0.994: 
OTHER_94           .         <_techsia_sc_> Дата тарировки давления 25.05.2010: 
OTHER_95           .         Ручной ввод коэффициентов     : 
OTHER_96           .         MN.ATM = (2.27521e-006*TM.DEGC + 0.02078)*(RMN.E.ACP + 6.2*TM.DEGC + -1688): 
OTHER_97           .         <_techsia_sc_> Дата тарировки ГК 25.05.2010: 
OTHER_98           .         Ручной ввод коэффициентов     : 
OTHER_99           .         GR.UR/H = RGR.IMP/MIN / 45.5144: 
PROJECT_UPGRADE_TIME .         2021-03-18T21_24_50           : 
PRTY               .         ПП-601-1                      : N партии
SRVC               .         Барковский                    : Начальник партии
TLFamily_DEPT      .         Measured Depth                : 
TLFamily_LM        .         Casing Collar locator         : 
TLFamily_METKA     .                                       : 
TLFamily_MN        .                                       : 
TLFamily_TM        .         Temperature                   : 
group              .         second                        : 
~Curve Information
#_______________________________________________________________________________
#
#LOGNAME           .UNIT     LOG_ID                        : DESCRIPTION
#_______________________________________________________________________________
DEPT               .M                                      : Depth curve 
LM                 .е.ацп                                  : Локатор муфт,е.ацп 
METKA              .е.ацп                                  : Магнитные метки,е.ацп 
MN                 .атм                                    : 12 Давление, атм. -  160.0 см 
TM                 .град.C                                 : Термограмма по стволу скважины,град.C 
~Ascii
# ...
1650.8     759.011    0          145.342    43.279    
1651       849.978    0          145.364    43.286    
1651.2     658.992    0          145.386    43.293    
1651.4     590        0          145.397    43.294    
1651.6     589.009    0          145.408    43.299    
1651.8     662.992    0          145.409    43.305    
1652       594.996    0          145.451    43.31     
1652.2     558.992    0          145.457    43.316    
1652.4     491.03     0          145.474    43.322    
1652.6     747.6      0          145.488    43.327    
1652.8     5922.761   0          145.513    43.331    
1653       3863.867   0          145.538    43.335    
1653.2     2713.854   0          145.539    43.34     
1653.4     1453.961   0          145.548    43.346    
1653.6     1113.986   0          145.575    43.351    
1653.8     989.985    0          145.601    43.357    
1654       859.998    0          145.626    43.364    
1654.2     845.984    0          145.631    43.372    
1654.4     707.008    0          145.649    43.378    
1654.6     777.014    0          145.67     43.382    
1654.8     895.983    0          145.692    43.387    
1655       753.009    0          145.714    43.392    
1655.2     834.069    0          145.717    43.397    
1655.4     1431.97    0          145.743    43.405    
1655.6     1170.003   0          145.758    43.411    
1655.8     1196.013   0          145.773    43.416    
1656       1305.959   0          145.781    43.424    
1656.2     948.96     0          145.805    43.429    
1656.4     608.008    0          145.825    43.437    
1656.6     672.988    0          145.836    43.443    
1656.8     568.012    0          145.874    43.447    
1657       675.034    0          145.889    43.452    
1657.2     963.978    0          145.911    43.457    
1657.4     778.994    0          145.912    43.462    
1657.6     728.008    0          145.923    43.47     
1657.8     800.992    0          145.947    43.475    
1658       729.99     0          145.956    43.48     
1658.2     647.983    0          145.981    43.487    
1658.4     502        0          146.021    43.494    
1658.6     499.022    0          146.031    43.499    
1658.8     684.987    0          146.056    43.507    
1659       572.013    0          146.048    43.512    
1659.2     686.984    0          146.066    43.517    
1659.4     553.017    0          146.091    43.522    
1659.6     701.995    0          146.109    43.527    
1659.8     660.012    0          146.11     43.536    
1660       759.989    0          146.145    43.541    
1660.2     669.007    0          146.153    43.545    
1660.4     733.005    0          146.178    43.55     
1660.6     772.99     0          146.197    43.558    
1660.8     684.997    0          146.198    43.564    
1661       659.002    0          146.215    43.569    
1661.2     672.005    0          146.24     43.577    
1661.4     714.991    0          146.264    43.584    
1661.6     638.998    0          146.27     43.591    
1661.8     618.687    0          146.295    43.595    
1662       6507.745   0          146.321    43.6      
1662.2     4320.835   0          146.33     43.606    
1662.4     2906.888   0          146.333    43.614    
1662.6     1945.888   0          146.373    43.618    
1662.8     982.976    0          146.382    43.623    
1663       776.994    0          146.408    43.628    
1663.2     722.99     0          146.4      43.633    
1663.4     638.001    0          146.436    43.637    
1663.6     642.997    0          146.46     43.645    
1663.8     619.999    0          146.474    43.651    
1664       615.005    0          146.492    43.656    
1664.2     654.006    0          146.499    43.665    
1664.4     704.998    0          146.524    43.669    
1664.6     687.008    0          146.551    43.674    
1664.8     757.997    0          146.563    43.679    
1665       731.996    2          146.56     43.684    
1665.2     695.992    0          146.586    43.689    
1665.4     629.992    0          146.611    43.696    
1665.6     564.014    0          146.636    43.7      
1665.8     681.002    0          146.636    43.707    
1666       698.998    0          146.655    43.712    
1666.2     681.011    0          146.68     43.717    
1666.4     777.975    0          146.699    43.722    
1666.6     563.013    0          146.723    43.727    
1666.8     671.02     0          146.734    43.732    
1667       839.987    0          146.745    43.741    
1667.2     728.989    0          146.765    43.742    
1667.4     635.003    0          146.788    43.747    
1667.6     661.995    0          146.796    43.752    
1667.8     615.992    0          146.811    43.756    
1668       549.02     0          146.843    43.761    
1668.2     721.007    0          146.854    43.766    
1668.4     780        0          146.875    43.771    
1668.6     780.986    0          146.885    43.776    
1668.8     660.016    0          146.91     43.781    
1669       792.997    0          146.936    43.786    
1669.2     765.981    0          146.941    43.792    
1669.4     605.998    0          146.963    43.799    
1669.6     592.017    0          146.974    43.804    
1669.8     734.988    0          147        43.809    
1670       631.978    0          147.026    43.814    
1670.2     443.004    0          147.032    43.819    
1670.4     478.008    0          147.05     43.824    
1670.6     550.056    0          147.073    43.829    
1670.8     1029.991   0          147.093    43.834    
1671       952.982    0          147.076    43.839    
1671.2     802.98     0          147.116    43.844    
1671.4     633.989    0          147.127    43.849    
1671.6     541.988    0          147.154    43.854    
1671.8     436.78     0          147.161    43.859    
1672       7077.708   0          147.186    43.864    
1672.2     4592.826   0          147.213    43.869    
1672.4     3110.877   0          147.239    43.873    
1672.6     2064.884   0          147.228    43.878    
1672.8     1080.984   0          147.267    43.883    
1673       946.975    0          147.275    43.888    
1673.2     734.997    0          147.302    43.893    
1673.4     708.01     0          147.311    43.897    
1673.6     794.99     0          147.334    43.901    
1673.8     712.009    0          147.362    43.908    
1674       787.997    0          147.387    43.913    
1674.2     764.994    0          147.377    43.918    
1674.4     716.004    0          147.414    43.922    
1674.6     749.008    0          147.423    43.927    
1674.8     819.979    2          147.442    43.932    
1675       640.006    0          147.454    43.937    
1675.2     690.995    0          147.48     43.946    
1675.4     649.009    0          147.486    43.951    
1675.6     725.991    0          147.508    43.956    
1675.8     653.003    0          147.508    43.961    
1676       680.039    0          147.522    43.966    
1676.2     1012.979   0          147.549    43.971    
1676.4     835.995    0          147.553    43.977    
1676.6     795.046    0          147.577    43.984    
1676.8     1184.963   0          147.596    43.989    
1677       868.998    0          147.609    43.994    
1677.2     849.979    0          147.635    43.999    
1677.4     673.982    0          147.621    44.007    
1677.6     517.998    0          147.667    44.012    
1677.8     498.004    0          147.684    44.017    
1678       528.038    0          147.698    44.022    
1678.2     850.987    0          147.707    44.031    
1678.4     738.983    0          147.731    44.036    
1678.6     596.033    0          147.75     44.044    
1678.8     878.982    0          147.774    44.046    
1679       728.017    0          147.793    44.051    
1679.2     869.988    0          147.794    44.056    
1679.4     767.994    0          147.815    44.061    
1679.6     714        0          147.832    44.065    
1679.8     711.994    0          147.859    44.074    
