~Version
 VERS              .         2.0                           : CWLS LOG ASCII STANDARD - VERSION 2.0
 WRAP              .         NO                            : ONE LINE PER DEPTH STEP
 DLM               .         SPACE                         : DELIMITING CHARACTER(SPACE TAB OR COMMA)
~Well Information
#_______________________________________________________________________________
#
#PARAMETER_NAME    .UNIT     VALUE                         : DESCRIPTION
#_______________________________________________________________________________
STRT               .M        10.2                          : First reference value
STOP               .M        2753.6                        : Last reference value
STEP               .M        0.2                           : Step increment
NULL               .         -9999                         : Missing value
COMP               .                                       : Company
WELL               .         616                           : Well name
FLD                .                                       : Field
LOC                .                                       : Location
CNTY               .                                       : County
STAT               .                                       : State
CTRY               .                                       : Country
SRVC               .                                       : Service Company
DATE               .                                       : Date
API                .                                       : API number
PROJECT_UPGRADE_TIME .         2021-03-18T21_24_50           : 
group              .         Good                          : 
~Parameter Information Block
#_______________________________________________________________________________
#
#PARAMETER_NAME    .UNIT     VALUE                         : DESCRIPTION
#_______________________________________________________________________________
SET                .         D7028_D                       : 
OTHER              .         Kedr.exe версия 2.1.2.32      : 
OTHER_10           .         TM.GRD = 0.00404*TM$.UE + 0.07: 
OTHER_11           .         MN.ATM = (6.33279e-006*TM.GRD + 0.02401)*(MN$.UE + 2.72*TM.GRD + -2018): 
OTHER_12           .         GK.MKR/H = GK$.UE / 43.5489 + 0: 
OTHER_13           .         RES.SM = 0.00476*CRES.UE - 1.51709: 
OTHER_14           .         PL.GSM3 = 0 + 0 * (PL.UE / 1) +  0 * (PL.UE / 1)^2: 
OTHER_15           .         Постоянная времени ГГП = 6 сек: 
OTHER_16           .         Постоянная времени ГК = 6 сек : 
OTHER_2            .         KedrData.dll версия 3.2.2.14  : 
OTHER_3            .         LasInf.dll версия 3.2.0.13    : 
OTHER_4            .         Драйвер версия 1.2.0.5        : 
OTHER_5            .         Прибор_ КСА-M1                : 
OTHER_6            .         Номер прибора_ 155+р204       : 
OTHER_7            .         Режим_ КСА-М1 + ГГП + Резистивиметр: 
OTHER_8            .         Форма_ 223\2                  : 
OTHER_9            .         Тарировки_                    : 
PROJECT_UPGRADE_TIME .         2021-03-18T21_24_50           : 
TLFamily_CRES      .                                       : 
TLFamily_DEPT      .         Measured Depth                : 
TLFamily_GK        .         Gamma Ray                     : 
TLFamily_GK$       .                                       : 
TLFamily_LM        .         Casing Collar locator         : 
TLFamily_METKA     .                                       : 
TLFamily_MN        .                                       : 
TLFamily_MN$       .                                       : 
TLFamily_PL        .                                       : 
TLFamily_PL_2      .                                       : 
TLFamily_RCOR      .                                       : 
TLFamily_RES       .         Mud Resistivity               : 
TLFamily_SPID      .         Spontaneous Potential         : 
TLFamily_STD       .                                       : 
TLFamily_TIME      .         Time                          : 
TLFamily_TM        .         Temperature                   : 
TLFamily_TM$       .         Temperature                   : 
TLFamily_VGD       .         Gas Volume                    : 
group              .         prim                          : 
~Curve Information
#_______________________________________________________________________________
#
#LOGNAME           .UNIT     LOG_ID                        : DESCRIPTION
#_______________________________________________________________________________
DEPT               .M                                      : 1 Глубина, м -    0.0 см 
CRES               .UE                                     : 9 Проводимость, усл.ед. -  222.0 см 
GK                 .MKR/H                                  : 16 Гамма-активность, мкр./ч -  106.0 см 
GK$                .UE                                     : 13 Гамма-активность, усл.ед. -  106.0 см 
LM                 .                                       : 11 Локатор муфт,  -   16.0 см 
METKA              .                                       : 3 Метки,  -    0.0 см 
MN                 .ATM                                    : 15 Давление, атм. -  160.0 см 
MN$                .UE                                     : 7 Давление, усл.ед. -  160.0 см 
PL                 .UE                                     : 10 Плотность, усл.ед. -  270.0 см 
PL_2               .GSM3                                   : 18 Плотность, г./см3 -  270.0 см 
RCOR               .CM/KM                                  : 5 Коррекция по ролику, см/км -    0.0 см 
RES                .SM                                     : 17 Проводимость,  -  222.0 см 
SPID               .M/H                                    : 2 Скорость, м/час -    0.0 см 
STD                .                                       : 12 Приток,  -  170.0 см 
TIME               .S                                      : 4 Время, сек -    0.0 см 
TM                 .GRD                                    : 14 Температура, °C -  180.0 см 
TM$                .UE                                     : 6 Температура, усл.ед. -  180.0 см 
VGD                .                                       : 8 Влагомер,  -  170.0 см 
~Ascii
# ...
190.6      713        2.81       119        6484       0          18.46      2746       13         0          0          1.8768     -1790      2745       23819.86   14.045     3459       6656      
190.8      717        2.83       119        2231       0          18.486     2747       14         0          0          1.8943     -1853      2745       23819.46   14.044     3459       6653      
191        711        2.86       119        1238       0          18.489     2747       13         0          0          1.8665     -1860      2746       23819.08   14.044     3459       6655      
191.2      715        2.91       119        1563       0          18.489     2747       14         0          0          1.8876     -1857      2746       23818.68   14.048     3460       6656      
191.4      720        2.95       119        1232       0          18.537     2749       14         0          0          1.9101     -1794      2745       23818.3    14.048     3460       6656      
191.6      712        3          124        1422       0          18.544     2749       14         0          0          1.872      -1860      2746       23817.9    14.045     3459       6656      
191.8      714        3.04       129        1448       0          18.58      2751       13         0          0          1.8794     -1842      2746       23817.5    14.048     3460       6655      
192        709        3.05       129        1508       0          18.585     2751       13         0          0          1.8578     -1813      2747       23817.1    14.045     3459       6655      
192.2      720        3.08       129        1686       0          18.606     2752       13         0          0          1.9101     -1860      2747       23816.71   14.048     3460       6653      
192.4      721        3.11       129        1530       0          18.61      2752       13         0          0          1.9163     -1827      2746       23816.32   14.048     3460       6652      
192.6      723        3.14       129        1656       0          18.655     2754       13         0          0          1.923      -1829      2745       23815.92   14.048     3460       6653      
192.8      723        3.19       129        1633       0          18.658     2754       13         0          0          1.9244     -1860      2747       23815.52   14.048     3460       6654      
193        724        3.24       145        1798       0          18.659     2754       14         0          0          1.9281     -1809      2746       23815.12   14.052     3461       6656      
193.2      725        3.22       145        1733       0          18.69      2755       14         0          0          1.9332     -1790      2747       23814.71   14.052     3461       6657      
193.4      718        3.2        145        1536       0          18.737     2757       13         0          0          1.9024     -1790      2747       23814.33   14.053     3461       6657      
193.6      712        3.16       145        1644       0          18.755     2758       13         0          0          1.8735     -1860      2748       23813.91   14.056     3462       6656      
193.8      705        3.12       145        1445       0          18.765     2758       13         0          0          1.8384     -1856      2748       23813.53   14.056     3462       6657      
194        704        3.07       145        1607       0          18.791     2759       14         0          0          1.8332     -1804      2749       23813.13   14.058     3462       6658      
194.2      703        3          138        1635       0          18.79      2759       14         0          0          1.8313     -1920      2750       23812.74   14.062     3463       6657      
194.4      705        2.96       130        1767       0          18.809     2760       14         0          0          1.8387     -1886      2749       23812.35   14.062     3463       6658      
194.6      705        2.95       130        1666       0          18.845     2762       14         0          0          1.8405     -1831      2749       23811.96   14.061     3463       6656      
194.8      705        2.95       130        1482       0          18.852     2762       14         0          0          1.8371     -1920      2751       23811.57   14.063     3464       6656      
195        704        2.94       130        1413       0          18.872     2763       14         0          0          1.8342     -1861      2750       23811.18   14.065     3464       6656      
195.2      704        2.93       130        1546       0          18.876     2763       14         0          0          1.8358     -1790      2750       23810.79   14.068     3465       6656      
195.4      705        2.91       125        1536       0          18.925     2765       14         0          0          1.8408     -1790      2750       23810.4    14.065     3464       6657      
195.6      704        2.92       125        1650       0          18.949     2766       14         0          0          1.8328     -1834      2751       23810.01   14.069     3465       6658      
195.8      703        2.93       125        2045       0          18.954     2766       13         0          0          1.8292     -1860      2750       23809.59   14.072     3466       6657      
196        704        2.95       125        1628       0          18.973     2767       14         0          0          1.8337     -1860      2751       23809.2    14.07      3465       6657      
196.2      703        2.96       125        1603       0          18.98      2767       14         0          0          1.8292     -1860      2752       23808.81   14.076     3467       6658      
196.4      706        2.99       125        1576       0          19.016     2769       14         0          0          1.8425     -1794      2751       23808.42   14.073     3466       6657      
196.6      704        3.02       128        1607       0          19.045     2770       13         0          0          1.834      -1790      2753       23808.03   14.073     3466       6656      
196.8      704        3.04       133        1684       0          19.057     2771       13         0          0          1.8329     -1860      2753       23807.64   14.074     3466       6657      
197        703        3.03       133        1451       0          19.069     2771       14         0          0          1.8292     -1860      2752       23807.25   14.075     3467       6657      
197.2      703        3.03       133        1540       0          19.085     2772       14         0          0          1.8292     -1848      2753       23806.86   14.075     3467       6656      
197.4      703        3.02       133        1737       0          19.112     2773       15         0          0          1.8292     -1809      2753       23806.46   14.079     3468       6656      
197.6      703        3.01       133        1454       0          19.118     2773       14         0          0          1.8292     -1860      2754       23806.06   14.078     3467       6656      
197.8      704        3          133        1563       0          19.161     2775       14         0          0          1.8342     -1860      2753       23805.66   14.077     3467       6656      
198        705        2.99       129        1386       0          19.166     2775       14         0          0          1.8387     -1860      2753       23805.27   14.08      3468       6657      
198.2      708        3          128        1448       0          19.19      2776       14         0          0          1.8527     -1819      2754       23804.88   14.077     3467       6656      
198.4      707        3.01       128        1752       0          19.214     2777       14         0          0          1.8502     -1790      2754       23804.49   14.081     3468       6657      
198.6      710        3.03       128        1428       0          19.218     2777       14         0          0          1.8643     -1790      2754       23804.08   14.081     3468       6656      
