~Version
 VERS              .         2.0                           : CWLS LOG ASCII STANDARD - VERSION 2.0
 WRAP              .         NO                            : ONE LINE PER DEPTH STEP
 DLM               .         SPACE                         : DELIMITING CHARACTER(SPACE TAB OR COMMA)
~Well Information
#_______________________________________________________________________________
#
#PARAMETER_NAME    .UNIT     VALUE                         : DESCRIPTION
#_______________________________________________________________________________
STRT               .M        10.2                          : First reference value
STOP               .M        2753.6                        : Last reference value
STEP               .M        0.2                           : Step increment
NULL               .         -9999                         : Missing value
COMP               .                                       : Company
WELL               .         616                           : Well name
FLD                .                                       : Field
LOC                .                                       : Location
CNTY               .                                       : County
STAT               .                                       : State
CTRY               .                                       : Country
SRVC               .                                       : Service Company
DATE               .                                       : Date
API                .                                       : API number
PROJECT_UPGRADE_TIME .         2021-03-18T21_24_50           : 
group              .         Good                          : 
~Parameter Information Block
#_______________________________________________________________________________
#
#PARAMETER_NAME    .UNIT     VALUE                         : DESCRIPTION
#_______________________________________________________________________________
SET                .         D7028_D                       : 
OTHER              .         Kedr.exe версия 2.1.2.32      : 
OTHER_10           .         TM.GRD = 0.00404*TM$.UE + 0.07: 
OTHER_11           .         MN.ATM = (6.33279e-006*TM.GRD + 0.02401)*(MN$.UE + 2.72*TM.GRD + -2018): 
OTHER_12           .         GK.MKR/H = GK$.UE / 43.5489 + 0: 
OTHER_13           .         RES.SM = 0.00476*CRES.UE - 1.51709: 
OTHER_14           .         PL.GSM3 = 0 + 0 * (PL.UE / 1) +  0 * (PL.UE / 1)^2: 
OTHER_15           .         Постоянная времени ГГП = 6 сек: 
OTHER_16           .         Постоянная времени ГК = 6 сек : 
OTHER_2            .         KedrData.dll версия 3.2.2.14  : 
OTHER_3            .         LasInf.dll версия 3.2.0.13    : 
OTHER_4            .         Драйвер версия 1.2.0.5        : 
OTHER_5            .         Прибор_ КСА-M1                : 
OTHER_6            .         Номер прибора_ 155+р204       : 
OTHER_7            .         Режим_ КСА-М1 + ГГП + Резистивиметр: 
OTHER_8            .         Форма_ 223\2                  : 
OTHER_9            .         Тарировки_                    : 
PROJECT_UPGRADE_TIME .         2021-03-18T21_24_50           : 
TLFamily_CRES      .                                       : 
TLFamily_DEPT      .         Measured Depth                : 
TLFamily_GK        .         Gamma Ray                     : 
TLFamily_GK$       .                                       : 
TLFamily_LM        .         Casing Collar locator         : 
TLFamily_METKA     .                                       : 
TLFamily_MN        .                                       : 
TLFamily_MN$       .                                       : 
TLFamily_PL        .                                       : 
TLFamily_PL_2      .                                       : 
TLFamily_RCOR      .                                       : 
TLFamily_RES       .         Mud Resistivity               : 
TLFamily_SPID      .         Spontaneous Potential         : 
TLFamily_STD       .                                       : 
TLFamily_TIME      .         Time                          : 
TLFamily_TM        .         Temperature                   : 
TLFamily_TM$       .         Temperature                   : 
TLFamily_VGD       .         Gas Volume                    : 
group              .         prim                          : 
~Curve Information
#_______________________________________________________________________________
#
#LOGNAME           .UNIT     LOG_ID                        : DESCRIPTION
#_______________________________________________________________________________
DEPT               .M                                      : 1 Глубина, м -    0.0 см 
CRES               .UE                                     : 9 Проводимость, усл.ед. -  222.0 см 
GK                 .MKR/H                                  : 16 Гамма-активность, мкр./ч -  106.0 см 
GK$                .UE                                     : 13 Гамма-активность, усл.ед. -  106.0 см 
LM                 .                                       : 11 Локатор муфт,  -   16.0 см 
METKA              .                                       : 3 Метки,  -    0.0 см 
MN                 .ATM                                    : 15 Давление, атм. -  160.0 см 
MN$                .UE                                     : 7 Давление, усл.ед. -  160.0 см 
PL                 .UE                                     : 10 Плотность, усл.ед. -  270.0 см 
PL_2               .GSM3                                   : 18 Плотность, г./см3 -  270.0 см 
RCOR               .CM/KM                                  : 5 Коррекция по ролику, см/км -    0.0 см 
RES                .SM                                     : 17 Проводимость,  -  222.0 см 
SPID               .M/H                                    : 2 Скорость, м/час -    0.0 см 
STD                .                                       : 12 Приток,  -  170.0 см 
TIME               .S                                      : 4 Время, сек -    0.0 см 
TM                 .GRD                                    : 14 Температура, °C -  180.0 см 
TM$                .UE                                     : 6 Температура, усл.ед. -  180.0 см 
VGD                .                                       : 8 Влагомер,  -  170.0 см 
~Ascii
# ...
1109       1021       4.73       224        2353       0          100.769    6071       14         0          0          3.3441     -1790      7356       21984.23   37.603     9290       6523      
1109.2     1022       4.63       220        3043       0          100.794    6072       15         0          0          3.3476     -1834      7357       21983.84   37.606     9291       6520      
1109.4     1022       4.53       207        2352       0          100.795    6073       13         0          0          3.3476     -1860      7358       21983.44   37.609     9292       6531      
1109.6     1020       4.48       207        1765       0          100.808    6073       13         0          0          3.336      -1860      7359       21983.04   37.616     9294       6523      
1109.8     1018       4.42       207        1787       1          100.845    6075       13         0          0          3.3284     -1808      7360       21982.64   37.62      9295       6523      
1110       1023       4.33       207        2589       0          100.857    6075       14         0          0          3.3505     -1790      7362       21982.04   37.624     9296       6532      
1110.2     1022       4.23       207        2717       0          100.87     6076       13         0          0          3.3495     -1811      7363       21981.65   37.63      9297       6528      
1110.4     1023       4.11       207        2115       0          100.896    6077       13         0          0          3.3524     -1837      7362       21981.25   37.634     9298       6527      
1110.6     1023       3.95       193        1877       0          100.892    6076       14         0          0          3.3502     -1790      7362       21980.85   37.636     9299       6524      
1110.8     1022       3.84       168        1762       0          100.898    6077       13         0          0          3.3497     -1790      7364       21980.45   37.643     9300       6526      
1111       1023       3.84       168        1833       0          100.924    6078       13         0          0          3.3524     -1790      7363       21980.04   37.646     9301       6528      
1111.2     1023       3.83       168        1537       0          100.949    6079       13         0          0          3.35       -1823      7364       21979.66   37.651     9302       6535      
1111.4     1023       3.83       168        1572       0          100.975    6080       13         0          0          3.3501     -1860      7366       21979.25   37.654     9303       6538      
1111.6     1023       3.82       168        1576       0          100.982    6080       13         0          0          3.3524     -1825      7367       21978.86   37.66      9304       6535      
1111.8     1022       3.81       167        1946       0          100.989    6080       14         0          0          3.3496     -1829      7367       21978.46   37.663     9305       6534      
1112       1023       3.81       167        2167       0          101.015    6081       14         0          0          3.3506     -1860      7369       21978.06   37.667     9306       6528      
1112.2     1023       3.8        167        2211       0          101.031    6082       13         0          0          3.3533     -1860      7370       21977.67   37.672     9307       6527      
1112.4     1024       3.79       167        3241       0          101.052    6083       15         0          0          3.3562     -1816      7369       21977.27   37.676     9308       6529      
1112.6     1023       3.78       167        2287       0          101.08     6084       14         0          0          3.3524     -1790      7371       21976.88   37.68      9309       6532      
1112.8     1023       3.77       167        1871       0          101.092    6084       13         0          0          3.3524     -1838      7371       21976.48   37.682     9310       6538      
1113       1023       3.75       165        1890       0          101.105    6085       14         0          0          3.3524     -1811      7371       21976.08   37.684     9310       6541      
1113.2     1022       3.74       161        1998       0          101.13     6086       14         0          0          3.3491     -1790      7371       21975.69   37.688     9312       6536      
1113.4     1022       3.75       161        2521       0          101.141    6086       14         0          0          3.3481     -1843      7374       21975.3    37.69      9312       6540      
1113.6     1024       3.76       161        1797       0          101.145    6087       13         0          0          3.3552     -1860      7373       21974.91   37.693     9313       6530      
1113.8     1023       3.78       161        2088       0          101.155    6087       13         0          0          3.3543     -1860      7372       21974.51   37.699     9314       6531      
1114       1024       3.8        161        2123       0          101.186    6088       14         0          0          3.3572     -1804      7376       21974.13   37.705     9316       6534      
1114.2     1024       3.82       163        1905       0          101.204    6089       14         0          0          3.3548     -1790      7377       21973.71   37.704     9315       6536      
1114.4     1023       3.84       165        1976       0          101.221    6090       13         0          0          3.3524     -1790      7377       21973.32   37.708     9316       6536      
1114.6     1023       3.85       165        2222       0          101.229    6090       14         0          0          3.3524     -1849      7378       21972.94   37.713     9318       6535      
1114.8     1023       3.87       165        2152       0          101.248    6091       14         0          0          3.3524     -1860      7380       21972.53   37.72      9319       6536      
1115       1023       3.88       165        2366       0          101.272    6092       15         0          0          3.3524     -1860      7380       21972.14   37.726     9321       6531      
1115.2     1023       3.91       165        1857       0          101.297    6093       13         0          0          3.3524     -1794      7380       21971.74   37.727     9321       6527      
1115.4     1023       3.94       165        2573       0          101.323    6094       15         0          0          3.3524     -1860      7382       21971.34   37.733     9323       6524      
1115.6     1023       3.97       171        3849       0          101.309    6093       14         0          0          3.3524     -1790      7381       21970.94   37.738     9324       6520      
1115.8     1023       3.98       175        5961       0          101.326    6094       15         0          0          3.3524     -1790      7383       21970.56   37.745     9326       6525      
1116       1022       3.97       175        9397       0          101.349    6095       15         0          0          3.3491     -1856      7384       21970.16   37.743     9325       6535      
1116.2     1023       3.96       175        2595       0          101.395    6097       14         0          0          3.3543     -1790      7384       21969.76   37.743     9325       6531      
1116.4     1023       3.95       175        1863       0          101.402    6097       14         0          0          3.3534     -1797      7385       21969.36   37.75      9327       6521      
1116.6     1024       3.93       175        1947       0          101.403    6097       14         0          0          3.356      -1849      7386       21968.96   37.755     9328       6518      
1116.8     1023       3.91       171        2458       0          101.426    6098       14         0          0          3.3536     -1790      7387       21968.58   37.759     9329       6516      
1117       1024       3.9        170        2210       0          101.452    6099       14         0          0          3.3564     -1801      7388       21968.18   37.763     9330       6521      
