~Version
 VERS              .         2.0                           : CWLS LOG ASCII STANDARD - VERSION 2.0
 WRAP              .         NO                            : ONE LINE PER DEPTH STEP
 DLM               .         SPACE                         : DELIMITING CHARACTER(SPACE TAB OR COMMA)
~Well Information
#_______________________________________________________________________________
#
#PARAMETER_NAME    .UNIT     VALUE                         : DESCRIPTION
#_______________________________________________________________________________
STRT               .M        12                            : First reference value
STOP               .M        2758.6                        : Last reference value
STEP               .M        0.2                           : Step increment
NULL               .         -9999                         : Missing value
COMP               .                                       : Company
WELL               .         616                           : Well name
FLD                .                                       : Field
LOC                .                                       : Location
CNTY               .                                       : County
STAT               .                                       : State
CTRY               .                                       : Country
SRVC               .                                       : Service Company
DATE               .                                       : Date
API                .                                       : API number
PROJECT_UPGRADE_TIME .         2021-03-18T21_24_50           : 
group              .         Good                          : 
~Parameter Information Block
#_______________________________________________________________________________
#
#PARAMETER_NAME    .UNIT     VALUE                         : DESCRIPTION
#_______________________________________________________________________________
SET                .         616ULN                        : 
PROJECT_UPGRADE_TIME .         2021-03-18T21_24_49           : 
TLFamily_AK4       .                                       : 
TLFamily_ALFAK     .                                       : 
TLFamily_AMPL      .                                       : 
TLFamily_DEPTH     .         Measured Depth                : 
TLFamily_DK1       .                                       : 
TLFamily_DK2       .                                       : 
TLFamily_DTK       .         Compressional Slowness        : 
TLFamily_QCBL      .                                       : 
TLFamily_T1        .         Travel Time 1                 : 
TLFamily_T2        .         Travel Time 2                 : 
group              .         prim                          : 
~Curve Information
#_______________________________________________________________________________
#
#LOGNAME           .UNIT     LOG_ID                        : DESCRIPTION
#_______________________________________________________________________________
DEPTH              .M                                      : 0 Depth curve 
AK4                .                                       : 2 Амплитуда - Волна по колонне - Канал1 
ALFAK              .дБ/м                                   : 1 Затухание - Волна по колонне 
AMPL               .                                       : 8 Коэффициент усиления ВС 
DK1                .дБ                                     : 3 Кривая ослабления - Волна по колонне - Канал1 
DK2                .дБ                                     : 4 Кривая ослабления - Волна по колонне - Канал2 
DTK                .мкс/м                                  : 5 ДельтаТ - Волна по породе 
QCBL               .                                       : 9 Контакт цемент-колонна 
T1                 .мкс                                    : 6 Время пробега - Волна по породе - Канал1 
T2                 .мкс                                    : 7 Время пробега - Волна по породе - Канал2 
~Ascii
# ...
2567       83.449     46.567     1          44.825     48.829     380.346    3          361.827    554.224   
2567.2     73.146     46.655     1          45.703     49.05      369.067    3          367.122    553.249   
2567.4     65.147     46.384     1          46.407     49.546     354.651    3          373.96     552.048   
2567.6     57.98      46.167     1          46.795     50.129     336.392    3          383.034    551.231   
2567.8     55.841     46.032     1          46.882     50.73      317.58     3          392.063    550.855   
2568       55.553     46.168     1          46.657     51.52      299.681    3          401.003    550.845   
2568.2     58.197     46.41      1          46.54      52.185     287.676    3          407.249    551.089   
2568.4     59.462     46.681     1          46.62      52.416     282.143    3          410.373    551.447   
2568.6     60.444     46.386     1          46.742     52.41      282.567    3          410.799    552.084   
2568.8     58.938     45.64      1          46.965     51.966     282.715    3          410.923    553.107   
2569       57.223     44.578     1          47.213     51.651     285.854    3          410.939    554.582   
2569.2     55.33      43.623     1          47.245     50.984     292.194    3          408.115    556.61    
2569.4     58.904     42.737     1          46.512     50.244     305.779    3          404.617    558.91    
2569.6     65.387     42.022     1          45.433     49.621     317.257    3          400.689    561.213   
2569.8     74.11      41.447     1          44.293     49.288     327.04     3          396.676    562.749   
2570       81.332     40.915     1          43.4       48.778     334.778    3          390.152    563.225   
2570.2     89.241     40.1       1          42.517     48.385     346.04     3          383.203    562.217   
2570.4     95.923     39.149     1          41.858     48.092     352.629    3          374.873    559.994   
2570.6     102.416    38.311     1          41.311     47.824     361.521    3          366.169    556.162   
2570.8     108.914    37.742     1          40.783     47.644     372.715    3          356.846    550.953   
2571       121.996    37.495     1          39.872     47.672     384.43     3          347.556    544.5     
2571.2     136.793    37.619     1          38.908     47.969     392.126    3          338.835    537.635   
2571.4     149.745    38.12      1          38.112     48.087     395.141    3          331.213    530.74    
2571.6     157.977    38.655     1          37.618     47.922     395.78     3          324.823    522.016   
2571.8     160.844    39.053     1          37.454     47.734     385.073    3          319.91     511.749   
2572       156.989    39.316     1          37.674     47.632     362.812    3          320.08     500.54    
2572.2     146.576    39.522     1          38.269     47.583     338.004    3          323.452    491.857   
2572.4     137.248    39.88      1          38.783     47.49      315.733    3          327.702    485.574   
2572.6     130.941    40.376     1          39.143     47.631     301.27     3          331.094    485.283   
2572.8     127.368    41.328     1          39.374     48.028     304.181    3          334.264    489.596   
2573       124.311    42.257     1          39.826     48.82      317.289    3          335.38     496.814   
2573.2     119.682    43.348     1          40.493     49.545     328.951    3          336.354    503.07    
2573.4     113.601    44.121     1          41.513     50.475     338.802    3          337.96     508.856   
2573.6     101.69     44.8       1          42.69      51.183     342.353    3          340.196    512.651   
2573.8     92.387     44.888     1          43.805     51.089     339.789    3          344.856    517.937   
2574       80.636     44.723     1          44.714     50.507     332.937    3          353.007    524.276   
2574.2     74.294     44.346     1          45.102     49.6       323.108    3          364.152    531.668   
2574.4     67.596     43.973     1          45.12      48.523     310.526    3          376.818    538.112   
2574.6     68.316     43.989     1          44.925     47.748     298.093    3          389.392    543.351   
2574.8     69.616     44.879     1          44.501     47.862     285.68     3          399.443    545.6     
2575       73.106     46.529     1          44.06      48.104     277.239    3          405.276    546.298   
2575.2     76.153     48.071     1          44.161     48.478     273.162    3          407.558    545.581   
2575.4     76.441     49.522     1          44.482     48.828     273.561    3          407.708    544.969   
2575.6     76.606     50.191     1          45.629     49.134     277.877    3          405.9      544.612   
2575.8     69.533     49.807     1          46.973     48.734     283.774    3          402.796    544.405   
2576       66.176     49.295     1          48.16      48.032     289.52     3          400.235    543.998   
2576.2     61.912     48.779     1          48.019     47.6       292.387    3          398.129    543.503   
2576.4     65.163     47.647     1          47.702     47.868     293.277    3          396.586    542.405   
2576.6     61.693     46.256     1          46.603     48.133     291.512    3          396.486    541.65    
2576.8     61.884     45.091     1          45.338     48.729     292.738    3          397.182    543.131   
2577       61.187     43.42      1          44.109     49.059     303.458    3          395.806    549.728   
2577.2     64.857     41.908     1          43.393     49.445     331.877    3          390.723    560.571   
2577.4     70.065     41.21      1          42.421     49.456     359.372    3          384.974    569.966   
2577.6     79.941     41.105     1          41.498     50.026     383.499    3          381.022    577.073   
2577.8     92.763     41.439     1          40.692     51.084     391.805    3          378.853    579.841   
2578       101.968    42.037     1          40.045     52.688     388.544    3          380.247    576.991   
2578.2     106.24     42.743     1          39.889     53.801     368.144    3          385.732    570.28    
2578.4     105.614    43.12      1          40.185     54.608     350.76     3          391.784    565.727   
2578.6     100.546    43.231     1          40.91      54.825     335.942    3          396.218    563.279   
2578.8     93.525     42.951     1          41.773     54.681     331.727    3          399.245    562.814   
2579       86.176     42.372     1          42.452     54.525     324.933    3          400.09     561.528   
2579.2     83.56      41.529     1          42.927     54.523     320.964    3          399.864    559.068   
2579.4     83.119     40.863     1          42.988     54.263     317.407    3          397.608    556.419   
2579.6     87.272     40.676     1          42.321     53.477     319.449    3          392.398    553.577   
2579.8     94.201     40.73      1          41.407     52.493     335.062    3          382.096    550.751   
2580       104.394    40.831     1          40.657     51.222     361.665    3          369.435    549.457   
2580.2     111.346    41.112     1          40.072     49.79      385.089    3          358.532    549.502   
2580.4     112.169    41.847     1          40.017     48.375     405.336    3          350.693    549.636   
2580.6     111.036    42.508     1          40.381     47.512     411.26     3          348.404    549.545   
2580.8     109.413    42.942     1          40.759     47.411     395.577    3          354.311    548.525   
2581       104.871    43.025     1          41.198     47.783     370.256    3          364.255    547.122   
2581.2     95.348     42.962     1          41.788     48.319     344.991    3          372.44     545.501   
2581.4     89.251     42.323     1          42.104     49.047     322.344    3          378.867    543.594   
