~Version
 VERS              .         2.0                           : CWLS LOG ASCII STANDARD - VERSION 2.0
 WRAP              .         NO                            : ONE LINE PER DEPTH STEP
 DLM               .         SPACE                         : DELIMITING CHARACTER(SPACE TAB OR COMMA)
~Well Information
#_______________________________________________________________________________
#
#PARAMETER_NAME    .UNIT     VALUE                         : DESCRIPTION
#_______________________________________________________________________________
STRT               .M        2669.6                        : First reference value
STOP               .M        2776.19984                    : Last reference value
STEP               .M        0.1999997                     : Step increment
NULL               .         -9999                         : Missing value
COMP               .                                       : Company
WELL               .         616                           : Well name
FLD                .                                       : Field
LOC                .                                       : Location
CNTY               .                                       : County
STAT               .                                       : State
CTRY               .                                       : Country
SRVC               .                                       : Service Company
DATE               .                                       : Date
API                .                                       : API number
PROJECT_UPGRADE_TIME .         2021-03-18T21_24_50           : 
group              .         Good                          : 
~Parameter Information Block
#_______________________________________________________________________________
#
#PARAMETER_NAME    .UNIT     VALUE                         : DESCRIPTION
#_______________________________________________________________________________
SET                .         D1805_D                       : 
OTHER              .         Программное обеспечение станции MONITOR-386EX 25/12/99 15_08_10   BGF V52 22/08/01 16_56_30   3.1_SNGF___BGF_N_092049: 
OTHER_10           .         Тарировки_                    : 
OTHER_11           .         TM.GRD = 0.00403*TM$.UE + -1.07: 
OTHER_12           .         MN.ATM = (9.34907e-006*TM.GRD + 0.02171)*(MN$.UE + -7.93*TM.GRD + -1787): 
OTHER_13           .         GK.MKR/H = LM. / 42.4676      : 
OTHER_14           .         GK.FLT = 0.1*GK.MKR/H[-1] + (1-0.1)*GK.MKR/H[0]: 
OTHER_2            .         Kedr.exe версия 3.4.2.51      : 
OTHER_3            .         KedrData.dll версия 3.4.2.24  : 
OTHER_4            .         Драйвер версия 2.1.1.3        : 
OTHER_5            .         Мнемоники версия 3.3 S        : 
OTHER_6            .         Прибор_ КСА-Т4                : 
OTHER_7            .         Номер прибора_ 03             : 
OTHER_8            .         Режим_ КСА-Т4                 : 
OTHER_9            .         Форма_ КВА.                   : 
PROJECT_UPGRADE_TIME .         2021-03-18T21_24_49           : 
TLFamily_DEPT      .         Measured Depth                : 
TLFamily_GK        .         Gamma Ray                     : 
TLFamily_GK$       .                                       : 
TLFamily_GK_2      .         Gamma Ray                     : 
TLFamily_LM        .         Casing Collar locator         : 
TLFamily_METKA     .                                       : 
TLFamily_MN        .                                       : 
TLFamily_MN$       .                                       : 
TLFamily_RCOR      .                                       : 
TLFamily_SPID      .         Spontaneous Potential         : 
TLFamily_TENS      .         Cable Tension                 : 
TLFamily_TIME      .         Time                          : 
TLFamily_TM        .         Temperature                   : 
TLFamily_TM$       .         Temperature                   : 
group              .         prim                          : 
~Curve Information
#_______________________________________________________________________________
#
#LOGNAME           .UNIT     LOG_ID                        : DESCRIPTION
#_______________________________________________________________________________
DEPT               .M                                      : 1 Глубина, м -    0.0 см 
GK                 .MKR/H                                  : 13 Гамма-активность, мкр./ч -  110.0 см 
GK$                .UE                                     : 10 Гамма-активность, усл.ед. -  110.0 см 
GK_2               .FLT                                    : 14 Гамма-активность фильтрованная, мкр./ч -  110.0 см 
LM                 .                                       : 9 Локатор муфт,  -   20.0 см 
METKA              .                                       : 3 Метки,  -    0.0 см 
MN                 .ATM                                    : 12 Давление, атм. -  160.0 см 
MN$                .UE                                     : 8 Давление, усл.ед. -  160.0 см 
RCOR               .CM/KM                                  : 5 Коррекция по ролику, см/км -    0.0 см 
SPID               .M/H                                    : 2 Скорость, м/час -    0.0 см 
TENS               .T                                      : 6 Натяжение кабеля, т -    0.0 см 
TIME               .S                                      : 4 Время, сек -    0.0 см 
TM                 .GRD                                    : 11 Температура, °C -  170.0 см 
TM$                .UE                                     : 7 Температура, усл.ед. -  170.0 см 
~Ascii
# ...
2742.399891 16.29      692        16.25      213        0          334.013    17244      -669       543        0.01       3709.94    49.635     12582     
2742.599891 16.29      692        16.29      286        0          333.94     17241      -669       543        0.01       3711.27    49.619     12578     
2742.79989 15.47      657        15.57      273        0          334.264    17255      -669       547        0.01       3712.61    49.666     12590     
2742.99989 15.47      657        15.47      274        0          333.367    17215      -669       529        0.01       3714       49.728     12605     
2743.19989 13.3       565        13.41      226        0          334.172    17251      -669       530        -0.01      3715.28    49.787     12620     
2743.399889 13.3       565        13.31      241        0          334.782    17279      -669       534        0.01       3716.66    49.793     12621     
2743.599889 11.87      504        11.94      239        0          334.315    17258      -669       540        0.01       3717.94    49.801     12623     
2743.799889 11.92      506        11.91      242        0          334.573    17269      -669       537        0.01       3719.27    49.805     12624     
2743.999888 12.03      511        12.03      231        0          333.114    17204      -669       535        0.01       3720.6     49.817     12627     
2744.199888 11.7       497        11.82      218        0          334.313    17258      -669       538        0          3721.93    49.829     12630     
2744.399888 11.37      483        11.39      249        0          335.116    17294      -669       529        0.01       3723.33    49.809     12625     
2744.599888 10.89      462        11.07      265        0          334.884    17283      -669       537        0.01       3724.59    49.756     12612     
2744.799887 10.41      442        10.43      245        0          334.791    17279      -669       532        0.01       3725.92    49.698     12597     
2744.999887 10.83      460        10.73      225        0          332.689    17184      -669       542        0.01       3727.26    49.652     12586     
2745.199887 10.83      460        10.83      241        0          334.466    17264      -669       539        -0.01      3728.53    49.585     12569     
2745.399886 10.9       463        10.88      251        0          334.437    17263      -669       541        0.01       3729.92    49.486     12545     
2745.599886 10.9       463        10.9       263        0          335.077    17291      -669       538        0.01       3731.19    49.355     12512     
2745.799886 10.48      445        10.52      223        0          334.655    17272      -669       535        0.01       3732.57    49.189     12471     
2745.999885 10.48      445        10.48      286        0          333.406    17216      -669       536        0.01       3733.92    49.066     12441     
2746.199885 10.34      439        10.35      241        0          335.555    17312      -669       532        -0.01      3735.25    48.983     12420     
2746.399885 10.34      439        10.34      258        0          334.088    17246      -669       544        0.01       3736.58    48.924     12405     
2746.599884 10.5       446        10.5       234        0          334.677    17273      -669       538        0.01       3737.9     48.878     12394     
2746.799884 10.5       446        10.5       258        0          335.397    17305      -669       543        0.01       3739.25    48.82      12380     
2746.999884 10.55      448        10.55      242        0          334.285    17255      -669       540        0          3740.52    48.771     12368     
2747.199884 10.55      448        10.55      228        0          336.232    17343      -669       537        -0.01      3741.91    48.734     12358     
2747.399883 10.48      445        10.48      246        0          333.854    17235      -669       533        -0         3743.25    48.717     12354     
2747.599883 9.69       412        9.98       232        0          334.403    17260      -669       533        -0.01      3744.58    48.733     12358     
2747.799883 9.54       405        9.55       244        0          335.249    17298      -669       543        -0.01      3745.92    48.782     12370     
2747.999882 9.65       410        9.61       3448       0          335.354    17303      -669       535        -0.01      3747.19    48.848     12387     
2748.199882 9.68       411        9.68       2175       0          334.862    17281      -669       545        -0         3748.52    48.915     12403     
2748.399882 10.34      439        10.22      604        0          333.679    17228      -669       542        0.01       3749.86    48.963     12415     
2748.599881 10.34      439        10.33      262        0          335.26     17299      -669       544        0.01       3751.15    49.001     12425     
2748.799881 10.69      454        10.64      253        0          335.046    17290      -669       545        0.01       3752.53    49.048     12436     
2748.999881 10.69      454        10.69      257        0          335.444    17308      -669       534        0.01       3753.85    49.116     12453     
2749.199881 11.28      479        11.24      268        0          334.733    17276      -669       540        0.01       3755.19    49.204     12475     
2749.39988 11.28      479        11.28      222        0          334.111    17248      -669       546        0.01       3756.52    49.289     12496     
2749.59988 11.07      470        11.08      230        0          336.703    17365      -669       551        0.01       3757.86    49.379     12518     
2749.79988 10.94      465        10.99      202        0          334.564    17268      -669       542        0.01       3759.18    49.455     12537     
2749.999879 10.31      438        10.33      155        2          335.284    17301      -669       547        0.01       3760.52    49.498     12548     
2750.199879 10.31      438        10.31      179        0          335.742    17322      -676       534        0.01       3762.34    49.564     12564     
2750.399879 10.31      438        10.31      157        0          334.659    17273      -676       530        0.01       3763.69    49.635     12582     
2750.599878 10.48      445        10.42      222        0          335.684    17319      -676       540        0.01       3765.02    49.705     12599     
2750.799878 11.14      473        11.12      166        0          334.299    17257      -676       533        0.01       3766.3     49.802     12623     
2750.999878 11.87      504        11.63      182        0          335.081    17293      -676       543        0.01       3767.62    49.897     12647     
2751.199878 11.87      504        11.87      183        0          335.9      17330      -676       546        0.01       3768.95    50         12672     
2751.399877 11.7       497        11.72      172        0          335.262    17301      -676       546        0.01       3770.22    50.115     12701     
2751.599877 11.7       497        11.7       228        0          334.884    17284      -676       548        0.01       3771.56    50.204     12723     
2751.799877 11.37      483        11.38      210        0          335.796    17325      -676       535        0.01       3772.95    50.309     12749     
2751.999876 11.37      483        11.37      233        0          335.369    17306      -676       543        0.01       3774.28    50.407     12774     
2752.199876 11.8       501        11.78      211        0          333.593    17226      -676       548        0.01       3775.61    50.522     12802     
2752.399876 12.05      512        11.96      196        0          335.334    17305      -676       551        0.01       3776.95    50.649     12834     
2752.599876 12.1       514        12.1       211        0          335.486    17312      -676       556        0.01       3778.28    50.806     12872     
