~Version
 VERS              .         2.0                           : CWLS LOG ASCII STANDARD - VERSION 2.0
 WRAP              .         NO                            : ONE LINE PER DEPTH STEP
 DLM               .         SPACE                         : DELIMITING CHARACTER(SPACE TAB OR COMMA)
~Well Information
#_______________________________________________________________________________
#
#PARAMETER_NAME    .UNIT     VALUE                         : DESCRIPTION
#_______________________________________________________________________________
STRT               .M        2659.2                        : First reference value
STOP               .M        2769.000055                   : Last reference value
STEP               .M        0.2000001                     : Step increment
NULL               .         -9999                         : Missing value
COMP               .                                       : Company
WELL               .         616                           : Well name
FLD                .                                       : Field
LOC                .                                       : Location
CNTY               .                                       : County
STAT               .                                       : State
CTRY               .                                       : Country
SRVC               .                                       : Service Company
DATE               .                                       : Date
API                .                                       : API number
PROJECT_UPGRADE_TIME .         2021-03-18T21_24_50           : 
group              .         Good                          : 
~Parameter Information Block
#_______________________________________________________________________________
#
#PARAMETER_NAME    .UNIT     VALUE                         : DESCRIPTION
#_______________________________________________________________________________
SET                .         D1165_D                       : 
OTHER              .         Программное обеспечение станции MONITOR-386EX 25/12/99 15_08_10   BGF V52 22/08/01 16_56_30   3.2_BGF_N_3070031: 
OTHER_10           .         Тарировки_                    : 
OTHER_11           .         TM.GRD = 0.00403*TM$.UE + -1.19: 
OTHER_12           .         MN.ATM = (7.1e-006*TM.GRD + 0.02017)*(MN$.UE + -3.03*TM.GRD + -1833): 
OTHER_13           .         Id error                      : 
OTHER_2            .         Kedr.exe версия 3.4.2.51      : 
OTHER_3            .         KedrData.dll версия 3.4.2.24  : 
OTHER_4            .         Драйвер версия 2.1.1.8        : 
OTHER_5            .         Мнемоники версия 3.3 S        : 
OTHER_6            .         Прибор_ КСА-М1                : 
OTHER_7            .         Номер прибора_ 265            : 
OTHER_8            .         Режим_ КСА-М1                 : 
OTHER_9            .         Форма_ ТЕРМОМЕТР              : 
PROJECT_UPGRADE_TIME .         2021-03-18T21_24_49           : 
TLFamily_DEPT      .         Measured Depth                : 
TLFamily_GK        .         Gamma Ray                     : 
TLFamily_GK$       .                                       : 
TLFamily_LM        .         Casing Collar locator         : 
TLFamily_METKA     .                                       : 
TLFamily_MN        .                                       : 
TLFamily_MN$       .                                       : 
TLFamily_RCOR      .                                       : 
TLFamily_SPID      .         Spontaneous Potential         : 
TLFamily_STD       .                                       : 
TLFamily_TENS      .         Cable Tension                 : 
TLFamily_TIME      .         Time                          : 
TLFamily_TM        .         Temperature                   : 
TLFamily_TM$       .         Temperature                   : 
TLFamily_VGD       .         Gas Volume                    : 
group              .         prim                          : 
~Curve Information
#_______________________________________________________________________________
#
#LOGNAME           .UNIT     LOG_ID                        : DESCRIPTION
#_______________________________________________________________________________
DEPT               .M                                      : 1 Глубина, м -    0.0 см 
GK                 .MKR/H                                  : 15 Гамма-активность, мкр./ч -  110.0 см 
GK$                .UE                                     : 12 Гамма-активность, усл.ед. -  110.0 см 
LM                 .                                       : 10 Локатор муфт,  -   20.0 см 
METKA              .                                       : 3 Метки,  -    0.0 см 
MN                 .ATM                                    : 14 Давление, атм. -  160.0 см 
MN$                .UE                                     : 8 Давление, усл.ед. -  160.0 см 
RCOR               .CM/KM                                  : 5 Коррекция по ролику, см/км -    0.0 см 
SPID               .M/H                                    : 2 Скорость, м/час -    0.0 см 
STD                .                                       : 11 Приток,  -  170.0 см 
TENS               .T                                      : 6 Натяжение кабеля, т -    0.0 см 
TIME               .S                                      : 4 Время, сек -    0.0 см 
TM                 .GRD                                    : 13 Температура, °C -  180.0 см 
TM$                .UE                                     : 7 Температура, усл.ед. -  180.0 см 
VGD                .                                       : 9 Влагомер,  -  170.0 см 
~Ascii
# ...
2669.000005 5.58       238        1          0          351.328    19000      -1400      657        31451      0          21048.46   85.886     21607      6520      
2669.200005 5.75       250        1          0          348.47     18863      -1400      664        31453      0          21049.56   85.89      21608      6519      
2669.400005 5.85       255        1          0          349.134    18895      -1400      658        31455      0          21050.71   85.897     21610      6519      
2669.600005 6.59       298        1          0          350.409    18956      -1400      654        31455      0          21051.73   85.898     21610      6519      
2669.800005 6.83       298        1          0          348.966    18887      -1400      661        31460      0          21052.79   85.904     21611      6519      
2670.000005 7.02       307        1          1          348.535    18866      -1400      660        31464      0          21053.95   85.906     21612      6519      
2670.200005 7.13       307        1          0          349.13     18895      -1400      663        31462      0          21055.04   85.914     21614      6519      
2670.400006 7.1        299        906        0          350.948    18982      -1400      664        31464      0          21056.1    85.914     21614      6518      
2670.600006 6.95       294        465        0          348.645    18871      -1400      663        31464      0          21057.18   85.918     21615      6517      
2670.800006 6.97       302        1          0          349.218    18899      -1400      660        31468      0          21058.29   85.926     21617      6518      
2671.000006 7.15       310        1          0          350.761    18973      -1400      659        31471      0          21059.37   85.927     21617      6517      
2671.200006 7.22       310        1          0          349.522    18913      -1400      662        31469      0          21060.47   85.931     21618      6519      
2671.400006 7.83       355        1          0          347.803    18831      -1400      665        31472      0          21061.56   85.937     21620      6518      
2671.600006 8.14       355        1          0          349.749    18924      -1400      664        31471      0          21062.66   85.939     21620      6518      
2671.800006 8.28       359        1          0          351.12     18990      -1400      664        31476      0          21063.76   85.944     21621      6518      
2672.000006 8.35       359        1          0          348.954    18886      -1400      663        31481      0          21064.85   85.95      21623      6517      
2672.200006 8.38       359        1          0          349.112    18894      -1400      661        31484      0          21065.95   85.955     21624      6518      
2672.400007 8.54       369        1          0          349.972    18935      -1400      662        31488      0          21067.04   85.959     21625      6517      
2672.600007 8.62       368        1          0          348.994    18888      -1400      657        31488      0          21068.11   85.959     21625      6518      
2672.800007 8.69       368        1          0          348.773    18877      -1400      658        31493      0          21069.24   85.963     21626      6518      
2673.000007 8.77       368        1          0          349.178    18897      -1400      654        31492      0          21070.29   85.971     21628      6517      
2673.200007 8.85       367        1          0          349.556    18915      -1400      656        31495      0          21071.37   85.973     21629      6516      
2673.400007 8.71       367        1          0          349.934    18933      -1400      659        31497      0          21072.47   85.977     21630      6516      
2673.600007 8.66       370        1          0          350.312    18951      -1400      657        31499      0          21073.58   85.981     21630      6516      
2673.800007 8.71       374        1          0          350.858    18978      -1400      655        31502      0          21074.69   85.984     21631      6515      
2674.000007 8.78       380        1          0          348.816    18879      -1400      654        31504      0          21075.8    85.987     21632      6517      
2674.200007 8.94       386        1          0          348.984    18887      -1400      652        31507      0          21076.91   85.992     21633      6514      
2674.400008 9          386        1          0          349.189    18897      -1400      650        31505      0          21077.95   85.995     21634      6517      
2674.600008 8.99       385        1          0          350.773    18973      -1400      656        31509      0          21079.04   85.999     21635      6517      
2674.800008 8.96       384        1          0          349.338    18904      -1400      660        31514      0          21080.08   86.002     21636      6515      
2675.000008 8.94       383        1          0          348.892    18883      -1400      658        31514      0          21081.24   86.004     21636      6515      
2675.200008 8.92       383        1          0          348.796    18878      -1400      662        31518      0          21082.29   86.012     21638      6516      
2675.400008 8.73       359        1          0          348.701    18874      -1400      665        31521      0          21083.38   86.015     21639      6516      
2675.600008 8.47       356        1          0          348.606    18869      -1400      667        31524      0          21084.52   86.017     21640      6516      
2675.800008 8.38       356        1          0          348.51     18864      -1400      656        31528      0          21085.59   86.02      21640      6516      
2676.000008 8.24       349        1          0          350.865    18978      -1400      658        31529      0          21086.66   86.023     21641      6516      
2676.200008 8.19       349        1          0          349.129    18894      -1400      665        31531      0          21087.73   86.031     21643      6516      
2676.400009 8.2        352        1          0          349.893    18931      -1400      659        31528      0          21088.9    86.035     21644      6512      
2676.600009 8.22       352        1          0          351.385    19003      -1400      658        31531      0          21089.96   86.035     21644      6511      
2676.800009 8.28       358        1          0          348.171    18848      -1400      662        31534      0          21091.05   86.039     21645      6511      
2677.000009 8.5        369        1          0          349.198    18897      -1400      654        31535      0          21092.14   86.047     21647      6511      
2677.200009 8.66       378        1          0          348.559    18867      -1400      648        31538      0          21093.3    86.051     21648      6511      
2677.400009 9.2        405        1          0          350.313    18951      -1400      641        31539      0          21094.5    86.055     21649      6510      
2677.600009 9.37       405        1          0          349.291    18902      -1400      626        31544      0          21095.7    86.06      21650      6511      
2677.800009 9.26       390        1          0          349.918    18932      -1400      616        31544      0          21096.97   86.06      21650      6511      
2678.000009 9.17       390        1          0          351.795    19022      -1400      609        31547      0          21098.13   86.065     21651      6510      
2678.200009 9.1        385        1          0          349.148    18895      -1400      608        31548      0          21099.33   86.068     21652      6511      
2678.40001 9.02       384        1          0          349.646    18919      -1400      600        31548      0          21100.62   86.074     21654      6509      
2678.60001 8.98       382        1          0          349.822    18927      -1400      595        31554      0          21101.82   86.076     21654      6511      
