~Version
 VERS              .         2.0                           : CWLS LOG ASCII STANDARD - VERSION 2.0
 WRAP              .         NO                            : ONE LINE PER DEPTH STEP
 DLM               .         SPACE                         : DELIMITING CHARACTER(SPACE TAB OR COMMA)
~Well Information
#_______________________________________________________________________________
#
#PARAMETER_NAME    .UNIT     VALUE                         : DESCRIPTION
#_______________________________________________________________________________
STRT               .M        2667.4                        : First reference value
STOP               .M        2776                          : Last reference value
STEP               .M        0.2000002                     : Step increment
NULL               .         -9999                         : Missing value
COMP               .                                       : Company
WELL               .         616                           : Well name
FLD                .                                       : Field
LOC                .                                       : Location
CNTY               .                                       : County
STAT               .                                       : State
CTRY               .                                       : Country
SRVC               .                                       : Service Company
DATE               .                                       : Date
API                .                                       : API number
PROJECT_UPGRADE_TIME .         2021-03-18T21_24_50           : 
group              .         Good                          : 
~Parameter Information Block
#_______________________________________________________________________________
#
#PARAMETER_NAME    .UNIT     VALUE                         : DESCRIPTION
#_______________________________________________________________________________
SET                .         D1800_D                       : 
OTHER              .         Программное обеспечение станции MONITOR-386EX 25/12/99 15_08_10   BGF V52 22/08/01 16_56_30   3.1_SNGF___BGF_N_092049: 
OTHER_10           .         Тарировки_                    : 
OTHER_11           .         TM.GRD = 0.00403*TM$.UE + -1.07: 
OTHER_12           .         MN.ATM = (9.34907e-006*TM.GRD + 0.02171)*(MN$.UE + -7.93*TM.GRD + -1787): 
OTHER_13           .         GK.MKR/H = LM. / 42.4676      : 
OTHER_14           .         GK.FLT = 0.1*GK.MKR/H[-1] + (1-0.1)*GK.MKR/H[0]: 
OTHER_2            .         Kedr.exe версия 3.4.2.51      : 
OTHER_3            .         KedrData.dll версия 3.4.2.24  : 
OTHER_4            .         Драйвер версия 2.1.1.3        : 
OTHER_5            .         Мнемоники версия 3.3 S        : 
OTHER_6            .         Прибор_ КСА-Т4                : 
OTHER_7            .         Номер прибора_ 03             : 
OTHER_8            .         Режим_ КСА-Т4                 : 
OTHER_9            .         Форма_ КВА.                   : 
PROJECT_UPGRADE_TIME .         2021-03-18T21_24_49           : 
TLFamily_DEPT      .         Measured Depth                : 
TLFamily_GK        .         Gamma Ray                     : 
TLFamily_GK$       .                                       : 
TLFamily_GK_2      .         Gamma Ray                     : 
TLFamily_LM        .         Casing Collar locator         : 
TLFamily_METKA     .                                       : 
TLFamily_MN        .                                       : 
TLFamily_MN$       .                                       : 
TLFamily_RCOR      .                                       : 
TLFamily_SPID      .         Spontaneous Potential         : 
TLFamily_TENS      .         Cable Tension                 : 
TLFamily_TIME      .         Time                          : 
TLFamily_TM        .         Temperature                   : 
TLFamily_TM$       .         Temperature                   : 
group              .         prim                          : 
~Curve Information
#_______________________________________________________________________________
#
#LOGNAME           .UNIT     LOG_ID                        : DESCRIPTION
#_______________________________________________________________________________
DEPT               .M                                      : 1 Глубина, м -    0.0 см 
GK                 .MKR/H                                  : 13 Гамма-активность, мкр./ч -  110.0 см 
GK$                .UE                                     : 10 Гамма-активность, усл.ед. -  110.0 см 
GK_2               .FLT                                    : 14 Гамма-активность фильтрованная, мкр./ч -  110.0 см 
LM                 .                                       : 9 Локатор муфт,  -   20.0 см 
METKA              .                                       : 3 Метки,  -    0.0 см 
MN                 .ATM                                    : 12 Давление, атм. -  160.0 см 
MN$                .UE                                     : 8 Давление, усл.ед. -  160.0 см 
RCOR               .CM/KM                                  : 5 Коррекция по ролику, см/км -    0.0 см 
SPID               .M/H                                    : 2 Скорость, м/час -    0.0 см 
TENS               .T                                      : 6 Натяжение кабеля, т -    0.0 см 
TIME               .S                                      : 4 Время, сек -    0.0 см 
TM                 .GRD                                    : 11 Температура, °C -  170.0 см 
TM$                .UE                                     : 7 Температура, усл.ед. -  170.0 см 
~Ascii
# ...
2729.8     6.26       266        6.26       232        0          250.268    13453      -630       -232       0.17       6740.48    45.166     11473     
2730       6.03       256        6.03       152        2          250.29     13454      -622       -234       0.17       6736.25    45.166     11473     
2730.2     6.64       282        6.64       305        0          250.312    13455      -622       -235       0.17       6733.14    45.166     11473     
2730.4     6.48       275        6.47       217        0          250.334    13456      -622       -230       0.17       6729.92    45.166     11473     
2730.6     5.98       254        6          304        0          250.378    13458      -622       -233       0.17       6726.93    45.17      11474     
2730.8     6.36       270        6.43       228        0          250.4      13459      -622       -234       0.17       6723.7     45.17      11474     
2731       6.29       267        6.22       160        0          250.4      13459      -622       -238       0.17       6720.59    45.178     11476     
2731.2     6.05       257        6.22       1468       0          250.444    13461      -622       -238       0.17       6717.48    45.178     11476     
2731.4     7.04       299        7.12       824        0          250.459    13462      -622       -237       0.17       6714.44    45.178     11476     
2731.6     7.3        310        7.29       754        0          250.489    13463      -622       -234       0.17       6711.39    45.17      11474     
2731.8     6.59       280        6.61       153        0          250.511    13464      -622       -237       0.17       6708.16    45.162     11472     
2732       7.09       301        7.15       72         0          250.533    13465      -622       -227       0.17       6705.11    45.168     11473     
2732.2     6.83       290        6.83       72         0          250.556    13466      -622       -228       0.17       6702.07    45.166     11473     
2732.4     7.3        310        7.3        102        0          250.601    13468      -622       -240       0.17       6698.84    45.152     11470     
2732.6     7.51       319        7.52       105        0          250.624    13469      -622       -237       0.17       6695.73    45.142     11467     
2732.8     7.96       338        7.87       83         0          250.647    13470      -622       -228       0.17       6692.63    45.134     11465     
2733       7.07       300        6.92       90         0          250.669    13471      -622       -234       0.17       6689.64    45.128     11463     
2733.2     7.63       324        7.63       110        0          250.692    13472      -622       -235       0.17       6686.54    45.118     11461     
2733.4     7.91       336        7.91       137        0          250.722    13473      -622       -222       0.17       6683.31    45.118     11461     
2733.6     7.96       338        7.98       93         0          250.738    13474      -622       -226       0.17       6680.32    45.096     11456     
2733.8     8.29       352        8.29       106        0          250.774    13476      -622       -218       0.17       6677.22    45.1       11457     
2734       8.12       345        8.12       106        0          250.804    13477      -622       -227       0.17       6673.98    45.095     11455     
2734.2     7.77       330        7.78       161        0          250.819    13478      -622       -226       0.17       6670.88    45.099     11456     
2734.4     8.5        361        8.51       214        0          250.847    13479      -622       -233       0.17       6667.84    45.102     11457     
2734.6     8.57       364        8.37       151        0          250.891    13481      -622       -233       0.17       6664.67    45.118     11461     
2734.8     8.69       369        8.69       135        0          250.889    13481      -622       -234       0.17       6661.56    45.127     11463     
2735       8.95       380        8.96       138        0          250.933    13483      -622       -234       0.17       6658.52    45.15      11469     
2735.2     9.82       417        9.79       119        0          250.955    13484      -622       -230       0.17       6655.47    45.154     11470     
2735.4     9.42       400        9.32       143        0          250.977    13485      -622       -227       0.17       6652.38    45.15      11469     
2735.6     9          382        8.99       159        0          250.998    13486      -622       -234       0.17       6649.01    45.166     11473     
2735.8     7.28       309        7.27       103        0          251.021    13487      -622       -232       0.17       6646.03    45.169     11474     
2736       6.17       262        6.2        169        0          251.042    13488      -622       -231       0.17       6642.92    45.166     11473     
2736.2     6.5        276        6.84       2645       0          251.062    13489      -622       -232       0.17       6639.88    45.186     11478     
2736.4     8.29       352        8.29       415        0          251.092    13490      -622       -239       0.17       6636.7     45.198     11481     
2736.6     8.5        361        8.5        138        0          251.126    13492      -622       -233       0.19       6633.71    45.217     11486     
2736.8     8.34       354        8.28       145        0          251.161    13494      -622       -239       0.17       6630.5     45.239     11491     
2737       7.21       306        7.15       79         0          251.166    13494      -622       -234       0.17       6627.39    45.279     11501     
2737.2     7.44       316        7.44       104        0          251.207    13496      -622       -232       0.17       6624.22    45.325     11512     
2737.4     7.7        327        7.7        146        0          251.226    13497      -622       -229       0.17       6621.17    45.356     11520     
2737.6     7.7        327        7.72       101        0          251.238    13498      -622       -234       0.17       6618.04    45.4       11531     
2737.8     8.08       343        8.16       110        0          251.264    13499      -622       -226       0.18       6614.86    45.45      11544     
2738       8.88       377        8.88       71         0          251.281    13500      -622       -233       0.17       6611.86    45.525     11562     
2738.2     9.37       398        9.37       141        0          251.325    13502      -622       -233       0.17       6608.67    45.573     11574     
2738.4     9.11       387        9.08       137        0          251.341    13503      -622       -232       0.17       6605.66    45.6       11581     
2738.6     8.19       348        8.09       138        0          251.359    13504      -622       -233       0.17       6602.46    45.686     11602     
2738.8     8.03       341        8.03       117        0          251.386    13506      -622       -228       0.17       6599.28    45.745     11617     
2739       9.04       384        9.05       126        0          251.391    13506      -622       -233       0.19       6596.28    45.827     11637     
2739.2     9.89       420        9.99       122        0          251.407    13507      -622       -234       0.17       6593.16    45.972     11673     
2739.4     12.48      530        12.63      84         0          251.447    13509      -622       -237       0.17       6590.02    45.999     11680     
2739.6     13.43      570        13.31      84         0          251.461    13510      -622       -240       0.17       6586.89    46.087     11702     
2739.8     12.76      542        12.77      117        0          251.473    13511      -622       -235       0.17       6583.89    46.25      11742     
2740       13.28      564        13.33      133        2          251.491    13512      -616       -221       0.17       6579.77    46.319     11759     
