~Version
 VERS              .         2.0                           : CWLS LOG ASCII STANDARD - VERSION 2.0
 WRAP              .         NO                            : ONE LINE PER DEPTH STEP
 DLM               .         SPACE                         : DELIMITING CHARACTER(SPACE TAB OR COMMA)
~Well Information
#_______________________________________________________________________________
#
#PARAMETER_NAME    .UNIT     VALUE                         : DESCRIPTION
#_______________________________________________________________________________
STRT               .M        44                            : First reference value
STOP               .M        2769.2                        : Last reference value
STEP               .M        0.2                           : Step increment
NULL               .         -9999                         : Missing value
COMP               .                                       : Company
WELL               .         616                           : Well name
FLD                .                                       : Field
LOC                .                                       : Location
CNTY               .                                       : County
STAT               .                                       : State
CTRY               .                                       : Country
SRVC               .                                       : Service Company
DATE               .                                       : Date
API                .                                       : API number
PROJECT_UPGRADE_TIME .         2021-03-18T21_24_50           : 
group              .         Good                          : 
~Parameter Information Block
#_______________________________________________________________________________
#
#PARAMETER_NAME    .UNIT     VALUE                         : DESCRIPTION
#_______________________________________________________________________________
SET                .         D1160_D                       : 
OTHER              .         Программное обеспечение станции MONITOR-386EX 25/12/99 15_08_10   BGF V52 22/08/01 16_56_30   3.2_BGF_N_3070031: 
OTHER_10           .         Тарировки_                    : 
OTHER_11           .         TM.GRD = 0.00403*TM$.UE + -1.19: 
OTHER_12           .         MN.ATM = (7.1e-006*TM.GRD + 0.02017)*(MN$.UE + -3.03*TM.GRD + -1833): 
OTHER_13           .         Id error                      : 
OTHER_2            .         Kedr.exe версия 3.4.2.51      : 
OTHER_3            .         KedrData.dll версия 3.4.2.24  : 
OTHER_4            .         Драйвер версия 2.1.1.8        : 
OTHER_5            .         Мнемоники версия 3.3 S        : 
OTHER_6            .         Прибор_ КСА-М1                : 
OTHER_7            .         Номер прибора_ 265            : 
OTHER_8            .         Режим_ КСА-М1                 : 
OTHER_9            .         Форма_ ТЕРМОМЕТР              : 
PROJECT_UPGRADE_TIME .         2021-03-18T21_24_49           : 
TLFamily_DEPT      .         Measured Depth                : 
TLFamily_GK        .         Gamma Ray                     : 
TLFamily_GK$       .                                       : 
TLFamily_LM        .         Casing Collar locator         : 
TLFamily_METKA     .                                       : 
TLFamily_MN        .                                       : 
TLFamily_MN$       .                                       : 
TLFamily_RCOR      .                                       : 
TLFamily_SPID      .         Spontaneous Potential         : 
TLFamily_STD       .                                       : 
TLFamily_TENS      .         Cable Tension                 : 
TLFamily_TIME      .         Time                          : 
TLFamily_TM        .         Temperature                   : 
TLFamily_TM$       .         Temperature                   : 
TLFamily_VGD       .         Gas Volume                    : 
group              .         prim                          : 
~Curve Information
#_______________________________________________________________________________
#
#LOGNAME           .UNIT     LOG_ID                        : DESCRIPTION
#_______________________________________________________________________________
DEPT               .M                                      : 1 Глубина, м -    0.0 см 
GK                 .MKR/H                                  : 15 Гамма-активность, мкр./ч -  110.0 см 
GK$                .UE                                     : 12 Гамма-активность, усл.ед. -  110.0 см 
LM                 .                                       : 10 Локатор муфт,  -   20.0 см 
METKA              .                                       : 3 Метки,  -    0.0 см 
MN                 .ATM                                    : 14 Давление, атм. -  160.0 см 
MN$                .UE                                     : 8 Давление, усл.ед. -  160.0 см 
RCOR               .CM/KM                                  : 5 Коррекция по ролику, см/км -    0.0 см 
SPID               .M/H                                    : 2 Скорость, м/час -    0.0 см 
STD                .                                       : 11 Приток,  -  170.0 см 
TENS               .T                                      : 6 Натяжение кабеля, т -    0.0 см 
TIME               .S                                      : 4 Время, сек -    0.0 см 
TM                 .GRD                                    : 13 Температура, °C -  180.0 см 
TM$                .UE                                     : 7 Температура, усл.ед. -  180.0 см 
VGD                .                                       : 9 Влагомер,  -  170.0 см 
~Ascii
# ...
769.2      5.44       242        57         0          69.285     5315       -1400      1935       6379       0          11820.3    25.618     6652       6376      
769.4      5.51       242        48         0          69.265     5314       -1400      1939       6379       0          11820.68   25.626     6654       6376      
769.6      5.56       242        46         0          69.284     5315       -1400      1938       6380       0          11821.08   25.63      6655       6376      
769.8      5.6        242        42         0          69.321     5317       -1400      1936       6382       0          11821.42   25.637     6657       6374      
770        5.64       245        39         2          69.344     5318       -1400      1934       6385       0          11821.85   25.645     6659       6373      
770.2      5.7        249        44         0          69.363     5319       -1400      1933       6388       0          11822.21   25.65      6660       6375      
770.4      5.74       249        58         0          69.404     5321       -1400      1932       6391       0          11822.61   25.657     6662       6376      
770.6      5.77       249        60         0          69.406     5321       -1400      1931       6394       0          11822.95   25.665     6664       6375      
770.8      5.79       249        55         0          69.44      5323       -1400      1929       6399       0          11823.36   25.673     6666       6376      
771        5.8        249        47         0          69.463     5324       -1400      1929       6400       0          11823.71   25.681     6668       6375      
771.2      5.81       249        49         0          69.466     5324       -1400      1928       6401       0          11824.07   25.685     6669       6375      
771.4      5.76       243        45         0          69.482     5325       -1400      1927       6403       0          11824.44   25.693     6671       6375      
771.6      5.67       234        50         0          69.505     5326       -1400      1926       6405       0          11824.82   25.701     6673       6375      
771.8      5.6        234        57         0          69.524     5327       -1400      1926       6407       0          11825.2    25.706     6674       6376      
772        5.56       234        61         0          69.545     5328       -1400      1925       6409       0          11825.56   25.714     6676       6375      
772.2      5.53       234        92         0          69.546     5328       -1400      1929       6412       0          11825.95   25.722     6678       6375      
772.4      5.51       234        113        0          69.565     5329       -1400      1925       6415       0          11826.31   25.715     6676       6374      
772.6      5.5        234        100        0          69.584     5330       -1400      1919       6417       0          11826.69   25.733     6681       6373      
772.8      5.46       230        91         0          69.586     5330       -1400      1917       6420       0          11827.06   25.738     6682       6375      
773        5.37       222        87         0          69.618     5332       -1400      1918       6421       0          11827.44   25.745     6684       6375      
773.2      5.31       222        84         0          69.626     5332       -1400      1918       6423       0          11827.81   25.75      6685       6375      
773.4      5.27       222        73         0          69.642     5333       -1400      1922       6425       0          11828.18   25.757     6687       6375      
773.6      5.24       222        97         0          69.662     5334       -1400      1920       6429       0          11828.56   25.765     6689       6375      
773.8      5.23       222        84         0          69.682     5335       -1400      1914       6431       0          11828.92   25.773     6691       6375      
774        5.25       226        68         0          69.686     5335       -1400      1912       6435       0          11829.29   25.778     6692       6374      
774.2      5.38       241        134        0          69.701     5336       -1400      1917       6438       0          11829.67   25.785     6694       6375      
774.4      5.47       241        3979       0          69.721     5337       -1400      1923       6443       0          11830.06   25.79      6695       6374      
774.6      5.53       241        2643       0          69.741     5338       -1400      1925       6447       0          11830.42   25.797     6696       6374      
774.8      5.56       241        1738       0          69.761     5339       -1400      1925       6450       0          11830.78   25.805     6698       6374      
775        5.59       241        1139       0          69.781     5340       -1400      1924       6453       0          11831.17   25.81      6700       6374      
775.2      5.6        241        750        0          69.801     5341       -1400      1921       6456       0          11831.54   25.817     6701       6374      
775.4      5.61       240        508        0          69.807     5341       -1400      1921       6459       0          11831.9    25.825     6703       6374      
775.6      5.58       236        349        0          69.819     5342       -1400      1927       6461       0          11832.28   25.83      6705       6373      
775.8      5.56       236        349        0          69.839     5343       -1400      1926       6464       0          11832.66   25.836     6706       6373      
776        5.55       236        239        0          69.86      5344       -1400      1925       6468       0          11833.04   25.842     6708       6373      
776.2      5.54       236        143        0          69.879     5345       -1400      1931       6472       0          11833.4    25.848     6709       6373      
776.4      5.53       236        143        0          69.898     5346       -1400      1933       6475       0          11833.78   25.856     6711       6372      
776.6      5.53       236        115        0          69.918     5347       -1400      1932       6478       0          11834.16   25.861     6713       6372      
776.8      5.36       215        94         0          69.938     5348       -1400      1930       6479       0          11834.53   25.868     6714       6373      
777        5.23       214        103        0          69.957     5349       -1400      1929       6481       0          11834.88   25.876     6716       6373      
777.2      5.16       214        93         0          69.967     5349       -1400      1928       6485       0          11835.26   25.884     6718       6373      
777.4      5.11       214        90         0          69.977     5350       -1400      1928       6488       0          11835.64   25.889     6719       6373      
777.6      5.07       214        87         0          69.997     5351       -1400      1927       6492       0          11836      25.896     6721       6373      
777.8      5.05       214        80         0          70.016     5351       -1400      1926       6495       0          11836.38   25.904     6723       6373      
778        5.04       214        94         0          70.037     5352       -1400      1926       6499       0          11836.76   25.91      6724       6372      
778.2      5.22       239        89         0          70.057     5353       -1400      1925       6503       0          11837.13   25.915     6726       6373      
778.4      5.39       243        75         0          70.077     5354       -1400      1926       6507       0          11837.5    25.924     6728       6373      
778.6      5.48       243        93         0          70.095     5355       -1400      1932       6510       0          11837.88   25.932     6730       6372      
778.8      5.55       243        81         0          70.115     5356       -1400      1933       6512       0          11838.26   25.939     6732       6373      
