~Version
 VERS              .         2.0                           : CWLS LOG ASCII STANDARD - VERSION 2.0
 WRAP              .         NO                            : ONE LINE PER DEPTH STEP
 DLM               .         SPACE                         : DELIMITING CHARACTER(SPACE TAB OR COMMA)
~Well Information
#_______________________________________________________________________________
#
#PARAMETER_NAME    .UNIT     VALUE                         : DESCRIPTION
#_______________________________________________________________________________
STRT               .M        2310.8                        : First reference value
STOP               .M        2792.2                        : Last reference value
STEP               .M        0.2                           : Step increment
NULL               .         -9999                         : Missing value
COMP               .                                       : Company
WELL               .         616                           : Well name
FLD                .                                       : Field
LOC                .                                       : Location
CNTY               .                                       : County
STAT               .                                       : State
CTRY               .                                       : Country
SRVC               .                                       : Service Company
DATE               .                                       : Date
API                .                                       : API number
PROJECT_UPGRADE_TIME .         2021-03-18T21_24_50           : 
group              .         Good                          : 
~Parameter Information Block
#_______________________________________________________________________________
#
#PARAMETER_NAME    .UNIT     VALUE                         : DESCRIPTION
#_______________________________________________________________________________
SET                .         D2660_D                       : 
OTHER              .         Программное обеспечение станции MONITOR-386EX 25/12/99 15_08_10   BGF V50 26/12/00 07_26_01   3.1_SNGF___BGF_N_092085: 
OTHER_10           .         Тарировки_                    : 
OTHER_2            .         Kedr.exe версия 3.3.2.32      : 
OTHER_3            .         KedrData.dll версия 3.3.2.17  : 
OTHER_4            .         Драйвер версия 2.1.0.1        : 
OTHER_5            .         Мнемоники версия 3.3 S        : 
OTHER_6            .         Прибор_ ПС                    : 
OTHER_7            .         Номер прибора_ 348\072        : 
OTHER_8            .         Режим_ ПС                     : 
OTHER_9            .         Форма_ ПС                     : 
PROJECT_UPGRADE_TIME .         2021-03-18T21_24_49           : 
TLFamily_DEPT      .         Measured Depth                : 
TLFamily_METKA     .                                       : 
TLFamily_PS        .         Spontaneous Potential         : 
TLFamily_RCOR      .                                       : 
TLFamily_SPID      .         Spontaneous Potential         : 
TLFamily_TENS      .         Cable Tension                 : 
TLFamily_TIME      .         Time                          : 
group              .         prim                          : 
~Curve Information
#_______________________________________________________________________________
#
#LOGNAME           .UNIT     LOG_ID                        : DESCRIPTION
#_______________________________________________________________________________
DEPT               .M                                      : 1 Глубина, м -    0.0 см 
METKA              .                                       : 3 Метки,  -    0.0 см 
PS                 .mV                                     : 7 ПС, мВ - 1210.0 см 
RCOR               .CM/KM                                  : 5 Коррекция по ролику, см/км -    0.0 см 
SPID               .M/H                                    : 2 Скорость, м/час -    0.0 см 
TENS               .T                                      : 6 Натяжение кабеля, т -    0.0 см 
TIME               .S                                      : 4 Время, сек -    0.0 см 
~Ascii
# ...
2373.2     0          535.83     -398       -2103      0          30595.61  
2373.4     0          536.01     -398       -2069      0          30595.26  
2373.6     0          536.81     -398       -2065      0          30594.9   
2373.8     0          536        -398       -2110      0          30594.57  
2374       0          536.12     -398       -2111      0          30594.25  
2374.2     0          535.7      -398       -2118      0          30593.91  
2374.4     0          535.97     -398       -2159      0          30593.56  
2374.6     0          536.33     -398       -2148      0          30593.21  
2374.8     0          536.05     -398       -2055      0          30592.88  
2375       0          535.53     -398       -2076      0          30592.56  
2375.2     0          536.11     -398       -2101      0          30592.21  
2375.4     0          536.12     -398       -2059      0          30591.87  
2375.6     0          536.58     -398       -2069      0          30591.53  
2375.8     0          535.2      -398       -2117      0          30591.18  
2376       0          535.8      -398       -2153      0          30590.83  
2376.2     0          535.7      -398       -2164      0          30590.48  
2376.4     0          535.39     -398       -2107      0          30590.18  
2376.6     0          535.92     -398       -2091      0          30589.83  
2376.8     0          535.95     -398       -2057      0          30589.49  
2377       0          534.75     -398       -2087      0          30589.17  
2377.2     0          535.74     -398       -2110      0          30588.79  
2377.4     0          536.18     -398       -2110      0          30588.47  
2377.6     0          536.26     -398       -2109      0          30588.13  
2377.8     0          536.49     -398       -2103      0          30587.78  
2378       0          536        -398       -2075      0          30587.46  
2378.2     0          535.66     -398       -2064      0          30587.1   
2378.4     0          535.66     -398       -2110      0          30586.77  
2378.6     0          535.99     -398       -2111      0          30586.43  
2378.8     0          536.79     -398       -2119      0          30586.08  
2379       0          534.85     -398       -2167      0          30585.74  
2379.2     0          535.83     -398       -2143      0          30585.39  
2379.4     0          535.92     -398       -2061      0          30585.07  
2379.6     0          536.33     -398       -2119      0          30584.73  
2379.8     1          535.63     -398       -2179      0          30584.4   
2380       0          536.41     -398       -2176      0          30584.04  
2380.2     0          536.51     -398       -2156      0          30583.7   
2380.4     0          535.92     -398       -2104      0          30583.35  
2380.6     0          537        -398       -2072      0          30583.02  
2380.8     0          535.84     -398       -2059      0          30582.7   
2381       0          535.36     -398       -2107      0          30582.36  
2381.2     0          536.06     -398       -2109      0          30582     
2381.4     0          536.47     -398       -2105      0          30581.69  
2381.6     0          534.71     -398       -2073      0          30581.31  
2381.8     0          535.92     -398       -2074      0          30580.99  
2382       0          536.4      -398       -2171      0          30580.63  
2382.2     0          536        -398       -2128      0          30580.3   
2382.4     0          536.33     -398       -2057      0          30579.98  
2382.6     0          536.88     -398       -2096      0          30579.62  
2382.8     0          536.63     -398       -2097      0          30579.29  
2383       0          536.16     -398       -2059      0          30578.95  
2383.2     0          536.11     -398       -2107      0          30578.6   
2383.4     0          537.15     -398       -2170      0          30578.27  
2383.6     0          536.05     -398       -2111      0          30577.91  
2383.8     0          536.03     -398       -2092      0          30577.57  
2384       0          535.84     -398       -2054      0          30577.25  
2384.2     0          536.23     -398       -2077      0          30576.91  
2384.4     0          535.98     -398       -2111      0          30576.56  
2384.6     0          535.94     -398       -2113      0          30576.22  
2384.8     0          535.43     -398       -2131      0          30575.87  
2385       0          536.35     -398       -2172      0          30575.53  
2385.2     0          536.28     -398       -2130      0          30575.19  
2385.4     0          536.12     -398       -2087      0          30574.87  
2385.6     0          536.49     -398       -1988      0          30574.53  
2385.8     0          535.68     -398       -2023      0          30574.21  
2386       0          536.45     -398       -2110      0          30573.85  
2386.2     0          536.28     -398       -2110      0          30573.48  
2386.4     0          535.49     -398       -2110      0          30573.16  
2386.6     0          535.8      -398       -2110      0          30572.79  
2386.8     0          535.74     -398       -2110      0          30572.47  
2387       0          536.25     -398       -2110      0          30572.13  
2387.2     0          536        -398       -2110      0          30571.79  
2387.4     0          535.96     -398       -2110      0          30571.46  
2387.6     0          535.26     -398       -2110      0          30571.13  
2387.8     0          536.53     -398       -2109      0          30570.78  
2388       0          536.18     -398       -2101      0          30570.44  
2388.2     0          536.23     -398       -2056      0          30570.09  
2388.4     0          536.65     -398       -2051      0          30569.77  
2388.6     0          535.68     -398       -2056      0          30569.4   
2388.8     0          536.56     -398       -2084      0          30569.08  
2389       0          536.52     -398       -2122      0          30568.73  
2389.2     0          536.17     -398       -2176      0          30568.38  
2389.4     0          536.39     -398       -2153      0          30568.04  
2389.6     0          536.89     -398       -2110      0          30567.7   
2389.8     1          536.81     -398       -2108      0          30567.38  
2390       0          536.95     -397       -2096      0          30566.99  
2390.2     0          536.45     -396       -2050      0          30566.65  
2390.4     0          536.3      -396       -2052      0          30566.33  
2390.6     0          535.76     -396       -2065      0          30565.98  
2390.8     0          536.18     -396       -2145      0          30565.64  
2391       0          536.45     -396       -2148      0          30565.29  
2391.2     0          537.16     -396       -2055      0          30564.95  
2391.4     0          536.73     -396       -2082      0          30564.6   
2391.6     0          535.71     -396       -2111      0          30564.26  
2391.8     0          536.21     -396       -2113      0          30563.94  
2392       0          536.36     -396       -2130      0          30563.6   
2392.2     0          536.96     -396       -2167      0          30563.25  
2392.4     0          537.01     -396       -2099      0          30562.91  
2392.6     0          536.82     -396       -2075      0          30562.57  
2392.8     0          537.2      -396       -2169      0          30562.24  
2393       0          536.73     -396       -2116      0          30561.91  
2393.2     0          537.13     -396       -1995      0          30561.57  
2393.4     0          536.97     -396       -2063      0          30561.23  
2393.6     0          536.99     -396       -2126      0          30560.87  
2393.8     0          537.18     -396       -2175      0          30560.51  
