~Version
 VERS              .         2.0                           : CWLS LOG ASCII STANDARD - VERSION 2.0
 WRAP              .         NO                            : ONE LINE PER DEPTH STEP
 DLM               .         SPACE                         : DELIMITING CHARACTER(SPACE TAB OR COMMA)
~Well Information
#_______________________________________________________________________________
#
#PARAMETER_NAME    .UNIT     VALUE                         : DESCRIPTION
#_______________________________________________________________________________
STRT               .M        2310.8                        : First reference value
STOP               .M        2792.2                        : Last reference value
STEP               .M        0.2                           : Step increment
NULL               .         -9999                         : Missing value
COMP               .                                       : Company
WELL               .         616                           : Well name
FLD                .                                       : Field
LOC                .                                       : Location
CNTY               .                                       : County
STAT               .                                       : State
CTRY               .                                       : Country
SRVC               .                                       : Service Company
DATE               .                                       : Date
API                .                                       : API number
PROJECT_UPGRADE_TIME .         2021-03-18T21_24_50           : 
group              .         Good                          : 
~Parameter Information Block
#_______________________________________________________________________________
#
#PARAMETER_NAME    .UNIT     VALUE                         : DESCRIPTION
#_______________________________________________________________________________
SET                .         D2660_D                       : 
OTHER              .         Программное обеспечение станции MONITOR-386EX 25/12/99 15_08_10   BGF V50 26/12/00 07_26_01   3.1_SNGF___BGF_N_092085: 
OTHER_10           .         Тарировки_                    : 
OTHER_2            .         Kedr.exe версия 3.3.2.32      : 
OTHER_3            .         KedrData.dll версия 3.3.2.17  : 
OTHER_4            .         Драйвер версия 2.1.0.1        : 
OTHER_5            .         Мнемоники версия 3.3 S        : 
OTHER_6            .         Прибор_ ПС                    : 
OTHER_7            .         Номер прибора_ 348\072        : 
OTHER_8            .         Режим_ ПС                     : 
OTHER_9            .         Форма_ ПС                     : 
PROJECT_UPGRADE_TIME .         2021-03-18T21_24_49           : 
TLFamily_DEPT      .         Measured Depth                : 
TLFamily_METKA     .                                       : 
TLFamily_PS        .         Spontaneous Potential         : 
TLFamily_RCOR      .                                       : 
TLFamily_SPID      .         Spontaneous Potential         : 
TLFamily_TENS      .         Cable Tension                 : 
TLFamily_TIME      .         Time                          : 
group              .         prim                          : 
~Curve Information
#_______________________________________________________________________________
#
#LOGNAME           .UNIT     LOG_ID                        : DESCRIPTION
#_______________________________________________________________________________
DEPT               .M                                      : 1 Глубина, м -    0.0 см 
METKA              .                                       : 3 Метки,  -    0.0 см 
PS                 .mV                                     : 7 ПС, мВ - 1210.0 см 
RCOR               .CM/KM                                  : 5 Коррекция по ролику, см/км -    0.0 см 
SPID               .M/H                                    : 2 Скорость, м/час -    0.0 см 
TENS               .T                                      : 6 Натяжение кабеля, т -    0.0 см 
TIME               .S                                      : 4 Время, сек -    0.0 см 
~Ascii
# ...
2456.4     0          517.22     -392       -1993      0          30452.71  
2456.6     0          510.39     -392       -2068      0          30452.37  
2456.8     0          502.81     -392       -2096      0          30452.01  
2457       0          495.56     -392       -2050      0          30451.66  
2457.2     0          496.1      -392       -2051      0          30451.32  
2457.4     0          505.96     -392       -2059      0          30450.97  
2457.6     0          524.83     -392       -2104      0          30450.63  
2457.8     0          531.68     -392       -2090      0          30450.27  
2458       0          535.6      -392       -2050      0          30449.93  
2458.2     0          535.89     -392       -2050      0          30449.58  
2458.4     0          536.3      -392       -2049      0          30449.23  
2458.6     0          538        -392       -2046      0          30448.9   
2458.8     0          538.11     -392       -2024      0          30448.54  
2459       0          536.79     -392       -1988      0          30448.21  
2459.2     0          537.33     -392       -2034      0          30447.86  
2459.4     0          537.31     -392       -2050      0          30447.47  
2459.6     0          537.06     -392       -2050      0          30447.13  
2459.8     1          536.25     -392       -2050      0          30446.78  
2460       0          535.65     -392       -2050      0          30446.44  
2460.2     0          533.66     -392       -2050      0          30446.09  
2460.4     0          532.94     -392       -2050      0          30445.77  
2460.6     0          527.44     -392       -2050      0          30445.42  
2460.8     0          528.96     -392       -2047      0          30445.05  
2461       0          532.78     -392       -2032      0          30444.72  
2461.2     0          535.13     -392       -1986      0          30444.38  
2461.4     0          534.26     -392       -2028      0          30444     
2461.6     0          530.53     -392       -2061      0          30443.68  
2461.8     0          527.68     -392       -2107      0          30443.32  
2462       0          513.86     -392       -2088      0          30442.95  
2462.2     0          512.59     -392       -2057      0          30442.63  
2462.4     0          529.34     -392       -2094      0          30442.27  
2462.6     0          535.61     -392       -2093      0          30441.9   
2462.8     0          528.09     -392       -2050      0          30441.57  
2463       0          518.69     -392       -2050      0          30441.23  
2463.2     0          515.09     -392       -2049      0          30440.89  
2463.4     0          528.52     -392       -2047      0          30440.54  
2463.6     0          534.61     -392       -2028      0          30440.19  
2463.8     0          528.21     -392       -1995      0          30439.84  
2464       0          526.66     -392       -2078      0          30439.49  
2464.2     0          522.79     -392       -2095      0          30439.14  
2464.4     0          523.94     -392       -2050      0          30438.79  
2464.6     0          533.53     -392       -2050      0          30438.45  
2464.8     0          534.17     -392       -2050      0          30438.1   
2465       0          534.02     -392       -2053      0          30437.75  
2465.2     0          532.79     -392       -2068      0          30437.41  
2465.4     0          532.36     -392       -2103      0          30437.05  
2465.6     0          529.98     -392       -2066      0          30436.7   
2465.8     0          530.42     -392       -2049      0          30436.36  
2466       0          530.99     -392       -2045      0          30436.01  
2466.2     0          532.61     -392       -2018      0          30435.67  
2466.4     0          535.49     -392       -1990      0          30435.34  
2466.6     0          539.52     -392       -2046      0          30434.99  
2466.8     0          539.83     -392       -2068      0          30434.62  
2467       0          539.69     -392       -2103      0          30434.25  
2467.2     0          539.46     -392       -2073      0          30433.94  
2467.4     0          540.6      -392       -2050      0          30433.57  
2467.6     0          540.14     -392       -2050      0          30433.22  
2467.8     0          540.23     -392       -2051      0          30432.9   
2468       0          539.95     -392       -2060      0          30432.53  
2468.2     0          539.73     -392       -2107      0          30432.21  
2468.4     0          537.26     -392       -2108      0          30431.85  
2468.6     0          537.81     -392       -2096      0          30431.48  
2468.8     0          537.51     -392       -2037      0          30431.16  
2469       0          536.38     -392       -1981      0          30430.82  
2469.2     0          534.6      -392       -1984      0          30430.47  
2469.4     0          533.94     -392       -2009      0          30430.12  
2469.6     0          536.66     -392       -2050      0          30429.76  
2469.8     1          537.17     -392       -2052      0          30429.45  
2470       0          537.52     -390       -2070      0          30429.02  
2470.2     0          538.06     -390       -2103      0          30428.68  
2470.4     0          537.8      -390       -2066      0          30428.32  
2470.6     0          536.67     -390       -2050      0          30427.98  
2470.8     0          535.37     -390       -2050      0          30427.63  
2471       0          534.36     -390       -2050      0          30427.31  
2471.2     0          533.85     -390       -2050      0          30426.94  
2471.4     0          534.15     -390       -2050      0          30426.59  
2471.6     0          532.85     -390       -2049      0          30426.23  
2471.8     0          533.17     -390       -2044      0          30425.9   
2472       0          531.94     -390       -2006      0          30425.54  
2472.2     0          531.24     -390       -2005      0          30425.22  
2472.4     0          531.07     -390       -2110      0          30424.86  
2472.6     0          532.98     -390       -2108      0          30424.49  
2472.8     0          532.87     -390       -2100      0          30424.14  
2473       0          527.92     -390       -2053      0          30423.82  
2473.2     0          526.46     -390       -2050      0          30423.46  
2473.4     0          530.05     -390       -2050      0          30423.13  
2473.6     0          532.6      -390       -2048      0          30422.79  
2473.8     0          532.93     -390       -2038      0          30422.44  
2474       0          526.79     -390       -1988      0          30422.1   
2474.2     0          504.9      -390       -2033      0          30421.75  
2474.4     0          494.97     -390       -2110      0          30421.39  
2474.6     0          489.89     -390       -2107      0          30421     
2474.8     0          487.99     -390       -2095      0          30420.68  
2475       0          488.94     -390       -2050      0          30420.31  
2475.2     0          495.45     -390       -2050      0          30420     
2475.4     0          509.69     -390       -2050      0          30419.64  
2475.6     0          520.16     -390       -2050      0          30419.3   
2475.8     0          514.88     -390       -2051      0          30418.95  
2476       0          520.35     -390       -2057      0          30418.6   
2476.2     0          527.62     -390       -2094      0          30418.28  
2476.4     0          526.57     -390       -2078      0          30417.91  
2476.6     0          526.18     -390       -1986      0          30417.57  
2476.8     0          513.24     -390       -2019      0          30417.22  
2477       0          512.52     -390       -2061      0          30416.86  
