~Version
 VERS              .         2.0                           : CWLS LOG ASCII STANDARD - VERSION 2.0
 WRAP              .         NO                            : ONE LINE PER DEPTH STEP
 DLM               .         SPACE                         : DELIMITING CHARACTER(SPACE TAB OR COMMA)
~Well Information
#_______________________________________________________________________________
#
#PARAMETER_NAME    .UNIT     VALUE                         : DESCRIPTION
#_______________________________________________________________________________
STRT               .M        46                            : First reference value
STOP               .M        2756.6                        : Last reference value
STEP               .M        0.2                           : Step increment
NULL               .         -9999                         : Missing value
COMP               .                                       : Company
WELL               .         616                           : Well name
FLD                .                                       : Field
LOC                .                                       : Location
CNTY               .                                       : County
STAT               .                                       : State
CTRY               .                                       : Country
SRVC               .                                       : Service Company
DATE               .                                       : Date
API                .                                       : API number
PROJECT_UPGRADE_TIME .         2021-03-18T21_24_50           : 
group              .         Good                          : 
~Parameter Information Block
#_______________________________________________________________________________
#
#PARAMETER_NAME    .UNIT     VALUE                         : DESCRIPTION
#_______________________________________________________________________________
SET                .         D4390_D                       : 
OTHER              .         Запись производится в присутствии: 
OTHER_10           .         Максимальная температура      : 
OTHER_100          .         GK.FLT = 0.1*GR.UR/H[-1] + (1-0.1)*GR.UR/H[0]: 
OTHER_11           .         Тип промывочной жидкости      : 
OTHER_12           .         Сопротивление ПЖ (Ом*м) при 20°C: 
OTHER_13           .         Плотность ПЖ(г/см3)           : 
OTHER_14           .         Вязкость ПЖ(с)                : 
OTHER_15           .         Водоотдача ПЖ(см3/30мин)      : 
OTHER_16           .         Уровень ПЖ                    : 
OTHER_17           .         Нефть ПЖ (%)                  : 
OTHER_18           .         Барит ПЖ (%)                  : 
OTHER_19           .         Гематит ПЖ (%)                : 
OTHER_2            .         Заказчик ННСН  ЦДНГ-1         : 
OTHER_20           .         КМЦ ПЖ (%)                    : 
OTHER_21           .         Разгазирование ПЖ (да,нет)    : 
OTHER_22           .         Подъемник                     : 
OTHER_23           .         Лаборатория                   : 
OTHER_24           .         Тип кабеля                    : 
OTHER_25           .         Длина кабеля (м)              : 
OTHER_26           .         Цена последней метки          : 
OTHER_27           .         Цена контрольной метки        : 
OTHER_28           .         Диаметр долота (мм)           : 
OTHER_29           .         Глубина бурения (м)           : 
OTHER_3            .         Площадь                       : 
OTHER_30           .         Искусственный забой (м)       : 
OTHER_31           .         Диаметр колонны (мм)          : 
OTHER_32           .         Толщина колонны (мм)          : 
OTHER_33           .         Башмак колонны (м)            : 
OTHER_34           .         Диаметр НКТ (мм)              : 
OTHER_35           .         Толщина НКТ (мм)              : 
OTHER_36           .         Воронка НКТ (м)               : 
OTHER_37           .         Дата цементожа                : 
OTHER_38           .         Тип, количество(т) и плотность цемента: 
OTHER_39           .         Интервалы перфорации (м)      : 
OTHER_4            .         Категория                     : 
OTHER_40           .         Направление, диаметр (мм)     : 
OTHER_41           .         Направление, глубина (м)      : 
OTHER_42           .         Кондуктор, диаметр (мм)       : 
OTHER_43           .         Кондуктор, глубина (м)        : 
OTHER_44           .         Техническая колонна, диаметр (мм): 
OTHER_45           .         Техническая колонна, глубина (м): 
OTHER_46           .         Эксплуатационная колонна, диаметр (мм): 
OTHER_47           .         Эксплуатационная колонна, глубина (м): 
OTHER_48           .         Программа Кедр-02 версия 3.4  : 
OTHER_49           .         Операционная система Windows NT 5.1 build 2600 Service Pack 2: 
OTHER_5            .         Назначение исследований       : 
OTHER_50           .         Программное обеспечение станции MONITOR-386EX 25/12/99 15_08_10   BGF V54 20/09/05 15_32_17   3.3__BGF_9030071: 
OTHER_51           .         Kedr.exe версия 3.4.2.74      : 
OTHER_52           .         KedrData.dll версия 3.4.2.29  : 
OTHER_53           .         Мнемоники версия 3.18 S       : 
OTHER_54           .         Драйвер версия 2.1.1.4        : 
OTHER_55           .         LasInf.dll 4.3.0.35           : 
OTHER_56           .         Прибор_ КСА-Т4                : 
OTHER_57           .         Номер прибора_ 160            : 
OTHER_58           .         Режим_ КСА-Т4                 : 
OTHER_59           .         Форма_ С.А.Б.                 : 
OTHER_6            .         Альтитуда стола ротора        : 
OTHER_60           .         Тарировки_                    : 
OTHER_61           .         <_techsia_sc_> Дата тарировки температуры 25.05.2010: 
OTHER_62           .         Ручной ввод коэффициентов     : 
OTHER_63           .         TM.DEGC = 0.00402*RTM.E.ACP + -0.994: 
OTHER_64           .         <_techsia_sc_> Дата тарировки давления 25.05.2010: 
OTHER_65           .         Ручной ввод коэффициентов     : 
OTHER_66           .         MN.ATM = (2.27521e-006*TM.DEGC + 0.02078)*(RMN.E.ACP + 6.2*TM.DEGC + -1688): 
OTHER_67           .         <_techsia_sc_> Дата тарировки ГК 25.05.2010: 
OTHER_68           .         Ручной ввод коэффициентов     : 
OTHER_69           .         GR.UR/H = RGR.IMP/MIN / 45.5144: 
OTHER_7            .         Вид исследований 3  6         : 
OTHER_70           .         GK.FLT = 0.1*GR.UR/H[-1] + (1-0.1)*GR.UR/H[0]: 
OTHER_71           .         <_techsia_sc_> Дата тарировки температуры 25.05.2010: 
OTHER_72           .         Ручной ввод коэффициентов     : 
OTHER_73           .         TM.DEGC = 0.00402*RTM.E.ACP + -0.994: 
OTHER_74           .         <_techsia_sc_> Дата тарировки давления 25.05.2010: 
OTHER_75           .         Ручной ввод коэффициентов     : 
OTHER_76           .         MN.ATM = (2.27521e-006*TM.DEGC + 0.02078)*(RMN.E.ACP + 6.2*TM.DEGC + -1688): 
OTHER_77           .         <_techsia_sc_> Дата тарировки ГК 25.05.2010: 
OTHER_78           .         Ручной ввод коэффициентов     : 
OTHER_79           .         GR.UR/H = RGR.IMP/MIN / 45.5144: 
OTHER_8            .         Начало бурения интервала каротажа: 
OTHER_80           .         GK.FLT = 0.1*GR.UR/H[-1] + (1-0.1)*GR.UR/H[0]: 
OTHER_81           .         <_techsia_sc_> Дата тарировки температуры 25.05.2010: 
OTHER_82           .         Ручной ввод коэффициентов     : 
OTHER_83           .         TM.DEGC = 0.00402*RTM.E.ACP + -0.994: 
OTHER_84           .         <_techsia_sc_> Дата тарировки давления 25.05.2010: 
OTHER_85           .         Ручной ввод коэффициентов     : 
OTHER_86           .         MN.ATM = (2.27521e-006*TM.DEGC + 0.02078)*(RMN.E.ACP + 6.2*TM.DEGC + -1688): 
OTHER_87           .         <_techsia_sc_> Дата тарировки ГК 25.05.2010: 
OTHER_88           .         Ручной ввод коэффициентов     : 
OTHER_89           .         GR.UR/H = RGR.IMP/MIN / 45.5144: 
OTHER_9            .         Окончание бурения интервала каротажа: 
OTHER_90           .         GK.FLT = 0.1*GR.UR/H[-1] + (1-0.1)*GR.UR/H[0]: 
OTHER_91           .         <_techsia_sc_> Дата тарировки температуры 25.05.2010: 
OTHER_92           .         Ручной ввод коэффициентов     : 
OTHER_93           .         TM.DEGC = 0.00402*RTM.E.ACP + -0.994: 
OTHER_94           .         <_techsia_sc_> Дата тарировки давления 25.05.2010: 
OTHER_95           .         Ручной ввод коэффициентов     : 
OTHER_96           .         MN.ATM = (2.27521e-006*TM.DEGC + 0.02078)*(RMN.E.ACP + 6.2*TM.DEGC + -1688): 
OTHER_97           .         <_techsia_sc_> Дата тарировки ГК 25.05.2010: 
OTHER_98           .         Ручной ввод коэффициентов     : 
OTHER_99           .         GR.UR/H = RGR.IMP/MIN / 45.5144: 
PROJECT_UPGRADE_TIME .         2021-03-18T21_24_50           : 
TLFamily_CCLC      .                                       : 
TLFamily_DEPT      .         Measured Depth                : 
TLFamily_GK        .         Gamma Ray                     : 
TLFamily_GR        .         Gamma Ray                     : 
TLFamily_METKA     .                                       : 
TLFamily_MN        .                                       : 
TLFamily_RCOR      .                                       : 
TLFamily_RGR       .                                       : 
TLFamily_RMN       .                                       : 
TLFamily_RTEN      .                                       : 
TLFamily_RTM       .                                       : 
TLFamily_SPEE      .         Cable Speed                   : 
TLFamily_TIME      .         Time                          : 
TLFamily_TM        .         Temperature                   : 
group              .         prim                          : 
~Curve Information
#_______________________________________________________________________________
#
#LOGNAME           .UNIT     LOG_ID                        : DESCRIPTION
#_______________________________________________________________________________
DEPT               .M                                      : 1 Глубина, м -    0.0 см 
CCLC               .E.ACP                                  : 9 Локатор муфт,  -   20.0 см 
GK                 .FLT                                    : 14 Гамма-активность фильтрованная, мкр./ч -  110.0 см 
GR                 .UR/H                                   : 13 Гамма-активность, мкр./ч -  110.0 см 
METKA              .CU                                     : 3 Метки,  -    0.0 см 
MN                 .ATM                                    : 12 Давление, атм. -  160.0 см 
RCOR               .CM/KM                                  : 5 Коррекция по ролику, см/км -    0.0 см 
RGR                .IMP/MIN                                : 10 Гамма-активность, усл.ед. -  110.0 см 
RMN                .E.ACP                                  : 8 Давление, усл.ед. -  160.0 см 
RTEN               .T                                      : 6 Натяжение кабеля, т -    0.0 см 
RTM                .E.ACP                                  : 7 Температура, усл.ед. -  170.0 см 
SPEE               .M/H                                    : 2 Скорость, м/час -    0.0 см 
TIME               .S                                      : 4 Время, сек -    0.0 см 
TM                 .DEGC                                   : 11 Температура, °C -  170.0 см 
~Ascii
# ...
2386       380        8.13       8.13       0          213.35     -1018      370        11495      0.17       15885      1594       5173.44    62.863    
2386.2     469        8.13       8.13       0          213.391    -1018      370        11497      0.17       15887      1594       5173.9     62.873    
2386.4     451        8.16       8.16       0          213.402    -1018      371        11497      0.17       15889      1594       5174.32    62.879    
2386.6     430        8.2        8.2        0          213.414    -1018      373        11498      0.17       15891      1595       5174.8     62.888    
2386.8     465        8.2        8.2        0          213.433    -1018      373        11499      0.17       15893      1595       5175.26    62.897    
2387       588        8.2        8.2        0          213.478    -1018      373        11501      0.17       15895      1595       5175.69    62.903    
2387.2     772        8.2        8.2        0          213.474    -1018      373        11501      0.17       15897      1595       5176.15    62.914    
2387.4     690        8.2        8.2        0          213.503    -1018      373        11502      0.17       15899      1595       5176.62    62.92     
2387.6     594        8.32       8.32       0          213.519    -1018      379        11503      0.17       15901      1592       5177.09    62.929    
2387.8     724        8.37       8.37       0          213.546    -1018      381        11504      0.17       15903      1592       5177.54    62.937    
2388       737        8.37       8.37       0          213.532    -1018      381        11503      0.17       15905      1592       5178       62.944    
2388.2     558        8.37       8.37       0          213.584    -1018      381        11506      0.17       15907      1593       5178.42    62.954    
2388.4     452        8.37       8.37       0          213.584    -1018      381        11506      0.17       15910      1593       5178.89    62.964    
2388.6     419        8.37       8.37       0          213.609    -1018      381        11507      0.17       15912      1593       5179.37    62.973    
2388.8     355        8.26       8.26       0          213.636    -1018      376        11508      0.17       15914      1593       5179.81    62.979    
2389       288        8.26       8.26       0          213.643    -1018      376        11508      0.17       15916      1591       5180.25    62.989    
2389.2     309        8.26       8.26       0          213.67     -1018      376        11509      0.17       15918      1590       5180.71    62.996    
2389.4     367        8.26       8.26       0          213.683    -1018      376        11510      0.17       15920      1590       5181.18    63.005    
2389.6     371        8.26       8.26       0          213.702    -1018      376        11511      0.17       15922      1591       5181.65    63.01     
2389.8     390        7.56       7.56       0          213.727    -1018      344        11512      0.17       15924      1592       5182.09    63.02     
2390       437        7.56       7.56       0          213.733    -1018      344        11512      0.17       15926      1592       5182.54    63.027    
2390.2     434        7.56       7.56       0          213.761    -1018      344        11514      0.17       15928      1592       5183       63.036    
2390.4     457        7.56       7.56       0          213.773    -1018      344        11514      0.17       15930      1590       5183.46    63.045    
2390.6     506        7.56       7.56       0          213.792    -1018      344        11515      0.17       15932      1590       5183.92    63.051    
2390.8     460        7.57       7.57       0          213.819    -1018      345        11516      0.17       15934      1591       5184.37    63.06     
2391       558        7.69       7.69       0          213.846    -1018      350        11517      0.17       15936      1591       5184.81    63.07     
2391.2     5440       7.69       7.69       0          213.861    -1018      350        11518      0.17       15938      1592       5185.27    63.077    
2391.4     3514       7.69       7.69       0          213.878    -1018      350        11519      0.17       15940      1592       5185.72    63.085    
2391.6     2432       7.69       7.69       0          213.885    -1018      350        11519      0.17       15942      1593       5186.2     63.092    
2391.8     1240       7.69       7.69       0          213.897    -1018      350        11520      0.17       15944      1593       5186.66    63.099    
2392       887        8          8          0          213.95     -1018      364        11522      0.17       15946      1593       5187.08    63.107    
2392.2     733        8.44       8.44       0          213.951    -1018      384        11522      0.17       15947      1592       5187.55    63.113    
2392.4     657        8.44       8.44       0          213.969    -1018      384        11523      0.17       15949      1591       5188.02    63.122    
2392.6     539        8.44       8.44       0          213.995    -1018      384        11524      0.17       15951      1590       5188.48    63.128    
2392.8     522        8.44       8.44       0          214.001    -1018      384        11524      0.17       15953      1590       5188.91    63.138    
2393       563        8.43       8.43       0          214.035    -1018      384        11526      0.17       15955      1591       5189.37    63.144    
2393.2     520        8.41       8.41       0          214.048    -1018      383        11526      0.17       15957      1591       5189.83    63.154    
2393.4     625        8.41       8.41       0          214.06     -1018      383        11527      0.17       15959      1592       5190.3     63.162    
2393.6     612        8.41       8.41       0          214.085    -1018      383        11528      0.17       15961      1592       5190.76    63.169    
2393.8     487        8.41       8.41       0          214.107    -1018      383        11529      0.17       15963      1591       5191.18    63.176    
2394       523        8.41       8.41       0          214.129    -1018      383        11530      0.17       15965      1589       5191.64    63.184    
2394.2     559        8.06       8.06       0          214.151    -1018      367        11531      0.17       15966      1590       5192.1     63.19     
2394.4     649        7.91       7.91       0          214.171    -1018      360        11532      0.17       15969      1591       5192.56    63.2      
2394.6     514        7.91       7.91       0          214.179    -1018      360        11532      0.17       15971      1590       5193.01    63.207    
2394.8     599        7.91       7.91       0          214.217    -1018      360        11534      0.17       15972      1589       5193.45    63.215    
2395       532        7.91       7.91       0          214.218    -1018      360        11534      0.17       15974      1588       5193.92    63.221    
2395.2     572        7.91       7.91       0          214.253    -1018      360        11536      0.17       15976      1589       5194.39    63.23     
2395.4     759        8.06       8.06       0          214.243    -1018      367        11535      0.17       15978      1590       5194.87    63.237    
2395.6     706        8.06       8.06       0          214.285    -1018      367        11537      0.17       15980      1590       5195.29    63.246    
2395.8     650        8.06       8.06       0          214.295    -1018      367        11537      0.17       15983      1591       5195.76    63.256    
2396       607        8.06       8.06       2          214.308    -1019      367        11538      0.17       15984      1592       5196.23    63.262    
2396.2     682        8.06       8.06       0          214.343    -1021      367        11540      0.17       15986      1592       5196.72    63.27     
