~Version
 VERS              .         2.0                           : CWLS LOG ASCII STANDARD - VERSION 2.0
 WRAP              .         NO                            : ONE LINE PER DEPTH STEP
 DLM               .         SPACE                         : DELIMITING CHARACTER(SPACE TAB OR COMMA)
~Well Information
#_______________________________________________________________________________
#
#PARAMETER_NAME    .UNIT     VALUE                         : DESCRIPTION
#_______________________________________________________________________________
STRT               .M        2647.6                        : First reference value
STOP               .M        2757.2                        : Last reference value
STEP               .M        0.1999997                     : Step increment
NULL               .         -9999                         : Missing value
COMP               .                                       : Company
WELL               .         616                           : Well name
FLD                .                                       : Field
LOC                .                                       : Location
CNTY               .                                       : County
STAT               .                                       : State
CTRY               .                                       : Country
SRVC               .                                       : Service Company
DATE               .                                       : Date
API                .                                       : API number
PROJECT_UPGRADE_TIME .         2021-03-18T21_24_50           : 
group              .         Good                          : 
~Parameter Information Block
#_______________________________________________________________________________
#
#PARAMETER_NAME    .UNIT     VALUE                         : DESCRIPTION
#_______________________________________________________________________________
SET                .         D7017_D                       : 
OTHER              .         Kedr.exe версия 2.1.2.32      : 
OTHER_10           .         TM.GRD = 0.00404*TM$.UE + 0.07: 
OTHER_11           .         MN.ATM = (6.33279e-006*TM.GRD + 0.02401)*(MN$.UE + 2.72*TM.GRD + -2018): 
OTHER_12           .         GK.MKR/H = GK$.UE / 43.5489 + 0: 
OTHER_13           .         RES.SM = 0.00476*CRES.UE - 1.51709: 
OTHER_14           .         PL.GSM3 = 0 + 0 * (PL.UE / 1) +  0 * (PL.UE / 1)^2: 
OTHER_15           .         Постоянная времени ГГП = 6 сек: 
OTHER_16           .         Постоянная времени ГК = 6 сек : 
OTHER_2            .         KedrData.dll версия 3.2.2.14  : 
OTHER_3            .         LasInf.dll версия 3.2.0.13    : 
OTHER_4            .         Драйвер версия 1.2.0.5        : 
OTHER_5            .         Прибор_ КСА-M1                : 
OTHER_6            .         Номер прибора_ 155+р204       : 
OTHER_7            .         Режим_ КСА-М1 + ГГП + Резистивиметр: 
OTHER_8            .         Форма_ 223\2                  : 
OTHER_9            .         Тарировки_                    : 
PROJECT_UPGRADE_TIME .         2021-03-18T21_24_50           : 
TLFamily_CRES      .                                       : 
TLFamily_DEPT      .         Measured Depth                : 
TLFamily_GK        .         Gamma Ray                     : 
TLFamily_GK$       .                                       : 
TLFamily_LM        .         Casing Collar locator         : 
TLFamily_METKA     .                                       : 
TLFamily_MN        .                                       : 
TLFamily_MN$       .                                       : 
TLFamily_PL        .                                       : 
TLFamily_PL_2      .                                       : 
TLFamily_RCOR      .                                       : 
TLFamily_RES       .         Mud Resistivity               : 
TLFamily_SPID      .         Spontaneous Potential         : 
TLFamily_STD       .                                       : 
TLFamily_TIME      .         Time                          : 
TLFamily_TM        .         Temperature                   : 
TLFamily_TM$       .         Temperature                   : 
TLFamily_VGD       .         Gas Volume                    : 
group              .         prim                          : 
~Curve Information
#_______________________________________________________________________________
#
#LOGNAME           .UNIT     LOG_ID                        : DESCRIPTION
#_______________________________________________________________________________
DEPT               .M                                      : 1 Глубина, м -    0.0 см 
CRES               .UE                                     : 9 Проводимость, усл.ед. -  222.0 см 
GK                 .MKR/H                                  : 16 Гамма-активность, мкр./ч -  106.0 см 
GK$                .UE                                     : 13 Гамма-активность, усл.ед. -  106.0 см 
LM                 .                                       : 11 Локатор муфт,  -   16.0 см 
METKA              .                                       : 3 Метки,  -    0.0 см 
MN                 .ATM                                    : 15 Давление, атм. -  160.0 см 
MN$                .UE                                     : 7 Давление, усл.ед. -  160.0 см 
PL                 .UE                                     : 10 Плотность, усл.ед. -  270.0 см 
PL_2               .GSM3                                   : 18 Плотность, г./см3 -  270.0 см 
RCOR               .CM/KM                                  : 5 Коррекция по ролику, см/км -    0.0 см 
RES                .SM                                     : 17 Проводимость,  -  222.0 см 
SPID               .M/H                                    : 2 Скорость, м/час -    0.0 см 
STD                .                                       : 12 Приток,  -  170.0 см 
TIME               .S                                      : 4 Время, сек -    0.0 см 
TM                 .GRD                                    : 14 Температура, °C -  180.0 см 
TM$                .UE                                     : 6 Температура, усл.ед. -  180.0 см 
VGD                .                                       : 8 Влагомер,  -  170.0 см 
~Ascii
# ...
2713.2     1193       8.31       346        113        0          249.695    12168      14         0          0          4.1616     -260       9026       8252.17    46.031     11376      6641      
2713.4     1186       8.39       384        222        0          249.703    12168      14         0          0          4.1283     -260       9028       8249.28    46.033     11377      6641      
2713.6     1195       7.52       366        344        0          249.703    12168      14         0          0          4.1728     -191       9028       8246.51    46.033     11377      6641      
2713.8     1198       7.1        307        172        0          249.728    12169      14         0          0          4.1857     -260       9030       8243.51    46.033     11377      6642      
2714       1196       7.31       316        327        0          249.752    12170      15         0          0          4.1759     -260       9028       8240.74    46.033     11377      6642      
2714.2     1210       6.99       303        77         0          249.76     12170      14         0          0          4.2425     -260       9026       8237.99    46.033     11377      6643      
2714.4     1206       7.07       306        50         0          249.801    12172      14         0          0          4.2219     -190       9026       8235.24    46.033     11377      6643      
2714.6     1209       7.25       305        51         0          249.801    12172      14         0          0          4.2361     -260       9028       8232.35    46.037     11378      6644      
2714.8     1204       7.64       326        67         0          249.825    12173      14         0          0          4.2123     -300       9032       8229.46    46.037     11378      6642      
2715       1200       7.54       351        55         0          249.825    12173      13         0          0          4.1949     -260       9035       8226.7     46.037     11378      6643      
2715.2     1206       7.2        313        64         0          249.85     12174      14         0          0          4.2235     -260       9033       8223.95    46.037     11378      6643      
2715.4     1207       7.44       309        73         0          249.874    12175      14         0          0          4.2282     -260       9033       8221.05    46.041     11379      6640      
2715.6     1210       8          331        68         0          249.898    12176      13         0          0          4.2424     -260       9032       8218.31    46.036     11378      6644      
2715.8     1213       9.09       375        101        0          249.898    12176      14         0          0          4.2553     -260       9037       8215.55    46.037     11378      6647      
2716       1217       10.32      440        149        0          249.923    12177      13         0          0          4.2758     -260       9038       8212.67    46.037     11378      6650      
2716.2     1216       10.72      462        136        0          249.948    12178      13         0          0          4.2711     -260       9040       8209.91    46.04      11379      6646      
2716.4     1217       10.79      474        52         0          249.956    12178      14         0          0          4.2758     -260       9044       8207.14    46.045     11380      6648      
2716.6     1215       10.59      470        75         0          249.973    12179      14         0          0          4.2663     -260       9040       8204.26    46.049     11381      6649      
2716.8     1211       10.59      452        93         0          249.974    12179      14         0          0          4.2456     -260       9038       8201.5     46.053     11382      6649      
2717       1210       9.84       478        104        0          249.998    12180      14         0          0          4.2425     -260       9037       8198.69    46.056     11383      6648      
2717.2     1211       7.71       352        184        0          250.022    12181      14         0          0          4.2473     -260       9034       8195.86    46.057     11383      6648      
2717.4     1211       6.79       296        188        0          250.005    12180      14         0          0          4.2489     -260       9034       8193.11    46.057     11383      6648      
2717.6     1212       6.76       300        252        0          250.045    12182      14         0          0          4.252      -260       9035       8190.21    46.051     11381      6650      
2717.8     1214       6.38       293        206        0          250.043    12182      13         0          0          4.2615     -260       9031       8187.45    46.045     11380      6650      
2718       1208       6.02       259        165        0          250.065    12183      14         0          0          4.233      -260       9029       8184.71    46.033     11377      6650      
2718.2     1214       6.22       261        171        0          250.098    12184      14         0          0          4.2615     -260       9032       8181.95    46.009     11371      6652      
2718.4     1216       6.5        274        298        0          250.111    12184      14         0          0          4.2695     -260       9034       8179.07    46.02      11374      6653      
2718.6     1214       6.93       282        757        0          250.127    12185      14         0          0          4.2615     -260       9027       8176.3     46.114     11397      6648      
2718.8     1214       7.09       317        282        0          250.151    12186      13         0          0          4.2616     -300       9024       8173.42    46.114     11397      6652      
2719       1214       6.48       285        412        0          250.151    12186      13         0          0          4.2631     -260       9025       8170.66    46.114     11397      6654      
2719.2     1214       6.39       264        302        0          250.176    12187      14         0          0          4.2615     -213       9022       8167.9     46.114     11397      6655      
2719.4     1218       7.05       299        272        0          250.197    12188      15         0          0          4.2806     -260       9033       8165.02    46.114     11397      6656      
2719.6     1213       7.35       324        143        0          250.196    12188      14         0          0          4.2567     -260       9056       8162.25    46.094     11392      6658      
2719.8     1213       7.2        317        149        0          250.218    12189      13         0          0          4.2583     -260       9062       8159.38    46.086     11390      6657      
2720       1218       7.18       310        161        1          250.233    12190      13         0          0          4.279      -260       9060       8156.75    46.069     11386      6658      
2720.2     1203       7.17       316        148        0          250.224    12189      14         0          0          4.2108     -300       9059       8152.16    46.059     11383      6660      
2720.4     1224       7.06       306        106        0          250.239    12190      14         0          0          4.3107     -260       9057       8149.39    46.049     11381      6659      
2720.6     1228       7.35       313        110        0          250.256    12191      14         0          0          4.3282     -260       9053       8146.51    46.045     11380      6661      
2720.8     1217       7.74       338        121        0          250.263    12191      14         0          0          4.2746     -260       9047       8143.75    46.044     11380      6661      
2721       1231       7.65       341        125        0          250.288    12192      14         0          0          4.3424     -300       9048       8140.87    46.037     11378      6660      
2721.2     1231       7.73       320        130        0          250.291    12192      14         0          0          4.3425     -300       9051       8138.11    46.045     11380      6661      
