~Version
 VERS              .         2.0                           : CWLS LOG ASCII STANDARD - VERSION 2.0
 WRAP              .         NO                            : ONE LINE PER DEPTH STEP
 DLM               .         SPACE                         : DELIMITING CHARACTER(SPACE TAB OR COMMA)
~Well Information
#_______________________________________________________________________________
#
#PARAMETER_NAME    .UNIT     VALUE                         : DESCRIPTION
#_______________________________________________________________________________
STRT               .M        2658.8                        : First reference value
STOP               .M        2768.199891                   : Last reference value
STEP               .M        0.1999998                     : Step increment
NULL               .         -9999                         : Missing value
COMP               .                                       : Company
WELL               .         616                           : Well name
FLD                .                                       : Field
LOC                .                                       : Location
CNTY               .                                       : County
STAT               .                                       : State
CTRY               .                                       : Country
SRVC               .                                       : Service Company
DATE               .                                       : Date
API                .                                       : API number
PROJECT_UPGRADE_TIME .         2021-03-18T21_24_50           : 
group              .         Good                          : 
~Parameter Information Block
#_______________________________________________________________________________
#
#PARAMETER_NAME    .UNIT     VALUE                         : DESCRIPTION
#_______________________________________________________________________________
SET                .         D7017_D_2                     : 
NPR                .         155                           : Номер прибора
OTHER              .         Kedr.exe версия 2.1.2.32      : 
OTHER_10           .         TM.GRD = 0.00404*TM$.UE + 0.07: 
OTHER_11           .         MN.ATM = (6.33279e-006*TM.GRD + 0.02401)*(MN$.UE + 2.72*TM.GRD + -2018): 
OTHER_12           .         GK.MKR/H = GK$.UE / 43.5489 + 0: 
OTHER_13           .         RES.SM = 0.00476*CRES.UE - 1.51709: 
OTHER_14           .         PL.GSM3 = 0 + 0 * (PL.UE / 1) +  0 * (PL.UE / 1)^2: 
OTHER_15           .         Постоянная времени ГГП = 6 сек: 
OTHER_16           .         Постоянная времени ГК = 6 сек : 
OTHER_2            .         KedrData.dll версия 3.2.2.14  : 
OTHER_3            .         LasInf.dll версия 3.2.0.13    : 
OTHER_4            .         Драйвер версия 1.2.0.5        : 
OTHER_5            .         Прибор_ КСА-M1                : 
OTHER_6            .         Номер прибора_ 155+р204       : 
OTHER_7            .         Режим_ КСА-М1 + ГГП + Резистивиметр: 
OTHER_8            .         Форма_ 223\2                  : 
OTHER_9            .         Тарировки_                    : 
PR                 .         КСА-Т7 М1                     : Тип прибора
PROJECT_UPGRADE_TIME .         2021-03-18T21_24_50           : 
PRTY               .         ПП-223_2                      : Номер партии
SRV                .         ЦКРС                          : Заказчик
SRVC               .         Лузин  А.Б.                   : Начальник партии
TLFamily_DEPT      .         Measured Depth                : 
TLFamily_GK        .         Gamma Ray                     : 
TLFamily_LM        .         Casing Collar locator         : 
TLFamily_MN        .                                       : 
TLFamily_SPID      .         Spontaneous Potential         : 
TLFamily_TM        .         Temperature                   : 
group              .         second                        : 
~Curve Information
#_______________________________________________________________________________
#
#LOGNAME           .UNIT     LOG_ID                        : DESCRIPTION
#_______________________________________________________________________________
DEPT               .M                                      : Depth curve 
GK                 .мкР/час                                : Гамма каротаж, мкр/час 
LM                 .е.ацп                                  : Локация муфт 
MN                 .атм                                    : Манометрия, атм 
SPID               .м/ч                                    : Скорость записи,м/час 
TM                 .град.С                                 : Термометрия,град.С 
~Ascii
# ...
2754.799904 8.85       210.993    252.63     -260       56.05     
2754.999904 8.94       182.999    252.64     -260       56.22     
2755.199904 8.65       181.012    252.68     -260.005   56.34     
2755.399903 8.51       227.992    252.72     -280.005   56.43     
2755.599903 9.11       198.01     252.74     -299.984   56.62     
2755.799903 9.76       237.99     252.79     -236.006   56.76     
2755.999903 10.06      199.006    252.83     -260       56.9      
2756.199903 9.23       221.005    252.88     -260       57.02     
2756.399902 8.4        241        252.92     -260       57.2      
2756.599902 7.62       239.995    252.94     -260       57.34     
2756.799902 6.93       219.003    253        -260.01    57.47     
2756.999902 7.09       230.998    253.01     -299.99    57.57     
2757.199902 7.79       222.001    253.1      -260       57.69     
2757.399901 7.36       224.04     253.13     -260       57.94     
2757.599901 6.95       383.142    253.16     -260.005   58.11     
2757.799901 7.89       4922.939   253.21     -277.995   58.21     
2757.999901 8.84       706.893    253.25     -260       58.38     
2758.199901 9.18       282        253.3      -260       58.53     
2758.3999  9.76       282.991    253.35     -260       58.65     
2758.5999  9.26       246.038    253.39     -260       58.78     
2758.7999  8.34       397.981    253.43     -260       58.87     
2758.9999  8.11       322.024    253.46     -260       58.98     
2759.1999  8.01       418.976    253.5      -260       59.07     
2759.399899 8.45       322.008    253.53     -260       59.14     
2759.599899 8.92       353.951    253.6      -260       59.2      
2759.799899 8.66       158.989    253.63     -260       59.32     
2759.999899 8.57       117.009    253.69     -260.005   59.43     
2760.199899 8.92       152.983    253.71     -279.995   59.51     
2760.399898 9.26       87.002     253.75     -259.982   59.56     
2760.599898 9.2        93.007     253.79     -190.018   59.59     
2760.799898 10.51      120.076    253.85     -260       59.65     
2760.999898 12.21      423.002    254        -260       59.85     
2761.199898 11.17      428.922    254.09     -260       60.69     
2761.399897 10.48      118.975    254.12     -260       61.13     
2761.599897 10.65      19.999     254.15     -260       61.14     
2761.799897 10.38      16         254.19     -260       61.17     
2761.999897 9.97       17         254.23     -260       61.2      
2762.199897 9.64       16         254.27     -260       61.18     
2762.399896 9.87       17         254.3      -260       61.1      
2762.599896 10.14      17         254.27     -260.005   60.95     
2762.799896 9.92       18         254.27     -280       60.41     
2762.999896 10.08      18         254.27     -280.005   60.22     
2763.199896 10.09      18         254.31     -299.994   60.2      
2763.399895 10.3       18         254.29     -276.996   60.17     
2763.599895 10.41      19         254.33     -260       60.14     
2763.799895 10.68      18.001     254.33     -260       60.1      
2763.999895 10.68      20         254.35     -260       60.07     
2764.199895 10.93      20         254.35     -260       60.04     
2764.399894 11.22      20         254.37     -260       60.01     
2764.599894 11.11      20         254.39     -260       59.98     
2764.799894 10.43      19         254.41     -260       59.95     
2764.999894 10.2       19.001     254.43     -260       59.92     
2765.199894 10.57      21         254.42     -260       59.88     
2765.399893 10.46      21         254.46     -260       59.85     
2765.599893 10.48      22         254.47     -260       59.83     
2765.799893 10.4       22         254.48     -9999      59.8      
2765.999893 10.82      -9999      254.51     -9999      59.77     
2766.199893 11.04      -9999      254.54     -9999      59.75     
2766.399892 10.76      -9999      254.57     -9999      59.73     
2766.599892 10.11      -9999      254.57     -9999      59.7      
2766.799892 -9999      -9999      254.62     -9999      59.68     
2766.999892 -9999      -9999      254.64     -9999      59.68     
2767.199892 -9999      -9999      254.66     -9999      59.66     
2767.399891 -9999      -9999      -9999      -9999      59.66     
2767.599891 -9999      -9999      -9999      -9999      -9999     
2767.799891 -9999      -9999      -9999      -9999      -9999     
2767.999891 -9999      -9999      -9999      -9999      -9999     
2768.199891 -9999      -9999      -9999      -9999      -9999     
