~Version
 VERS              .         2.0                           : CWLS LOG ASCII STANDARD - VERSION 2.0
 WRAP              .         NO                            : ONE LINE PER DEPTH STEP
 DLM               .         SPACE                         : DELIMITING CHARACTER(SPACE TAB OR COMMA)
~Well Information
#_______________________________________________________________________________
#
#PARAMETER_NAME    .UNIT     VALUE                         : DESCRIPTION
#_______________________________________________________________________________
STRT               .M        44.8                          : First reference value
STOP               .M        2755.2                        : Last reference value
STEP               .M        0.2                           : Step increment
NULL               .         -9999                         : Missing value
COMP               .                                       : Company
WELL               .         616                           : Well name
FLD                .                                       : Field
LOC                .                                       : Location
CNTY               .                                       : County
STAT               .                                       : State
CTRY               .                                       : Country
SRVC               .                                       : Service Company
DATE               .                                       : Date
API                .                                       : API number
PROJECT_UPGRADE_TIME .         2021-03-18T21_24_50           : 
group              .         Good                          : 
~Parameter Information Block
#_______________________________________________________________________________
#
#PARAMETER_NAME    .UNIT     VALUE                         : DESCRIPTION
#_______________________________________________________________________________
SET                .         D4390_D_2                     : 
COMM               .                                       : 
OTHER              .         Запись производится в присутствии: 
OTHER_10           .         Максимальная температура      : 
OTHER_100          .         GK.FLT = 0.1*GR.UR/H[-1] + (1-0.1)*GR.UR/H[0]: 
OTHER_11           .         Тип промывочной жидкости      : 
OTHER_12           .         Сопротивление ПЖ (Ом*м) при 20°C: 
OTHER_13           .         Плотность ПЖ(г/см3)           : 
OTHER_14           .         Вязкость ПЖ(с)                : 
OTHER_15           .         Водоотдача ПЖ(см3/30мин)      : 
OTHER_16           .         Уровень ПЖ                    : 
OTHER_17           .         Нефть ПЖ (%)                  : 
OTHER_18           .         Барит ПЖ (%)                  : 
OTHER_19           .         Гематит ПЖ (%)                : 
OTHER_2            .         Заказчик ННСН  ЦДНГ-1         : 
OTHER_20           .         КМЦ ПЖ (%)                    : 
OTHER_21           .         Разгазирование ПЖ (да,нет)    : 
OTHER_22           .         Подъемник                     : 
OTHER_23           .         Лаборатория                   : 
OTHER_24           .         Тип кабеля                    : 
OTHER_25           .         Длина кабеля (м)              : 
OTHER_26           .         Цена последней метки          : 
OTHER_27           .         Цена контрольной метки        : 
OTHER_28           .         Диаметр долота (мм)           : 
OTHER_29           .         Глубина бурения (м)           : 
OTHER_3            .         Площадь                       : 
OTHER_30           .         Искусственный забой (м)       : 
OTHER_31           .         Диаметр колонны (мм)          : 
OTHER_32           .         Толщина колонны (мм)          : 
OTHER_33           .         Башмак колонны (м)            : 
OTHER_34           .         Диаметр НКТ (мм)              : 
OTHER_35           .         Толщина НКТ (мм)              : 
OTHER_36           .         Воронка НКТ (м)               : 
OTHER_37           .         Дата цементожа                : 
OTHER_38           .         Тип, количество(т) и плотность цемента: 
OTHER_39           .         Интервалы перфорации (м)      : 
OTHER_4            .         Категория                     : 
OTHER_40           .         Направление, диаметр (мм)     : 
OTHER_41           .         Направление, глубина (м)      : 
OTHER_42           .         Кондуктор, диаметр (мм)       : 
OTHER_43           .         Кондуктор, глубина (м)        : 
OTHER_44           .         Техническая колонна, диаметр (мм): 
OTHER_45           .         Техническая колонна, глубина (м): 
OTHER_46           .         Эксплуатационная колонна, диаметр (мм): 
OTHER_47           .         Эксплуатационная колонна, глубина (м): 
OTHER_48           .         Программа Кедр-02 версия 3.4  : 
OTHER_49           .         Операционная система Windows NT 5.1 build 2600 Service Pack 2: 
OTHER_5            .         Назначение исследований       : 
OTHER_50           .         Программное обеспечение станции MONITOR-386EX 25/12/99 15_08_10   BGF V54 20/09/05 15_32_17   3.3__BGF_9030071: 
OTHER_51           .         Kedr.exe версия 3.4.2.74      : 
OTHER_52           .         KedrData.dll версия 3.4.2.29  : 
OTHER_53           .         Мнемоники версия 3.18 S       : 
OTHER_54           .         Драйвер версия 2.1.1.4        : 
OTHER_55           .         LasInf.dll 4.3.0.35           : 
OTHER_56           .         Прибор_ КСА-Т4                : 
OTHER_57           .         Номер прибора_ 160            : 
OTHER_58           .         Режим_ КСА-Т4                 : 
OTHER_59           .         Форма_ С.А.Б.                 : 
OTHER_6            .         Альтитуда стола ротора        : 
OTHER_60           .         Тарировки_                    : 
OTHER_61           .         <_techsia_sc_> Дата тарировки температуры 25.05.2010: 
OTHER_62           .         Ручной ввод коэффициентов     : 
OTHER_63           .         TM.DEGC = 0.00402*RTM.E.ACP + -0.994: 
OTHER_64           .         <_techsia_sc_> Дата тарировки давления 25.05.2010: 
OTHER_65           .         Ручной ввод коэффициентов     : 
OTHER_66           .         MN.ATM = (2.27521e-006*TM.DEGC + 0.02078)*(RMN.E.ACP + 6.2*TM.DEGC + -1688): 
OTHER_67           .         <_techsia_sc_> Дата тарировки ГК 25.05.2010: 
OTHER_68           .         Ручной ввод коэффициентов     : 
OTHER_69           .         GR.UR/H = RGR.IMP/MIN / 45.5144: 
OTHER_7            .         Вид исследований 3  6         : 
OTHER_70           .         GK.FLT = 0.1*GR.UR/H[-1] + (1-0.1)*GR.UR/H[0]: 
OTHER_71           .         <_techsia_sc_> Дата тарировки температуры 25.05.2010: 
OTHER_72           .         Ручной ввод коэффициентов     : 
OTHER_73           .         TM.DEGC = 0.00402*RTM.E.ACP + -0.994: 
OTHER_74           .         <_techsia_sc_> Дата тарировки давления 25.05.2010: 
OTHER_75           .         Ручной ввод коэффициентов     : 
OTHER_76           .         MN.ATM = (2.27521e-006*TM.DEGC + 0.02078)*(RMN.E.ACP + 6.2*TM.DEGC + -1688): 
OTHER_77           .         <_techsia_sc_> Дата тарировки ГК 25.05.2010: 
OTHER_78           .         Ручной ввод коэффициентов     : 
OTHER_79           .         GR.UR/H = RGR.IMP/MIN / 45.5144: 
OTHER_8            .         Начало бурения интервала каротажа: 
OTHER_80           .         GK.FLT = 0.1*GR.UR/H[-1] + (1-0.1)*GR.UR/H[0]: 
OTHER_81           .         <_techsia_sc_> Дата тарировки температуры 25.05.2010: 
OTHER_82           .         Ручной ввод коэффициентов     : 
OTHER_83           .         TM.DEGC = 0.00402*RTM.E.ACP + -0.994: 
OTHER_84           .         <_techsia_sc_> Дата тарировки давления 25.05.2010: 
OTHER_85           .         Ручной ввод коэффициентов     : 
OTHER_86           .         MN.ATM = (2.27521e-006*TM.DEGC + 0.02078)*(RMN.E.ACP + 6.2*TM.DEGC + -1688): 
OTHER_87           .         <_techsia_sc_> Дата тарировки ГК 25.05.2010: 
OTHER_88           .         Ручной ввод коэффициентов     : 
OTHER_89           .         GR.UR/H = RGR.IMP/MIN / 45.5144: 
OTHER_9            .         Окончание бурения интервала каротажа: 
OTHER_90           .         GK.FLT = 0.1*GR.UR/H[-1] + (1-0.1)*GR.UR/H[0]: 
OTHER_91           .         <_techsia_sc_> Дата тарировки температуры 25.05.2010: 
OTHER_92           .         Ручной ввод коэффициентов     : 
OTHER_93           .         TM.DEGC = 0.00402*RTM.E.ACP + -0.994: 
OTHER_94           .         <_techsia_sc_> Дата тарировки давления 25.05.2010: 
OTHER_95           .         Ручной ввод коэффициентов     : 
OTHER_96           .         MN.ATM = (2.27521e-006*TM.DEGC + 0.02078)*(RMN.E.ACP + 6.2*TM.DEGC + -1688): 
OTHER_97           .         <_techsia_sc_> Дата тарировки ГК 25.05.2010: 
OTHER_98           .         Ручной ввод коэффициентов     : 
OTHER_99           .         GR.UR/H = RGR.IMP/MIN / 45.5144: 
PROJECT_UPGRADE_TIME .         2021-03-18T21_24_50           : 
PRTY               .         ПП-601-1                      : N партии
SRVC               .         Барковский                    : Начальник партии
TLFamily_DEPT      .         Measured Depth                : 
TLFamily_LM        .         Casing Collar locator         : 
TLFamily_METKA     .                                       : 
TLFamily_MN        .                                       : 
TLFamily_TM        .         Temperature                   : 
group              .         second                        : 
~Curve Information
#_______________________________________________________________________________
#
#LOGNAME           .UNIT     LOG_ID                        : DESCRIPTION
#_______________________________________________________________________________
DEPT               .M                                      : Depth curve 
LM                 .е.ацп                                  : Локатор муфт,е.ацп 
METKA              .е.ацп                                  : Магнитные метки,е.ацп 
MN                 .атм                                    : 12 Давление, атм. -  160.0 см 
TM                 .град.C                                 : Термограмма по стволу скважины,град.C 
~Ascii
# ...
1826       1369.951   0          161.041    47.842    
1826.2     991.965    0          161.047    47.848    
1826.4     721.992    0          161.092    47.855    
1826.6     660.99     0          161.111    47.861    
1826.8     585.011    0          161.112    47.869    
1827       667.983    0          161.13     47.875    
1827.2     533.005    0          161.154    47.881    
1827.4     568.002    0          161.18     47.883    
1827.6     584.991    0          161.199    47.891    
1827.8     518.997    0          161.2      47.897    
1828       498.008    0          161.215    47.902    
1828.2     561.012    0          161.259    47.906    
1828.4     654.007    0          161.285    47.911    
1828.6     704.994    0          161.286    47.916    
1828.8     661.989    0          161.294    47.92     
1829       576.011    0          161.32     47.921    
1829.2     661.99     0          161.33     47.93     
1829.4     587.999    0          161.349    47.935    
1829.6     581.022    0          161.373    47.939    
1829.8     754.002    0          161.379    47.944    
1830       772.983    0          161.405    47.953    
1830.2     640.992    0          161.43     47.958    
1830.4     575.997    0          161.439    47.962    
1830.6     554.995    0          161.458    47.967    
1830.8     516.004    0          161.466    47.972    
1831       544.998    0          161.504    47.976    
1831.2     528.995    0          161.513    47.981    
1831.4     493.997    0          161.515    47.99     
1831.6     466.991    0          161.554    47.994    
1831.8     400.003    0          161.591    48.001    
1832       426.002    0          161.592    48.008    
1832.2     444.004    0          161.599    48.013    
1832.4     473.005    0          161.614    48.017    
1832.6     512.997    0          161.64     48.022    
1832.8     487.002    0          161.69     48.031    
1833       504.994    0          161.701    48.035    
1833.2     455.014    0          161.684    48.04     
1833.4     561.005    0          161.715    48.048    
1833.6     600.987    0          161.745    48.054    
1833.8     502.012    0          161.772    48.058    
1834       594.02     0          161.771    48.067    
1834.2     749.995    0          161.789    48.072    
1834.4     708.013    0          161.815    48.076    
1834.6     807.993    0          161.84     48.081    
1834.8     751.014    2          161.855    48.089    
1835       862.574    0          161.856    48.095    
1835.2     5295.768   0          161.893    48.1      
1835.4     3501.858   0          161.9      48.106    
1835.6     2405.894   0          161.924    48.11     
1835.8     1586.902   0          161.95     48.116    
1836       831.997    0          161.964    48.122    
1836.2     807.972    0          161.965    48.127    
1836.4     589.983    0          161.985    48.132    
1836.6     458.983    0          162.029    48.136    
1836.8     330.998    0          162.033    48.143    
1837       317.988    0          162.052    48.149    
1837.2     225.994    0          162.063    48.154    
1837.4     183.007    0          162.089    48.159    
1837.6     235.032    0          162.113    48.165    
1837.8     480.987    0          162.117    48.171    
1838       383.996    0          162.139    48.175    
1838.2     353.993    0          162.146    48.182    
1838.4     297.991    0          162.185    48.186    
1838.6     232.002    0          162.19     48.192    
1838.8     244.995    0          162.221    48.2      
1839       208.005    0          162.227    48.205    
1839.2     245.999    0          162.252    48.209    
1839.4     240.003    0          162.279    48.217    
1839.6     263.999    0          162.292    48.223    
1839.8     253.999    0          162.293    48.227    
1840       247.997    0          162.313    48.234    
1840.2     222.005    0          162.357    48.241    
1840.4     259.012    0          162.358    48.245    
1840.6     349.995    0          162.376    48.25     
1840.8     308.993    0          162.402    48.255    
1841       254.997    0          162.417    48.264    
1841.2     230.002    0          162.425    48.269    
1841.4     243        0          162.467    48.277    
1841.6     245.006    0          162.468    48.282    
1841.8     293.001    0          162.484    48.289    
1842       300.994    0          162.523    48.295    
1842.2     258.017    0          162.519    48.3      
1842.4     389.997    0          162.548    48.305    
1842.6     365.995    0          162.561    48.313    
1842.8     323.995    0          162.594    48.318    
1843       287.002    0          162.594    48.326    
1843.2     300.998    0          162.621    48.327    
1843.4     288.012    0          162.637    48.336    
1843.6     381.996    0          162.644    48.342    
1843.8     351.998    0          162.687    48.349    
1844       338.606    0          162.692    48.354    
1844.2     4993.825   0          162.702    48.362    
1844.4     3646.836   0          162.711    48.367    
1844.6     2389.927   0          162.746    48.376    
1844.8     1827.954   0          162.772    48.381    
1845       1472.945   2          162.776    48.387    
1845.2     1053.984   0          162.781    48.396    
1845.4     927.99     0          162.806    48.4      
1845.6     855.025    0          162.84     48.407    
1845.8     1045.004   0          162.864    48.412    
1846       1076.985   0          162.864    48.421    
1846.2     964.995    0          162.885    48.427    
1846.4     925.008    0          162.929    48.434    
1846.6     983.983    0          162.933    48.438    
1846.8     856.974    0          162.952    48.443    
1847       660.022    0          162.953    48.452    
1847.2     825.02     0          162.969    48.457    
1847.4     976.006    0          163.01     48.461    
1847.6     1020.993   0          163.018    48.468    
1847.8     965.02     0          163.021    48.474    
1848       1119.986   0          163.054    48.479    
1848.2     1008.997   0          163.083    48.484    
1848.4     987.999    0          163.113    48.489    
1848.6     980.009    0          163.126    48.497    
1848.8     1050.01    0          163.127    48.502    
1849       1130.059   0          163.133    48.506    
1849.2     1578.944   0          163.178    48.514    
1849.4     1152.983   0          163.192    48.516    
1849.6     1020.987   0          163.179    48.524    
1849.8     924.997    0          163.205    48.526    
1850       902.985    0          163.235    48.534    
1850.2     786.99     0          163.259    48.538    
1850.4     710.997    0          163.279    48.543    
1850.6     687.983    0          163.288    48.548    
1850.8     559.008    0          163.313    48.553    
1851       618.987    0          163.338    48.561    
1851.2     519.003    0          163.363    48.567    
1851.4     541.007    0          163.368    48.574    
1851.6     596.01     0          163.373    48.579    
1851.8     674.999    0          163.405    48.584    
1852       668.006    0          163.443    48.592    
1852.2     716.041    0          163.454    48.597    
1852.4     1027.981   0          163.455    48.602    
1852.6     883.004    0          163.456    48.606    
1852.8     911.041    0          163.501    48.613    
1853       1226.976   0          163.526    48.62     
1853.2     1042.956   0          163.542    48.624    
1853.4     708.019    0          163.543    48.629    
1853.6     852.561    0          163.543    48.634    
1853.8     5137.77    0          163.603    48.638    
1854       3377.852   0          163.628    48.643    
1854.2     2249.904   0          163.624    48.648    
1854.4     1515.921   0          163.625    48.652    
1854.6     909.975    0          163.664    48.661    
1854.8     719.976    0          163.688    48.662    
1855       536.99     0          163.695    48.667    
