~Version
 VERS              .         2.0                           : CWLS LOG ASCII STANDARD - VERSION 2.0
 WRAP              .         NO                            : ONE LINE PER DEPTH STEP
 DLM               .         SPACE                         : DELIMITING CHARACTER(SPACE TAB OR COMMA)
~Well Information
#_______________________________________________________________________________
#
#PARAMETER_NAME    .UNIT     VALUE                         : DESCRIPTION
#_______________________________________________________________________________
STRT               .M        2668.8                        : First reference value
STOP               .M        2773                          : Last reference value
STEP               .M        0.1999999                     : Step increment
NULL               .         -9999                         : Missing value
COMP               .                                       : Company
WELL               .         616                           : Well name
FLD                .                                       : Field
LOC                .                                       : Location
CNTY               .                                       : County
STAT               .                                       : State
CTRY               .                                       : Country
SRVC               .                                       : Service Company
DATE               .                                       : Date
API                .                                       : API number
PROJECT_UPGRADE_TIME .         2021-03-18T21_24_50           : 
group              .         Good                          : 
~Parameter Information Block
#_______________________________________________________________________________
#
#PARAMETER_NAME    .UNIT     VALUE                         : DESCRIPTION
#_______________________________________________________________________________
SET                .         D0403_D                       : 
OTHER              .         Прибор_ АКП4_90               : 
OTHER_2            .         Номер прибора_ 56             : 
OTHER_3            .         Режим_ АКП4_90 - все каналы   : 
OTHER_4            .         Форма_ Г-1                    : 
OTHER_5            .         Тарировки_                    : 
OTHER_6            .         TM.GRD = 0.00379*TM$.UE + 7.11: 
OTHER_7            .         MN.ATM = (8e-006*TM.GRD + 0.02)*(MN$.UE + -8*TM.GRD + -1800): 
OTHER_8            .         GK.MKR/H = GK$.UE / 57.17 + 0 : 
PROJECT_UPGRADE_TIME .         2021-03-18T21_24_49           : 
TLFamily_DEPT      .         Measured Depth                : 
TLFamily_GK        .         Gamma Ray                     : 
TLFamily_GK$       .                                       : 
TLFamily_LM        .         Casing Collar locator         : 
TLFamily_METKA     .                                       : 
TLFamily_METKA_1   .                                       : 
TLFamily_MN        .                                       : 
TLFamily_MN$       .                                       : 
TLFamily_RCOR      .                                       : 
TLFamily_SPID      .         Spontaneous Potential         : 
TLFamily_TIME      .         Time                          : 
TLFamily_TM        .         Temperature                   : 
TLFamily_TM$       .         Temperature                   : 
group              .         second                        : 
~Curve Information
#_______________________________________________________________________________
#
#LOGNAME           .UNIT     LOG_ID                        : DESCRIPTION
#_______________________________________________________________________________
DEPT               .M                                      : 1 Глубина, м -    0.0 см 
GK                 .MKR/H                                  : 12 Гамма-активность, мкр./ч -   65.0 см 
GK$                .UE                                     : 9 Гамма-активность, усл.ед. -   65.0 см 
LM                 .                                       : 8 Локатор муфт,  -   30.0 см 
METKA              .                                       : 3 Метки,  -    0.0 см 
METKA_1            .                                       : 13 Маркеры - 65 см 
MN                 .ATM                                    : 11 Давление, атм. -  140.0 см 
MN$                .UE                                     : 7 Давление, усл.ед. -  140.0 см 
RCOR               .CM/KM                                  : 5 Коррекция по ролику, см/км -    0.0 см 
SPID               .M/H                                    : 2 Скорость, м/час -    0.0 см 
TIME               .S                                      : 4 Время, сек -    0.0 см 
TM                 .GRD                                    : 10 Температура, °C -  145.0 см 
TM$                .UE                                     : 6 Температура, усл.ед. -  145.0 см 
~Ascii
# ...
2747.2     7.17       422        959        0          0          264.49     15271      0          -320       1881.5     85.327     20638     
2747.4     7.01       395        894        0          0          264.559    15274      0          -320       1879.05    85.328     20638     
2747.6     7.14       381        936        0          0          264.477    15270      0          -300       1876.61    85.332     20639     
2747.8     7.56       423        844        0          0          264.579    15275      0          -320       1874.15    85.339     20641     
2748       7.66       457        1303       0          0          264.516    15272      0          -260       1871.59    85.353     20645     
2748.2     7.35       441        843        0          0          264.583    15275      0          -320       1869.14    85.362     20647     
2748.4     7.01       419        913        0          0          264.591    15276      0          -260       1866.69    85.37      20649     
2748.6     6.72       381        870        0          0          264.577    15275      0          -320       1864.25    85.373     20650     
2748.8     6.77       376        1553       0          0          264.652    15279      0          -320       1861.8     85.373     20650     
2749       6.91       405        998        0          0          264.624    15277      0          -260       1859.34    85.381     20652     
2749.2     6.75       396        779        0          0          264.679    15280      0          -320       1856.87    85.389     20654     
2749.4     6.61       360        893        0          0          264.659    15279      0          -320       1854.47    85.396     20656     
2749.6     6.89       371        775        0          0          264.699    15281      0          -320       1851.88    85.398     20656     
2749.8     7.23       417        795        1          0          264.726    15282      0          -260       1849.53    85.408     20659     
2750       7.17       424        757        0          0          264.705    15281      0          -300       1846.08    85.423     20663     
2750.2     6.88       423        989        0          0          264.801    15286      0          -260       1843.64    85.427     20664     
2750.4     6.39       414        1064       0          0          264.753    15284      0          -300       1841.19    85.429     20665     
2750.6     5.84       365        1037       0          0          264.796    15286      0          -280       1838.74    85.435     20666     
2750.8     5.47       307        1162       0          0          264.821    15287      0          -320       1836.3     85.438     20667     
2751       5.57       304        796        0          0          264.814    15287      0          -280       1833.85    85.442     20668     
2751.2     5.78       313        725        0          0          264.851    15288      0          -280       1831.41    85.452     20671     
2751.4     6.02       336        840        0          0          264.827    15287      0          -320       1828.95    85.456     20672     
2751.6     6.15       335        1240       0          0          264.881    15290      0          -290       1826.44    85.468     20675     
2751.8     6.42       338        2484       0          0          264.88     15290      0          -320       1823.91    85.472     20676     
2752       6.89       384        8195       0          0          264.881    15290      0          -300       1821.45    85.476     20677     
2752.2     7.03       396        879        0          0          264.963    15294      0          -300       1819       85.483     20679     
2752.4     7.05       423        886        0          0          264.894    15291      0          -320       1816.55    85.491     20681     
2752.6     6.75       402        811        0          0          264.935    15293      0          -290       1814.05    85.495     20682     
2752.8     6.51       385        935        0          0          264.982    15295      0          -275       1811.62    85.5       20684     
2753       6.31       370        1163       0          0          264.93     15293      0          -320       1809.12    85.514     20687     
2753.2     6.21       343        898        0          0          265.002    15296      0          -320       1806.7     85.521     20689     
2753.4     6.4        359        889        0          0          264.967    15294      0          -260       1804.18    85.521     20689     
2753.6     6.49       371        958        0          0          265.023    15297      0          -260       1801.77    85.525     20690     
2753.8     6.49       371        749        0          0          264.98     15295      0          -300       1799.29    85.535     20693     
2754       6.49       377        788        0          0          265.043    15298      0          -260       1796.84    85.54      20694     
2754.2     6.38       368        857        0          0          265.032    15298      0          -320       1794.41    85.54      20694     
2754.4     6.4        355        926        0          0          265        15296      0          -320       1791.84    85.555     20698     
2754.6     6.58       358        1027       0          0          265.072    15300      0          -320       1789.4     85.559     20699     
2754.8     6.79       379        1046       0          0          265.041    15298      0          -320       1786.92    85.563     20700     
2755       6.94       402        787        0          0          265.03     15298      0          -320       1784.49    85.573     20703     
2755.2     6.85       385        754        0          0          265.122    15302      0          -320       1782.04    85.582     20705     
2755.4     7.05       401        866        0          0          265.081    15300      0          -320       1779.59    85.586     20706     
2755.6     7.09       409        1036       0          0          265.142    15303      0          -320       1777.13    85.59      20707     
2755.8     6.84       398        915        0          0          265.101    15301      0          -320       1774.69    85.597     20709     
2756       6.89       385        1241       0          0          265.173    15305      0          -260       1772.11    85.597     20709     
2756.2     6.79       404        786        0          0          265.162    15304      0          -320       1769.67    85.601     20710     
2756.4     6.53       403        1119       0          0          265.162    15304      0          -260       1767.2     85.608     20712     
2756.6     6.41       372        1346       0          0          265.23     15307      0          -320       1764.76    85.615     20714     
2756.8     6.43       364        848        0          0          265.188    15305      0          -320       1762.31    85.62      20715     
2757       6.68       349        848        0          0          265.223    15307      0          -320       1759.86    85.625     20716     
2757.2     6.89       374        1021       0          0          265.251    15308      0          -320       1757.42    85.631     20718     
2757.4     6.77       414        1455       0          0          265.202    15306      0          -260       1754.96    85.632     20718     
2757.6     6.47       402        1103       0          0          265.305    15311      0          -320       1752.47    85.639     20720     
2757.8     6.42       355        759        0          0          265.27     15309      0          -260       1749.93    85.646     20722     
2758       6.7        349        969        0          0          265.284    15310      0          -320       1747.47    85.653     20724     
2758.2     6.91       378        1932       0          0          265.345    15313      0          -320       1745.04    85.658     20725     
