~Version
 VERS              .         2.0                           : CWLS LOG ASCII STANDARD - VERSION 2.0
 WRAP              .         NO                            : ONE LINE PER DEPTH STEP
 DLM               .         SPACE                         : DELIMITING CHARACTER(SPACE TAB OR COMMA)
~Well Information
#_______________________________________________________________________________
#
#PARAMETER_NAME    .UNIT     VALUE                         : DESCRIPTION
#_______________________________________________________________________________
STRT               .M        2648.2                        : First reference value
STOP               .M        2755.2                        : Last reference value
STEP               .M        0.2                           : Step increment
NULL               .         -9999                         : Missing value
COMP               .                                       : Company
WELL               .         616                           : Well name
FLD                .                                       : Field
LOC                .                                       : Location
CNTY               .                                       : County
STAT               .                                       : State
CTRY               .                                       : Country
SRVC               .                                       : Service Company
DATE               .                                       : Date
API                .                                       : API number
PROJECT_UPGRADE_TIME .         2021-03-18T21_24_50           : 
group              .         Good                          : 
~Parameter Information Block
#_______________________________________________________________________________
#
#PARAMETER_NAME    .UNIT     VALUE                         : DESCRIPTION
#_______________________________________________________________________________
SET                .         D7022_D                       : 
OTHER              .         Kedr.exe версия 2.1.2.32      : 
OTHER_10           .         TM.GRD = 0.00404*TM$.UE + 0.07: 
OTHER_11           .         MN.ATM = (6.33279e-006*TM.GRD + 0.02401)*(MN$.UE + 2.72*TM.GRD + -2018): 
OTHER_12           .         GK.MKR/H = GK$.UE / 43.5489 + 0: 
OTHER_13           .         RES.SM = 0.00476*CRES.UE - 1.51709: 
OTHER_14           .         PL.GSM3 = 0 + 0 * (PL.UE / 1) +  0 * (PL.UE / 1)^2: 
OTHER_15           .         Постоянная времени ГГП = 6 сек: 
OTHER_16           .         Постоянная времени ГК = 6 сек : 
OTHER_2            .         KedrData.dll версия 3.2.2.14  : 
OTHER_3            .         LasInf.dll версия 3.2.0.13    : 
OTHER_4            .         Драйвер версия 1.2.0.5        : 
OTHER_5            .         Прибор_ КСА-M1                : 
OTHER_6            .         Номер прибора_ 155+р204       : 
OTHER_7            .         Режим_ КСА-М1 + ГГП + Резистивиметр: 
OTHER_8            .         Форма_ 223\2                  : 
OTHER_9            .         Тарировки_                    : 
PROJECT_UPGRADE_TIME .         2021-03-18T21_24_50           : 
TLFamily_CRES      .                                       : 
TLFamily_DEPT      .         Measured Depth                : 
TLFamily_GK        .         Gamma Ray                     : 
TLFamily_GK$       .                                       : 
TLFamily_LM        .         Casing Collar locator         : 
TLFamily_METKA     .                                       : 
TLFamily_MN        .                                       : 
TLFamily_MN$       .                                       : 
TLFamily_PL        .                                       : 
TLFamily_PL_2      .                                       : 
TLFamily_RCOR      .                                       : 
TLFamily_RES       .         Mud Resistivity               : 
TLFamily_SPID      .         Spontaneous Potential         : 
TLFamily_STD       .                                       : 
TLFamily_TIME      .         Time                          : 
TLFamily_TM        .         Temperature                   : 
TLFamily_TM$       .         Temperature                   : 
TLFamily_VGD       .         Gas Volume                    : 
group              .         prim                          : 
~Curve Information
#_______________________________________________________________________________
#
#LOGNAME           .UNIT     LOG_ID                        : DESCRIPTION
#_______________________________________________________________________________
DEPT               .M                                      : 1 Глубина, м -    0.0 см 
CRES               .UE                                     : 9 Проводимость, усл.ед. -  222.0 см 
GK                 .MKR/H                                  : 16 Гамма-активность, мкр./ч -  106.0 см 
GK$                .UE                                     : 13 Гамма-активность, усл.ед. -  106.0 см 
LM                 .                                       : 11 Локатор муфт,  -   16.0 см 
METKA              .                                       : 3 Метки,  -    0.0 см 
MN                 .ATM                                    : 15 Давление, атм. -  160.0 см 
MN$                .UE                                     : 7 Давление, усл.ед. -  160.0 см 
PL                 .UE                                     : 10 Плотность, усл.ед. -  270.0 см 
PL_2               .GSM3                                   : 18 Плотность, г./см3 -  270.0 см 
RCOR               .CM/KM                                  : 5 Коррекция по ролику, см/км -    0.0 см 
RES                .SM                                     : 17 Проводимость,  -  222.0 см 
SPID               .M/H                                    : 2 Скорость, м/час -    0.0 см 
STD                .                                       : 12 Приток,  -  170.0 см 
TIME               .S                                      : 4 Время, сек -    0.0 см 
TM                 .GRD                                    : 14 Температура, °C -  180.0 см 
TM$                .UE                                     : 6 Температура, усл.ед. -  180.0 см 
VGD                .                                       : 8 Влагомер,  -  170.0 см 
~Ascii
# ...
2689.2     1185       8.19       347        60         0          337.999    15767      14         0          0          4.1235     580        10083      14112.05   51.428     12712      6676      
2689.4     1184       7.94       316        54         0          337.981    15767      14         0          0          4.1203     510        10081      14113.36   51.418     12710      6676      
2689.6     1183       7.61       316        47         0          337.996    15767      14         0          0          4.114      534        10080      14114.63   51.406     12707      6676      
2689.8     1185       7.68       356        37         0          337.549    15749      14         0          0          4.1215     550        10079      14115.93   51.398     12705      6674      
2690       1184       7.93       356        33         0          337.533    15748      14         0          0          4.118      580        10079      14117.23   51.39      12703      6681      
2690.2     1186       8.38       399        98         1          337.872    15762      14         0          0          4.1276     580        10078      14119.11   51.382     12701      6673      
2690.4     1186       8.76       399        110        0          339.334    15822      14         0          0          4.1283     580        10076      14120.42   51.372     12699      6674      
2690.6     1188       8.98       402        80         0          339.49     15829      14         0          0          4.1394     580        10073      14121.69   51.356     12694      6674      
2690.8     1187       9.11       402        92         0          340.688    15878      14         0          0          4.133      580        10075      14123.02   51.35      12693      6675      
2691       1188       9.2        406        101        0          340.094    15854      14         0          0          4.1362     580        10076      14124.27   51.342     12691      6673      
2691.2     1186       9.32       416        92         0          340.308    15863      14         0          0          4.129      568        10073      14125.61   51.338     12690      6676      
2691.4     1185       9.49       421        90         0          339.947    15848      13         0          0          4.1256     510        10071      14126.87   51.332     12689      6674      
2691.6     1184       9.5        405        123        0          340.245    15860      14         0          0          4.1188     556        10069      14128.2    51.323     12686      6673      
2691.8     1183       9.4        405        125        0          338.036    15769      14         0          0          4.114      580        10066      14129.52   51.317     12685      6675      
2692       1183       9.34       403        128        0          340.024    15851      14         0          0          4.112      568        10067      14130.79   51.305     12682      6674      
2692.2     1184       9.3        403        125        0          339.146    15815      14         0          0          4.1164     580        10068      14132.08   51.297     12680      6671      
2692.4     1186       9.22       391        5155       0          339.212    15818      14         0          0          4.1269     522        10065      14133.35   51.293     12679      6675      
2692.6     1184       9.1        391        2003       0          339.303    15822      14         0          0          4.1187     545        10063      14134.67   51.281     12676      6673      
2692.8     1185       9.01       386        501        0          340.692    15879      13         0          0          4.1249     580        10061      14136      51.267     12672      6670      
2693       1184       8.94       386        158        0          341.321    15905      14         0          0          4.1188     580        10058      14137.27   51.253     12669      6668      
2693.2     1184       8.9        386        107        0          339.74     15840      14         0          0          4.1188     557        10055      14138.6    51.245     12667      6668      
2693.4     1183       8.88       386        97         0          339.651    15836      13         0          0          4.114      557        10053      14139.92   51.241     12666      6672      
2693.6     1184       8.97       396        91         0          339.295    15822      14         0          0          4.1171     510        10052      14141.19   51.23      12663      6671      
2693.8     1183       9.03       396        101        0          338.859    15804      14         0          0          4.114      580        10045      14142.46   51.217     12660      6670      
2694       1183       9.22       416        216        0          339.142    15816      13         0          0          4.114      580        10043      14143.78   51.204     12657      6663      
2694.2     1182       9.38       416        171        0          338.576    15792      14         0          0          4.1092     580        10040      14145.04   51.2       12656      6664      
2694.4     1183       9.76       446        118        0          338.323    15782      14         0          0          4.1126     580        10037      14146.38   51.19      12653      6655      
2694.6     1183       9.99       446        74         0          337.838    15762      14         0          0          4.1133     510        10037      14147.65   51.184     12652      6656      
2694.8     1182       10.34      466        66         0          338.86     15804      14         0          0          4.1109     580        10038      14148.97   51.172     12649      6658      
2695       1183       10.46      453        75         0          339.545    15832      14         0          0          4.114      580        10037      14150.29   51.163     12647      6653      
2695.2     1184       10.15      428        81         0          339.185    15818      13         0          0          4.1172     580        10035      14151.57   51.145     12642      6661      
2695.4     1185       9.99       428        84         0          341.203    15901      14         0          0          4.1235     580        10035      14152.9    51.136     12640      6655      
2695.6     1184       9.89       426        85         0          339.913    15848      13         0          0          4.1171     538        10034      14154.19   51.123     12637      6666      
2695.8     1183       9.87       435        117        0          340.428    15869      14         0          0          4.1164     533        10029      14155.48   51.11      12634      6674      
2696       1182       10.13      452        55         0          341.157    15899      14         0          0          4.1072     580        10025      14156.75   51.093     12629      6666      
2696.2     1178       10.3       462        35         0          341.172    15900      14         0          0          4.0902     580        10022      14158.08   51.076     12625      6665      
2696.4     1181       10.45      462        40         0          340.616    15877      13         0          0          4.1061     580        10016      14159.37   51.063     12622      6665      
2696.6     1183       10.52      460        40         0          339.709    15840      15         0          0          4.114      510        10011      14160.67   51.045     12618      6662      
2696.8     1183       10.52      458        71         0          339.712    15840      15         0          0          4.1126     580        10007      14162      51.039     12616      6666      
2697       1184       10.37      423        77         0          338.908    15807      14         0          0          4.1188     522        10006      14163.27   51.042     12617      6660      
2697.2     1183       9.97       417        78         0          338.468    15789      14         0          0          4.114      545        10006      14164.59   51.043     12617      6662      
