~Version
 VERS              .         2.0                           : CWLS LOG ASCII STANDARD - VERSION 2.0
 WRAP              .         NO                            : ONE LINE PER DEPTH STEP
 DLM               .         SPACE                         : DELIMITING CHARACTER(SPACE TAB OR COMMA)
~Well Information
#_______________________________________________________________________________
#
#PARAMETER_NAME    .UNIT     VALUE                         : DESCRIPTION
#_______________________________________________________________________________
STRT               .M        2666.2                        : First reference value
STOP               .M        2778.8                        : Last reference value
STEP               .M        0.2000002                     : Step increment
NULL               .         -9999                         : Missing value
COMP               .                                       : Company
WELL               .         616                           : Well name
FLD                .                                       : Field
LOC                .                                       : Location
CNTY               .                                       : County
STAT               .                                       : State
CTRY               .                                       : Country
SRVC               .                                       : Service Company
DATE               .                                       : Date
API                .                                       : API number
PROJECT_UPGRADE_TIME .         2021-03-18T21_24_50           : 
group              .         Good                          : 
~Parameter Information Block
#_______________________________________________________________________________
#
#PARAMETER_NAME    .UNIT     VALUE                         : DESCRIPTION
#_______________________________________________________________________________
SET                .         D0400_D                       : 
OTHER              .         Прибор_ АКП4_90               : 
OTHER_2            .         Номер прибора_ 56             : 
OTHER_3            .         Режим_ АКП4_90 - все каналы   : 
OTHER_4            .         Форма_ Г-1                    : 
OTHER_5            .         Тарировки_                    : 
OTHER_6            .         TM.GRD = 0.00379*TM$.UE + 7.11: 
OTHER_7            .         MN.ATM = (8e-006*TM.GRD + 0.02)*(MN$.UE + -8*TM.GRD + -1800): 
OTHER_8            .         GK.MKR/H = GK$.UE / 57.17 + 0 : 
PROJECT_UPGRADE_TIME .         2021-03-18T21_24_49           : 
TLFamily_DEPT      .         Measured Depth                : 
TLFamily_GK        .         Gamma Ray                     : 
TLFamily_GK$       .                                       : 
TLFamily_LM        .         Casing Collar locator         : 
TLFamily_METKA     .                                       : 
TLFamily_METKA_1   .                                       : 
TLFamily_MN        .                                       : 
TLFamily_MN$       .                                       : 
TLFamily_RCOR      .                                       : 
TLFamily_SPID      .         Spontaneous Potential         : 
TLFamily_TIME      .         Time                          : 
TLFamily_TM        .         Temperature                   : 
TLFamily_TM$       .         Temperature                   : 
group              .         second                        : 
~Curve Information
#_______________________________________________________________________________
#
#LOGNAME           .UNIT     LOG_ID                        : DESCRIPTION
#_______________________________________________________________________________
DEPT               .M                                      : 1 Глубина, м -    0.0 см 
GK                 .MKR/H                                  : 12 Гамма-активность, мкр./ч -   65.0 см 
GK$                .UE                                     : 9 Гамма-активность, усл.ед. -   65.0 см 
LM                 .                                       : 8 Локатор муфт,  -   30.0 см 
METKA              .                                       : 3 Метки,  -    0.0 см 
METKA_1            .                                       : 13 Маркеры - 65 см 
MN                 .ATM                                    : 11 Давление, атм. -  140.0 см 
MN$                .UE                                     : 7 Давление, усл.ед. -  140.0 см 
RCOR               .CM/KM                                  : 5 Коррекция по ролику, см/км -    0.0 см 
SPID               .M/H                                    : 2 Скорость, м/час -    0.0 см 
TIME               .S                                      : 4 Время, сек -    0.0 см 
TM                 .GRD                                    : 10 Температура, °C -  145.0 см 
TM$                .UE                                     : 6 Температура, усл.ед. -  145.0 см 
~Ascii
2666.1999512 -9999      -9999      -9999      -9999      0          -9999      -9999      -9999      -9999      -9999      -9999      -9999     
2666.4     -9999      -9999      -9999      -9999      0          -9999      -9999      -9999      -9999      -9999      -9999      -9999     
2666.6     -9999      -9999      -9999      0          0          -9999      -9999      0          -130       3673.71    -9999      -9999     
2666.8     -9999      -9999      -9999      0          0          -9999      -9999      0          -300       3670.12    -9999      -9999     
2667       -9999      -9999      498        0          0          -9999      -9999      0          -260       3667.55    -9999      -9999     
2667.2     -9999      -9999      1175       0          0          -9999      -9999      0          -280       3664.97    -9999      -9999     
2667.4     4.64       277        792        0          0          -9999      -9999      0          -300       3662.39    -9999      -9999     
2667.6     4.46       242        605        0          0          -9999      -9999      0          -320       3659.82    -9999      -9999     
2667.8     4.66       261        653        0          0          -9999      -9999      0          -260       3657.13    -9999      -9999     
2668       4.76       255        480        0          0          258.462    14971      0          -260       3654.67    -9999      -9999     
2668.2     5.05       264        612        0          0          258.462    14971      0          -260       3652.11    82.736     19954     
2668.4     5.37       290        617        0          0          258.482    14972      0          -300       3649.53    82.743     19956     
2668.6     5.65       300        554        0          0          258.516    14974      0          -280       3646.96    82.755     19959     
2668.8     5.9        331        600        0          0          258.515    14974      0          -260       3644.38    82.769     19963     
2669       5.95       347        662        0          0          258.542    14975      0          -280       3641.81    82.774     19964     
2669.2     5.87       340        568        0          0          258.562    14976      0          -280       3639.25    82.777     19965     
2669.4     5.81       336        592        0          0          258.582    14977      0          -260       3636.67    82.785     19967     
2669.6     5.78       330        577        0          0          258.603    14978      0          -260       3633.96    82.796     19970     
2669.8     5.68       346        533        1          0          258.629    14979      0          -320       3631.39    82.804     19972     
2670       5.51       320        619        0          0          258.65     14980      0          -320       3628.05    82.811     19974     
2670.2     5.58       297        537        0          0          258.663    14981      0          -305       3625.57    82.815     19975     
2670.4     5.79       319        568        0          0          258.684    14982      0          -260       3622.96    82.823     19977     
2670.6     5.87       336        563        0          0          258.718    14984      0          -260       3620.36    82.83      19979     
2670.8     5.91       338        584        0          0          258.765    14986      0          -320       3617.76    82.838     19981     
2671       5.76       345        619        0          0          258.744    14985      0          -300       3615.18    82.842     19982     
2671.2     5.48       323        584        0          0          258.778    14987      0          -280       3612.61    82.846     19983     
2671.4     5.46       311        648        0          0          258.799    14988      0          -260       3610.03    82.846     19983     
2671.6     5.47       321        616        0          0          258.831    14989      0          -300       3607.46    82.849     19984     
2671.8     5.33       317        641        0          0          258.847    14990      0          -280       3604.89    82.853     19985     
2672       5.13       292        558        0          0          258.872    14991      0          -260       3602.32    82.859     19987     
2672.2     5.19       275        622        0          0          258.888    14992      0          -320       3599.74    82.861     19987     
2672.4     5.5        298        700        0          0          258.929    14994      0          -260       3597.17    82.868     19989     
2672.6     5.72       326        685        0          0          258.949    14995      0          -320       3594.58    82.868     19989     
2672.8     5.81       309        714        0          0          258.97     14996      0          -280       3592.03    82.868     19989     
2673       6.13       338        558        0          0          258.97     14996      0          -300       3589.45    82.872     19990     
2673.2     6.21       366        601        0          0          258.997    14997      0          -320       3586.88    82.878     19992     
2673.4     6.1        345        570        0          0          259.031    14999      0          -300       3584.3     82.885     19993     
2673.6     6.15       348        549        0          0          259.051    15000      0          -236       3581.73    82.891     19995     
2673.8     6.19       353        727        0          0          259.058    15000      0          -320       3579.03    82.896     19996     
2674       6.16       359        644        0          0          259.071    15001      0          -275       3576.36    82.899     19997     
2674.2     6.1        350        858        0          0          259.091    15002      0          -260       3573.76    82.902     19998     
2674.4     6.15       340        740        0          0          259.118    15003      0          -320       3571.31    82.91      20000     
2674.6     6.37       339        4516       0          0          259.152    15005      0          -260       3568.71    82.921     20003     
2674.8     6.67       353        7872       0          0          259.166    15006      0          -300       3566.13    82.925     20004     
2675       6.99       377        587        0          0          259.187    15007      0          -260       3563.56    82.925     20004     
2675.2     7.08       407        537        0          0          259.228    15009      0          -260       3560.98    82.925     20004     
2675.4     7.04       406        516        0          0          259.203    15007      0          -280       3558.41    82.929     20005     
2675.6     7.21       385        1026       0          0          259.275    15011      0          -260       3555.76    82.933     20006     
2675.8     7.31       414        1256       0          0          259.302    15012      0          -260       3553.25    82.94      20008     
2676       7.24       426        493        0          0          259.275    15011      0          -320       3550.56    82.947     20010     
2676.2     7.19       414        539        0          0          259.329    15014      0          -300       3547.99    82.948     20010     
2676.4     7.34       411        438        0          0          259.35     15015      0          -320       3545.53    82.957     20012     
2676.6     7.42       421        500        0          0          259.377    15016      0          -300       3542.97    82.963     20014     
2676.8     7.36       418        483        0          0          259.397    15017      0          -260       3540.39    82.967     20015     
2677       7.4        420        579        0          0          259.407    15017      0          -305       3537.72    82.974     20017     
2677.2     7.43       418        453        0          0          259.417    15018      0          -300       3535.24    82.982     20019     
