~Version
 VERS              .         2.0                           : CWLS LOG ASCII STANDARD - VERSION 2.0
 WRAP              .         NO                            : ONE LINE PER DEPTH STEP
 DLM               .         SPACE                         : DELIMITING CHARACTER(SPACE TAB OR COMMA)
~Well Information
#_______________________________________________________________________________
#
#PARAMETER_NAME    .UNIT     VALUE                         : DESCRIPTION
#_______________________________________________________________________________
STRT               .M        2664                          : First reference value
STOP               .M        2769.2                        : Last reference value
STEP               .M        0.1999999                     : Step increment
NULL               .         -9999                         : Missing value
COMP               .                                       : Company
WELL               .         616                           : Well name
FLD                .                                       : Field
LOC                .                                       : Location
CNTY               .                                       : County
STAT               .                                       : State
CTRY               .                                       : Country
SRVC               .                                       : Service Company
DATE               .                                       : Date
API                .                                       : API number
PROJECT_UPGRADE_TIME .         2021-03-18T21_24_50           : 
group              .         Good                          : 
~Parameter Information Block
#_______________________________________________________________________________
#
#PARAMETER_NAME    .UNIT     VALUE                         : DESCRIPTION
#_______________________________________________________________________________
SET                .         D1161_D                       : 
OTHER              .         Программное обеспечение станции MONITOR-386EX 25/12/99 15_08_10   BGF V52 22/08/01 16_56_30   3.2_BGF_N_3070031: 
OTHER_10           .         Тарировки_                    : 
OTHER_11           .         TM.GRD = 0.00403*TM$.UE + -1.19: 
OTHER_12           .         MN.ATM = (7.1e-006*TM.GRD + 0.02017)*(MN$.UE + -3.03*TM.GRD + -1833): 
OTHER_13           .         Id error                      : 
OTHER_2            .         Kedr.exe версия 3.4.2.51      : 
OTHER_3            .         KedrData.dll версия 3.4.2.24  : 
OTHER_4            .         Драйвер версия 2.1.1.8        : 
OTHER_5            .         Мнемоники версия 3.3 S        : 
OTHER_6            .         Прибор_ КСА-М1                : 
OTHER_7            .         Номер прибора_ 265            : 
OTHER_8            .         Режим_ КСА-М1                 : 
OTHER_9            .         Форма_ ТЕРМОМЕТР              : 
PROJECT_UPGRADE_TIME .         2021-03-18T21_24_49           : 
TLFamily_DEPT      .         Measured Depth                : 
TLFamily_GK        .         Gamma Ray                     : 
TLFamily_GK$       .                                       : 
TLFamily_LM        .         Casing Collar locator         : 
TLFamily_METKA     .                                       : 
TLFamily_MN        .                                       : 
TLFamily_MN$       .                                       : 
TLFamily_RCOR      .                                       : 
TLFamily_SPID      .         Spontaneous Potential         : 
TLFamily_STD       .                                       : 
TLFamily_TENS      .         Cable Tension                 : 
TLFamily_TIME      .         Time                          : 
TLFamily_TM        .         Temperature                   : 
TLFamily_TM$       .         Temperature                   : 
TLFamily_VGD       .         Gas Volume                    : 
group              .         prim                          : 
~Curve Information
#_______________________________________________________________________________
#
#LOGNAME           .UNIT     LOG_ID                        : DESCRIPTION
#_______________________________________________________________________________
DEPT               .M                                      : 1 Глубина, м -    0.0 см 
GK                 .MKR/H                                  : 15 Гамма-активность, мкр./ч -  110.0 см 
GK$                .UE                                     : 12 Гамма-активность, усл.ед. -  110.0 см 
LM                 .                                       : 10 Локатор муфт,  -   20.0 см 
METKA              .                                       : 3 Метки,  -    0.0 см 
MN                 .ATM                                    : 14 Давление, атм. -  160.0 см 
MN$                .UE                                     : 8 Давление, усл.ед. -  160.0 см 
RCOR               .CM/KM                                  : 5 Коррекция по ролику, см/км -    0.0 см 
SPID               .M/H                                    : 2 Скорость, м/час -    0.0 см 
STD                .                                       : 11 Приток,  -  170.0 см 
TENS               .T                                      : 6 Натяжение кабеля, т -    0.0 см 
TIME               .S                                      : 4 Время, сек -    0.0 см 
TM                 .GRD                                    : 13 Температура, °C -  180.0 см 
TM$                .UE                                     : 7 Температура, усл.ед. -  180.0 см 
VGD                .                                       : 9 Влагомер,  -  170.0 см 
~Ascii
# ...
2762       6.54       279        1          0          257.042    14457      -1400      -303       32374      0          16185.89   90.944     22862      6407      
2762.2     6.56       280        1          0          257.063    14458      -1400      -298       32373      0          16183.52   90.953     22864      6407      
2762.4     6.58       281        1          0          257.083    14459      -1400      -302       32373      0          16181.09   90.96      22866      6406      
2762.6     6.74       279        1          0          257.099    14460      -1400      -298       32374      0          16178.8    90.964     22867      6407      
2762.8     7.25       307        1          0          257.125    14461      -1400      -291       32374      0          16176.41   90.972     22869      6406      
2763       7.19       316        1          0          257.136    14462      -1400      -303       32374      0          16173.9    90.976     22870      6405      
2763.2     6.84       289        1          0          257.152    14462      -1400      -292       32374      0          16171.5    90.98      22871      6405      
2763.4     7.12       300        1          0          257.168    14463      -1400      -293       32372      0          16169.14   90.989     22873      6405      
2763.6     7.49       317        1          0          257.194    14464      -1400      -290       32374      0          16166.82   90.995     22875      6405      
2763.8     7.6        331        1          0          257.21     14465      -1400      -294       32374      0          16164.2    91.003     22877      6406      
2764       7.12       305        1          0          257.251    14467      -1400      -293       32373      0          16161.88   91.008     22878      6405      
2764.2     7.11       296        1          0          257.251    14467      -1400      -294       32374      0          16159.52   91.009     22878      6403      
2764.4     8.17       346        1          0          257.272    14468      -1400      -298       32374      0          16157.01   91.016     22880      6403      
2764.6     8.48       364        57         0          257.298    14469      -1400      -289       32373      0          16154.62   91.02      22881      6405      
2764.8     8.26       356        32         0          257.33     14471      -1400      -295       32373      0          16152.22   91.024     22882      6405      
2765       7.8        334        1          0          257.356    14472      -1400      -291       32374      0          16149.82   91.024     22882      6407      
2765.2     7.69       331        1          0          257.377    14473      -1400      -296       32373      0          16147.21   91.026     22882      6408      
2765.4     7.36       315        1          0          257.398    14474      -1400      -296       32373      0          16144.88   91.028     22883      6408      
2765.6     7.29       308        1          0          257.419    14475      -1400      -292       32373      0          16142.41   91.037     22885      6409      
2765.8     8.09       338        1          0          257.455    14477      -1400      -292       32373      0          16139.8    91.043     22887      6410      
2766       8.4        361        1          0          257.471    14478      -1400      -295       32372      0          16137.33   91.045     22887      6410      
2766.2     7.95       341        1          0          257.482    14478      -1400      -286       32374      0          16134.89   91.055     22890      6420      
2766.4     7.74       335        1          0          257.524    14480      -1400      -276       32374      0          16132.5    91.081     22896      6426      
2766.6     7.69       329        1          0          257.544    14481      -1400      -274       32374      0          16129.92   91.107     22902      6431      
2766.8     7.5        322        1          0          257.565    14482      -1400      -256       32373      0          16127.45   91.081     22896      6438      
2767       7.21       311        1          0          257.592    14483      -1400      -219       32374      0          16124.99   91.057     22890      6454      
2767.2     7          304        1          0          257.606    14484      -1400      -158       32373      0          16122.36   91.058     22890      6486      
2767.4     7.22       295        1          0          257.586    14483      -1400      -66        32373      0          16119.75   91.057     22890      6487      
2767.6     7.4        319        1          -9999      257.599    14484      -9999      -9999      32373      -9999      -9999      91.057     22890      6487      
2767.8     6.88       304        -9999      -9999      257.606    14484      -9999      -9999      32373      -9999      -9999      91.057     22890      6487      
2768       6.6        287        -9999      -9999      257.606    14484      -9999      -9999      32372      -9999      -9999      91.054     22889      6487      
2768.2     6.56       280        -9999      -9999      257.606    14484      -9999      -9999      32373      -9999      -9999      91.053     22889      6486      
2768.4     6.73       289        -9999      -9999      257.606    14484      -9999      -9999      32373      -9999      -9999      91.053     22889      6486      
2768.6     -9999      -9999      -9999      -9999      257.606    14484      -9999      -9999      32372      -9999      -9999      91.053     22889      6486      
2768.8     -9999      -9999      -9999      -9999      257.606    14484      -9999      -9999      32373      -9999      -9999      91.057     22890      6485      
2769       -9999      -9999      -9999      -9999      257.606    14484      -9999      -9999      32373      -9999      -9999      91.053     22889      6485      
2769.2     -9999      -9999      -9999      -9999      -9999      -9999      -9999      -9999      -9999      -9999      -9999      91.053     22889      -9999     
