~Version
 VERS              .         2.0                           : CWLS LOG ASCII STANDARD - VERSION 2.0
 WRAP              .         NO                            : ONE LINE PER DEPTH STEP
 DLM               .         SPACE                         : DELIMITING CHARACTER(SPACE TAB OR COMMA)
~Well Information
#_______________________________________________________________________________
#
#PARAMETER_NAME    .UNIT     VALUE                         : DESCRIPTION
#_______________________________________________________________________________
STRT               .M        11                            : First reference value
STOP               .M        2775.8                        : Last reference value
STEP               .M        0.2                           : Step increment
NULL               .         -9999                         : Missing value
COMP               .                                       : Company
WELL               .         616                           : Well name
FLD                .                                       : Field
LOC                .                                       : Location
CNTY               .                                       : County
STAT               .                                       : State
CTRY               .                                       : Country
SRVC               .                                       : Service Company
DATE               .                                       : Date
API                .                                       : API number
PROJECT_UPGRADE_TIME .         2021-03-18T21_24_50           : 
group              .         Good                          : 
~Parameter Information Block
#_______________________________________________________________________________
#
#PARAMETER_NAME    .UNIT     VALUE                         : DESCRIPTION
#_______________________________________________________________________________
SET                .         D1813_D                       : 
OTHER              .         Программное обеспечение станции MONITOR-386EX 25/12/99 15_08_10   BGF V52 22/08/01 16_56_30   3.1_SNGF___BGF_N_092049: 
OTHER_10           .         Тарировки_                    : 
OTHER_11           .         TM.GRD = 0.00403*TM$.UE + -1.07: 
OTHER_12           .         MN.ATM = (9.34907e-006*TM.GRD + 0.02171)*(MN$.UE + -7.93*TM.GRD + -1787): 
OTHER_13           .         GK.MKR/H = LM. / 42.4676      : 
OTHER_14           .         GK.FLT = 0.1*GK.MKR/H[-1] + (1-0.1)*GK.MKR/H[0]: 
OTHER_2            .         Kedr.exe версия 3.4.2.51      : 
OTHER_3            .         KedrData.dll версия 3.4.2.24  : 
OTHER_4            .         Драйвер версия 2.1.1.3        : 
OTHER_5            .         Мнемоники версия 3.3 S        : 
OTHER_6            .         Прибор_ КСА-Т4                : 
OTHER_7            .         Номер прибора_ 03             : 
OTHER_8            .         Режим_ КСА-Т4                 : 
OTHER_9            .         Форма_ КВА.                   : 
PROJECT_UPGRADE_TIME .         2021-03-18T21_24_49           : 
TLFamily_DEPT      .         Measured Depth                : 
TLFamily_GK        .         Gamma Ray                     : 
TLFamily_GK$       .                                       : 
TLFamily_GK_2      .         Gamma Ray                     : 
TLFamily_LM        .         Casing Collar locator         : 
TLFamily_METKA     .                                       : 
TLFamily_MN        .                                       : 
TLFamily_MN$       .                                       : 
TLFamily_RCOR      .                                       : 
TLFamily_SPID      .         Spontaneous Potential         : 
TLFamily_TENS      .         Cable Tension                 : 
TLFamily_TIME      .         Time                          : 
TLFamily_TM        .         Temperature                   : 
TLFamily_TM$       .         Temperature                   : 
group              .         prim                          : 
~Curve Information
#_______________________________________________________________________________
#
#LOGNAME           .UNIT     LOG_ID                        : DESCRIPTION
#_______________________________________________________________________________
DEPT               .M                                      : 1 Глубина, м -    0.0 см 
GK                 .MKR/H                                  : 13 Гамма-активность, мкр./ч -  110.0 см 
GK$                .UE                                     : 10 Гамма-активность, усл.ед. -  110.0 см 
GK_2               .FLT                                    : 14 Гамма-активность фильтрованная, мкр./ч -  110.0 см 
LM                 .                                       : 9 Локатор муфт,  -   20.0 см 
METKA              .                                       : 3 Метки,  -    0.0 см 
MN                 .ATM                                    : 12 Давление, атм. -  160.0 см 
MN$                .UE                                     : 8 Давление, усл.ед. -  160.0 см 
RCOR               .CM/KM                                  : 5 Коррекция по ролику, см/км -    0.0 см 
SPID               .M/H                                    : 2 Скорость, м/час -    0.0 см 
TENS               .T                                      : 6 Натяжение кабеля, т -    0.0 см 
TIME               .S                                      : 4 Время, сек -    0.0 см 
TM                 .GRD                                    : 11 Температура, °C -  170.0 см 
TM$                .UE                                     : 7 Температура, усл.ед. -  170.0 см 
~Ascii
# ...
1113.4     4.9        208        5.01       1914       0          101.082    6669       -1288      -2402      -0.01      10364.38   37.941     9680      
1113.6     4.9        208        5.16       1914       0          101.1      6670       -1288      -2401      -0.01      10364.07   37.946     9681      
1113.8     5.46       232        5.54       2091       0          101.116    6671       -1288      -2404      -0.01      10363.77   37.95      9682      
1114       5.7        242        5.7        2153       0          101.133    6671       -1288      -2407      -0.01      10363.51   37.952     9683      
1114.2     5.7        242        5.69       2198       0          101.151    6672       -1288      -2406      -0.01      10363.19   37.956     9684      
1114.4     5.7        242        5.69       1924       0          101.169    6673       -1288      -2407      -0.01      10362.88   37.962     9685      
1114.6     5.7        242        5.68       1924       0          101.184    6674       -1288      -2410      -0.01      10362.6    37.966     9686      
1114.8     5.7        242        5.65       2127       0          101.201    6675       -1288      -2413      -0.01      10362.33   37.969     9687      
1115       5.7        242        5.6        2150       0          101.22     6675       -1288      -2411      -0.01      10362      37.973     9688      
1115.2     5.7        242        5.48       2534       0          101.238    6676       -1288      -2410      -0.01      10361.7    37.976     9689      
1115.4     5.57       236        5.21       3369       0          101.255    6677       -1288      -2408      -0.01      10361.41   37.98      9690      
1115.6     4.68       199        4.65       3369       0          101.27     6678       -1288      -2406      -0.01      10361.13   37.985     9691      
1115.8     4.59       195        4.59       2162       0          101.289    6679       -1288      -2404      -0.01      10360.81   37.99      9692      
1116       4.59       195        4.59       1439       0          101.306    6680       -1288      -2407      -0.01      10360.51   37.993     9693      
1116.2     4.59       195        4.58       1093       0          101.323    6680       -1288      -2411      -0.01      10360.23   37.996     9694      
1116.4     4.59       195        4.57       1295       0          101.338    6681       -1288      -2407      -0.01      10359.93   38.002     9695      
1116.6     4.59       195        4.56       1295       0          101.337    6681       -1288      -2403      -0.01      10359.63   38.007     9696      
1116.8     4.59       195        4.51       1477       0          101.368    6682       -1288      -2406      -0.01      10359.33   38.01      9697      
1117       4.59       195        4.39       1459       0          101.391    6683       -1288      -2409      -0.01      10359.03   38.013     9698      
1117.2     4.34       184        4.15       1282       0          101.408    6684       -1288      -2408      -0.01      10358.74   38.016     9699      
1117.4     3.81       162        3.82       1420       0          101.426    6685       -1288      -2410      -0.01      10358.45   38.023     9700      
1117.6     3.81       162        3.82       1420       0          101.443    6686       -1288      -2413      -0.01      10358.15   38.027     9702      
1117.8     3.81       162        3.82       1316       0          101.46     6687       -1288      -2416      -0.01      10357.85   38.03      9702      
1118       3.81       162        3.82       1377       0          101.477    6688       -1288      -2415      -0.01      10357.56   38.034     9703      
1118.2     3.81       162        3.83       1419       0          101.495    6688       -1288      -2413      -0.01      10357.26   38.037     9704      
1118.4     3.81       162        3.84       1233       0          101.512    6689       -1288      -2412      -0.01      10356.96   38.04      9705      
1118.6     3.81       162        3.88       1233       0          101.529    6690       -1288      -2410      -0.01      10356.67   38.043     9706      
1118.8     3.81       162        3.96       1303       0          101.546    6691       -1288      -2409      -0.01      10356.38   38.046     9706      
1119       4.07       173        4.16       1574       0          101.564    6692       -1288      -2407      -0.01      10356.08   38.05      9707      
1119.2     4.31       183        4.31       1881       0          101.581    6692       -1288      -2405      -0.01      10355.78   38.053     9708      
1119.4     4.31       183        4.31       1609       0          101.598    6693       -1288      -2406      -0.01      10355.48   38.059     9709      
1119.6     4.31       183        4.31       1609       0          101.615    6694       -1288      -2409      -0.01      10355.18   38.063     9711      
1119.8     4.31       183        4.31       1697       2          101.632    6695       -1288      -2413      -0.01      10354.89   38.067     9711      
1120       4.31       183        4.3        1560       0          101.649    6696       -1289      -2416      -0.01      10354.61   38.07      9712      
1120.2     4.31       183        4.29       1377       0          101.666    6696       -1289      -2421      -0.01      10354.3    38.073     9713      
1120.4     4.3        183        4.27       1449       0          101.683    6697       -1289      -2422      -0.01      10354.01   38.079     9714      
1120.6     4.22       179        4.22       1449       0          101.7      6698       -1289      -2421      -0.01      10353.72   38.084     9716      
1120.8     4.21       179        4.21       1609       0          101.718    6699       -1289      -2421      -0.01      10353.42   38.087     9716      
1121       4.21       179        4.21       1694       0          101.735    6700       -1289      -2425      -0.01      10353.11   38.09      9717      
1121.2     4.21       179        4.21       1785       0          101.752    6700       -1289      -2425      -0.01      10352.83   38.097     9719      
1121.4     4.21       179        4.21       2132       0          101.769    6701       -1289      -2425      -0.01      10352.54   38.098     9719      
1121.6     4.21       179        4.21       2132       0          101.785    6702       -1289      -2426      -0.01      10352.23   38.102     9720      
1121.8     4.21       179        4.2        2879       0          101.804    6703       -1289      -2430      -0.01      10351.93   38.107     9721      
1122       4.21       179        4.19       3763       0          101.809    6703       -1289      -2424      -0.01      10351.65   38.11      9722      
1122.2     4.19       178        4.16       5352       0          101.821    6704       -1289      -2417      -0.01      10351.35   38.113     9723      
1122.4     4.12       175        4.12       8012       0          101.852    6705       -1289      -2417      -0.01      10351.05   38.116     9724      
1122.6     4.12       175        4.12       8012       0          101.851    6705       -1289      -2419      -0.01      10350.74   38.122     9725      
1122.8     4.12       175        4.12       1237       0          101.882    6706       -1289      -2418      -0.01      10350.45   38.126     9726      
1123       4.12       175        4.13       1258       0          101.905    6707       -1289      -2417      -0.01      10350.15   38.126     9726      
1123.2     4.12       175        4.13       1257       0          101.916    6708       -1289      -2416      -0.01      10349.86   38.133     9728      
1123.4     4.12       175        4.15       1305       0          101.918    6708       -1289      -2415      -0.01      10349.56   38.137     9729      
1123.6     4.12       175        4.19       1305       0          101.935    6709       -1289      -2413      -0.01      10349.27   38.14      9730      
