~Version
 VERS              .         2.0                           : CWLS LOG ASCII STANDARD - VERSION 2.0
 WRAP              .         NO                            : ONE LINE PER DEPTH STEP
 DLM               .         SPACE                         : DELIMITING CHARACTER(SPACE TAB OR COMMA)
~Well Information
#_______________________________________________________________________________
#
#PARAMETER_NAME    .UNIT     VALUE                         : DESCRIPTION
#_______________________________________________________________________________
STRT               .M        2647.6                        : First reference value
STOP               .M        2757.2                        : Last reference value
STEP               .M        0.1999997                     : Step increment
NULL               .         -9999                         : Missing value
COMP               .                                       : Company
WELL               .         616                           : Well name
FLD                .                                       : Field
LOC                .                                       : Location
CNTY               .                                       : County
STAT               .                                       : State
CTRY               .                                       : Country
SRVC               .                                       : Service Company
DATE               .                                       : Date
API                .                                       : API number
PROJECT_UPGRADE_TIME .         2021-03-18T21_24_50           : 
group              .         Good                          : 
~Parameter Information Block
#_______________________________________________________________________________
#
#PARAMETER_NAME    .UNIT     VALUE                         : DESCRIPTION
#_______________________________________________________________________________
SET                .         D7017_D                       : 
OTHER              .         Kedr.exe версия 2.1.2.32      : 
OTHER_10           .         TM.GRD = 0.00404*TM$.UE + 0.07: 
OTHER_11           .         MN.ATM = (6.33279e-006*TM.GRD + 0.02401)*(MN$.UE + 2.72*TM.GRD + -2018): 
OTHER_12           .         GK.MKR/H = GK$.UE / 43.5489 + 0: 
OTHER_13           .         RES.SM = 0.00476*CRES.UE - 1.51709: 
OTHER_14           .         PL.GSM3 = 0 + 0 * (PL.UE / 1) +  0 * (PL.UE / 1)^2: 
OTHER_15           .         Постоянная времени ГГП = 6 сек: 
OTHER_16           .         Постоянная времени ГК = 6 сек : 
OTHER_2            .         KedrData.dll версия 3.2.2.14  : 
OTHER_3            .         LasInf.dll версия 3.2.0.13    : 
OTHER_4            .         Драйвер версия 1.2.0.5        : 
OTHER_5            .         Прибор_ КСА-M1                : 
OTHER_6            .         Номер прибора_ 155+р204       : 
OTHER_7            .         Режим_ КСА-М1 + ГГП + Резистивиметр: 
OTHER_8            .         Форма_ 223\2                  : 
OTHER_9            .         Тарировки_                    : 
PROJECT_UPGRADE_TIME .         2021-03-18T21_24_50           : 
TLFamily_CRES      .                                       : 
TLFamily_DEPT      .         Measured Depth                : 
TLFamily_GK        .         Gamma Ray                     : 
TLFamily_GK$       .                                       : 
TLFamily_LM        .         Casing Collar locator         : 
TLFamily_METKA     .                                       : 
TLFamily_MN        .                                       : 
TLFamily_MN$       .                                       : 
TLFamily_PL        .                                       : 
TLFamily_PL_2      .                                       : 
TLFamily_RCOR      .                                       : 
TLFamily_RES       .         Mud Resistivity               : 
TLFamily_SPID      .         Spontaneous Potential         : 
TLFamily_STD       .                                       : 
TLFamily_TIME      .         Time                          : 
TLFamily_TM        .         Temperature                   : 
TLFamily_TM$       .         Temperature                   : 
TLFamily_VGD       .         Gas Volume                    : 
group              .         prim                          : 
~Curve Information
#_______________________________________________________________________________
#
#LOGNAME           .UNIT     LOG_ID                        : DESCRIPTION
#_______________________________________________________________________________
DEPT               .M                                      : 1 Глубина, м -    0.0 см 
CRES               .UE                                     : 9 Проводимость, усл.ед. -  222.0 см 
GK                 .MKR/H                                  : 16 Гамма-активность, мкр./ч -  106.0 см 
GK$                .UE                                     : 13 Гамма-активность, усл.ед. -  106.0 см 
LM                 .                                       : 11 Локатор муфт,  -   16.0 см 
METKA              .                                       : 3 Метки,  -    0.0 см 
MN                 .ATM                                    : 15 Давление, атм. -  160.0 см 
MN$                .UE                                     : 7 Давление, усл.ед. -  160.0 см 
PL                 .UE                                     : 10 Плотность, усл.ед. -  270.0 см 
PL_2               .GSM3                                   : 18 Плотность, г./см3 -  270.0 см 
RCOR               .CM/KM                                  : 5 Коррекция по ролику, см/км -    0.0 см 
RES                .SM                                     : 17 Проводимость,  -  222.0 см 
SPID               .M/H                                    : 2 Скорость, м/час -    0.0 см 
STD                .                                       : 12 Приток,  -  170.0 см 
TIME               .S                                      : 4 Время, сек -    0.0 см 
TM                 .GRD                                    : 14 Температура, °C -  180.0 см 
TM$                .UE                                     : 6 Температура, усл.ед. -  180.0 см 
VGD                .                                       : 8 Влагомер,  -  170.0 см 
~Ascii
# ...
2680.4     1194       9.78       410        1893       0          246.517    12030      15         0          0          4.1647     -260       9272       8716.77    47.33      11698      6620      
2680.6     1190       10.51      457        41         0          246.526    12030      13         0          0          4.147      -260       9266       8714.01    47.32      11695      6624      
2680.8     1201       10.51      463        45         0          246.538    12031      14         0          0          4.2013     -260       9264       8711.11    47.294     11689      6625      
2681       1205       10.38      440        41         0          246.577    12033      14         0          0          4.2171     -260       9261       8708.36    47.295     11689      6623      
2681.2     1196       11         477        45         0          246.583    12033      14         0          0          4.1759     -190       9258       8705.47    47.28      11686      6624      
2681.4     1198       10.87      475        46         0          246.602    12034      14         0          0          4.1854     -260       9253       8702.71    47.265     11682      6625      
2681.6     1203       10.82      471        42         0          246.648    12036      13         0          0          4.2091     -232       9251       8699.96    47.225     11672      6625      
2681.8     1203       10.84      469        44         0          246.648    12036      14         0          0          4.2112     -260       9251       8697.07    47.205     11667      6625      
2682       1217       10.95      475        43         0          246.673    12037      14         0          0          4.2774     -260       9249       8694.32    47.205     11667      6625      
2682.2     1221       10.91      480        39         0          246.696    12038      14         0          0          4.2949     -260       9247       8691.42    47.205     11667      6625      
2682.4     1213       10.79      473        45         0          246.726    12039      14         0          0          4.2552     -260       9246       8688.67    47.197     11665      6625      
2682.6     1207       11.43      485        55         0          246.739    12040      14         0          0          4.2279     -260       9247       8685.91    47.179     11661      6625      
2682.8     1211       11.52      507        57         0          246.736    12040      14         0          0          4.2456     -260       9245       8683.09    47.153     11654      6625      
2683       1213       11.08      475        53         0          246.8      12043      14         0          0          4.2584     -260       9241       8680.27    47.133     11649      6626      
2683.2     1220       11.44      492        48         0          246.808    12043      13         0          0          4.2917     -260       9238       8677.51    47.129     11648      6625      
2683.4     1223       11.65      514        46         0          246.831    12044      14         0          0          4.3044     -260       9234       8674.63    47.127     11648      6625      
2683.6     1215       11.58      495        46         0          246.854    12045      15         0          0          4.2662     -260       9231       8671.87    47.116     11645      6625      
2683.8     1215       11.93      506        44         0          246.86     12045      14         0          0          4.2664     -260       9227       8669.11    47.104     11642      6624      
2684       1218       12.03      533        43         0          246.875    12046      14         0          0          4.2822     -260       9225       8666.23    47.086     11638      6623      
2684.2     1220       12.55      526        45         0          246.915    12048      14         0          0          4.2901     -260       9224       8663.34    47.079     11636      6624      
2684.4     1217       13.17      565        44         0          246.92     12048      14         0          0          4.2774     -260       9224       8660.59    47.074     11635      6623      
2684.6     1218       13.24      568        49         0          246.958    12050      14         0          0          4.2821     -260       9222       8657.82    47.051     11629      6624      
2684.8     1218       13.81      588        56         0          246.964    12050      14         0          0          4.2822     -260       9220       8654.95    47.035     11625      6624      
2685       1220       14.33      628        56         0          246.987    12051      14         0          0          4.2917     -260       9220       8652.18    47.016     11620      6625      
2685.2     1222       13.91      632        62         0          247.01     12052      14         0          0          4.2996     -260       9221       8649.42    47.007     11618      6625      
2685.4     1219       12.63      601        198        0          247.031    12053      14         0          0          4.2854     -260       9219       8646.54    46.999     11616      6623      
2685.6     1226       10.62      543        2673       0          247.053    12054      14         0          0          4.3187     -236       9217       8643.77    46.97      11609      6624      
2685.8     1226       9.05       456        2965       0          247.051    12054      13         0          0          4.3203     -260       9215       8641       46.956     11605      6624      
2686       1222       7.96       358        2963       0          247.075    12055      14         0          0          4.3012     -260       9215       8638.23    46.935     11600      6625      
2686.2     1226       7.88       346        119        0          247.096    12056      13         0          0          4.3187     -280       9215       8635.33    46.935     11600      6625      
2686.4     1225       7.72       333        140        0          247.118    12057      14         0          0          4.3139     -260       9213       8632.58    46.91      11594      6623      
2686.6     1224       8.02       331        139        0          247.142    12058      14         0          0          4.3091     -260       9212       8629.82    46.894     11590      6625      
2686.8     1222       8.53       368        153        0          247.188    12060      14         0          0          4.2996     -233       9206       8627.06    46.89      11589      6624      
2687       1225       8.73       370        95         0          247.185    12060      15         0          0          4.3139     -260       9200       8624.31    46.873     11585      6625      
2687.2     1224       9.04       384        66         0          247.207    12061      13         0          0          4.3076     -260       9196       8621.55    46.852     11580      6624      
2687.4     1222       8.58       409        63         0          247.186    12060      14         0          0          4.3012     -260       9193       8618.67    46.829     11574      6624      
2687.6     1221       8.07       356        47         0          247.208    12061      13         0          0          4.2964     -260       9188       8615.91    46.797     11566      6629      
2687.8     1221       8.47       364        40         0          247.265    12064      14         0          0          4.2965     -260       9189       8613.15    46.775     11561      6629      
2688       1223       8.81       381        38         0          247.206    12061      13         0          0          4.3028     -280       9185       8610.27    46.776     11561      6630      
2688.2     1221       8.95       386        48         0          247.284    12065      13         0          0          4.2933     -233       9179       8607.5     46.763     11558      6629      
2688.4     1223       9.21       387        57         0          247.313    12066      14         0          0          4.3044     -277       9175       8604.63    46.733     11550      6629      
