~Version
 VERS              .         2.0                           : CWLS LOG ASCII STANDARD - VERSION 2.0
 WRAP              .         NO                            : ONE LINE PER DEPTH STEP
 DLM               .         SPACE                         : DELIMITING CHARACTER(SPACE TAB OR COMMA)
~Well Information
#_______________________________________________________________________________
#
#PARAMETER_NAME    .UNIT     VALUE                         : DESCRIPTION
#_______________________________________________________________________________
STRT               .M        21.55                         : First reference value
STOP               .M        2764.75                       : Last reference value
STEP               .M        0.2                           : Step increment
NULL               .         -9999                         : Missing value
COMP               .                                       : Company
WELL               .         616                           : Well name
FLD                .                                       : Field
LOC                .                                       : Location
CNTY               .                                       : County
STAT               .                                       : State
CTRY               .                                       : Country
SRVC               .                                       : Service Company
DATE               .                                       : Date
API                .                                       : API number
PROJECT_UPGRADE_TIME .         2021-03-18T21_24_50           : 
group              .         Good                          : 
~Parameter Information Block
#_______________________________________________________________________________
#
#PARAMETER_NAME    .UNIT     VALUE                         : DESCRIPTION
#_______________________________________________________________________________
SET                .         D7028_D_2                     : 
NPR                .         155                           : Номер прибора
OTHER              .         Kedr.exe версия 2.1.2.32      : 
OTHER_10           .         TM.GRD = 0.00404*TM$.UE + 0.07: 
OTHER_11           .         MN.ATM = (6.33279e-006*TM.GRD + 0.02401)*(MN$.UE + 2.72*TM.GRD + -2018): 
OTHER_12           .         GK.MKR/H = GK$.UE / 43.5489 + 0: 
OTHER_13           .         RES.SM = 0.00476*CRES.UE - 1.51709: 
OTHER_14           .         PL.GSM3 = 0 + 0 * (PL.UE / 1) +  0 * (PL.UE / 1)^2: 
OTHER_15           .         Постоянная времени ГГП = 6 сек: 
OTHER_16           .         Постоянная времени ГК = 6 сек : 
OTHER_2            .         KedrData.dll версия 3.2.2.14  : 
OTHER_3            .         LasInf.dll версия 3.2.0.13    : 
OTHER_4            .         Драйвер версия 1.2.0.5        : 
OTHER_5            .         Прибор_ КСА-M1                : 
OTHER_6            .         Номер прибора_ 155+р204       : 
OTHER_7            .         Режим_ КСА-М1 + ГГП + Резистивиметр: 
OTHER_8            .         Форма_ 223\2                  : 
OTHER_9            .         Тарировки_                    : 
PR                 .         КСА-Т7 М1                     : Тип прибора
PROJECT_UPGRADE_TIME .         2021-03-18T21_24_50           : 
PRTY               .         ПП-223_2                      : Номер партии
SRV                .         ЦКРС                          : Заказчик
SRVC               .         Лузин  А.Б.                   : Начальник партии
TLFamily_DEPT      .         Measured Depth                : 
TLFamily_LM        .         Casing Collar locator         : 
TLFamily_MN        .                                       : 
TLFamily_SPID      .         Spontaneous Potential         : 
TLFamily_TM        .         Temperature                   : 
group              .         second                        : 
~Curve Information
#_______________________________________________________________________________
#
#LOGNAME           .UNIT     LOG_ID                        : DESCRIPTION
#_______________________________________________________________________________
DEPT               .M                                      : Depth curve 
LM                 .е.ацп                                  : Локация муфт 
MN                 .атм                                    : Манометрия, атм 
SPID               .м/ч                                    : Скорость записи,м/час 
TM                 .град.С                                 : Термометрия,град.С 
~Ascii
# ...
196.75     1524.001   17.95      -1860      14.02     
196.95     1629.998   17.96      -1823      14.02     
197.15     1440       17.98      -1790      14.02     
197.35     1474.001   18.01      -1838      14.02     
197.55     1594.001   18.01      -1860      14.03     
197.75     1659.002   18.05      -1859.999  14.03     
197.95     1843       18.06      -1794.001  14.03     
198.15     1794.999   18.09      -1857      14.03     
198.35     1651.998   18.11      -1855.999  14.03     
198.55     1388.999   18.13      -1790      14.03     
198.75     1317.001   18.13      -1790      14.03     
198.95     1471.003   18.14      -1812      14.03     
199.15     1771.998   18.19      -1833      14.03     
199.35     1585.001   18.2       -1790.001  14.03     
199.55     1698.999   18.22      -1858      14.04     
199.75     1617.999   18.25      -1844.999  14.04     
199.95     1542.999   18.25      -1790      14.04     
200.15     1486.004   18.28      -1841      14.03     
200.35     1859       18.3       -1860      14.04     
200.55     1817       18.32      -1859.999  14.03     
200.75     1789.999   18.33      -1797      14.04     
200.95     1696.998   18.34      -1790      14.04     
201.15     1516.005   18.36      -1790      14.04     
201.35     2035.008   18.38      -1790.001  14.04     
201.55     2836.013   18.42      -1888.999  14.04     
201.75     4184.022   18.44      -1816      14.04     
201.95     6483.959   18.46      -1790.001  14.04     
202.15     2230.99    18.49      -1853      14.04     
202.35     1238.003   18.49      -1860      14.04     
202.55     1562.997   18.49      -1856.999  14.05     
202.75     1232.002   18.54      -1794.001  14.05     
202.95     1422       18.54      -1860      14.05     
203.15     1448.001   18.58      -1842      14.05     
203.35     1508.002   18.59      -1813      14.05     
203.55     1685.998   18.61      -1860      14.05     
203.75     1530.001   18.61      -1827      14.05     
203.95     1656       18.66      -1829      14.05     
204.15     1633.002   18.66      -1860      14.05     
204.35     1797.999   18.66      -1809      14.05     
204.55     1732.998   18.69      -1790      14.05     
204.75     1536.001   18.74      -1790.001  14.05     
204.95     1643.998   18.76      -1860      14.06     
205.15     1445.002   18.77      -1855.999  14.06     
205.35     1607       18.79      -1804.001  14.06     
205.55     1635.001   18.79      -1920      14.06     
205.75     1766.999   18.81      -1885.999  14.06     
205.95     1665.998   18.85      -1831.001  14.06     
206.15     1481.999   18.85      -1919.999  14.06     
206.35     1413.001   18.87      -1860.999  14.07     
206.55     1546       18.88      -1790      14.07     
206.75     1536.001   18.93      -1790      14.07     
206.95     1650.004   18.95      -1834      14.07     
207.15     2044.996   18.95      -1860      14.07     
207.35     1628       18.97      -1860      14.07     
207.55     1603       18.98      -1859.999  14.08     
207.75     1576       19.02      -1794      14.07     
207.95     1607.001   19.05      -1790.001  14.07     
208.15     1683.998   19.06      -1860      14.07     
208.35     1451.001   19.07      -1860      14.07     
208.55     1540.002   19.09      -1848      14.08     
208.75     1736.997   19.11      -1809.001  14.08     
208.95     1454.001   19.12      -1860      14.08     
209.15     1562.998   19.16      -1860      14.08     
209.35     1386.001   19.17      -1860      14.08     
209.55     1448.003   19.19      -1819      14.08     
209.75     1751.997   19.21      -1790      14.08     
209.95     1428       19.22      -1790.001  14.08     
210.15     1468.998   19.24      -1893.998  14.08     
210.35     1307.002   19.25      -1741      14.09     
210.55     1508.002   19.29      -1730.001  14.09     
210.75     1698.999   19.29      -1860      14.09     
210.95     1605.998   19.31      -1860      14.09     
211.15     1401.998   19.34      -1860      14.09     
211.35     1256.003   19.35      -1816      14.09     
211.55     1573       19.36      -1790.001  14.09     
211.75     1594       19.4       -1857      14.09     
211.95     1614.998   19.41      -1860      14.09     
212.15     1450.003   19.45      -1860      14.09     
212.35     1729.003   19.46      -1860      14.09     
212.55     1974.007   19.48      -1860      14.09     
212.75     2690.012   19.49      -1860      14.1      
212.95     3855.022   19.52      -1835      14.1      
213.15     5961.003   19.55      -1790      14.1      
213.35     6292.948   19.55      -1823      14.1      
213.55     1351.002   19.58      -1860      14.1      
213.75     1581       19.63      -1816      14.11     
213.95     1588.999   19.63      -1836      14.11     
214.15     1495.004   19.65      -1859.999  14.11     
214.35     1866.999   19.66      -1801.001  14.11     
214.55     1756.995   19.68      -1856      14.11     
214.75     1319.003   19.7       -1860      14.11     
214.95     1577.999   19.71      -1860      14.11     
215.15     1442.001   19.72      -1860      14.12     
215.35     1579.999   19.75      -1843.999  14.12     
215.55     1530.001   19.77      -1790      14.12     
215.75     1669.999   19.77      -1790      14.12     
215.95     1543.999   19.79      -1790      14.12     
216.15     1489.004   19.82      -1829      14.12     
216.35     1871.002   19.87      -1859.999  14.12     
216.55     2104.002   19.87      -1809      14.12     
216.75     2277.996   19.9       -1845      14.13     
216.95     1877.998   19.92      -1859.999  14.13     
217.15     1655.999   19.92      -1794.001  14.12     
217.35     1532.999   19.95      -1860      14.12     
217.55     1416.002   19.96      -1852.999  14.12     
217.75     1628.999   19.99      -1790      14.12     
217.95     1562.001   20         -1808.001  14.12     
218.15     1657.999   20.02      -1860      14.12     
218.35     1567       20.04      -1859.999  14.13     
218.55     1535.997   20.06      -1795      14.12     
218.75     1257.003   20.04      -1763      14.13     
218.95     1566.005   20.09      -1790.001  14.13     
219.15     2001.994   20.11      -1844      14.13     
219.35     1432.002   20.13      -1804      14.12     
219.55     1634.998   20.14      -1790      14.13     
219.75     1476       20.17      -1794.001  14.13     
219.95     1473.003   20.19      -1860      14.14     
220.15     1703.999   20.21      -1843.999  14.14     
220.35     1612.001   20.23      -1790      14.14     
220.55     1722.001   20.26      -1790      14.14     
220.75     1767.996   20.26      -1823      14.15     
220.95     1376       20.27      -1860      14.15     
221.15     1381.999   20.3       -1860      14.14     
221.35     1267.001   20.3       -1860      14.14     
221.55     1361.004   20.33      -1860      14.14     
221.75     1691.997   20.35      -1860      14.14     
221.95     1406.003   20.37      -1859.999  14.14     
222.15     1653.003   20.41      -1809      14.14     
222.35     1921.995   20.42      -1792.001  14.14     
222.55     1464.005   20.44      -1859.999  14.14     
222.75     1890.996   20.45      -1815      14.15     
222.95     1529       20.48      -1842      14.15     
223.15     1536       20.5       -1859.999  14.15     
223.35     1497.002   20.5       -1797.001  14.16     
223.55     1710.005   20.53      -1860      14.16     
223.75     2166.011   20.56      -1860      14.16     
223.95     3101.018   20.57      -1848.999  14.16     
224.15     4672.03    20.58      -1790      14.17     
224.35     7350.941   20.61      -1805      14.17     
224.55     2153.993   20.62      -1823.999  14.18     
224.75     1573.002   20.64      -1730.001  14.18     
224.95     1765.001   20.67      -1792.001  14.18     
225.15     1828.995   20.69      -1859.999  14.19     
225.35     1368.002   20.74      -1812      14.19     
225.55     1566.003   20.72      -1842      14.18     
225.75     1817.996   20.75      -1860      14.19     
