~Version
 VERS              .         2.0                           : CWLS LOG ASCII STANDARD - VERSION 2.0
 WRAP              .         NO                            : ONE LINE PER DEPTH STEP
 DLM               .         SPACE                         : DELIMITING CHARACTER(SPACE TAB OR COMMA)
~Well Information
#_______________________________________________________________________________
#
#PARAMETER_NAME    .UNIT     VALUE                         : DESCRIPTION
#_______________________________________________________________________________
STRT               .M        209.2                         : First reference value
STOP               .M        612.6                         : Last reference value
STEP               .M        0.2                           : Step increment
NULL               .         -9999                         : Missing value
COMP               .                                       : Company
WELL               .         616                           : Well name
FLD                .                                       : Field
LOC                .                                       : Location
CNTY               .                                       : County
STAT               .                                       : State
CTRY               .                                       : Country
SRVC               .                                       : Service Company
DATE               .                                       : Date
API                .                                       : API number
PROJECT_UPGRADE_TIME .         2021-03-18T21_24_50           : 
group              .         Good                          : 
~Parameter Information Block
#_______________________________________________________________________________
#
#PARAMETER_NAME    .UNIT     VALUE                         : DESCRIPTION
#_______________________________________________________________________________
SET                .         616_3                         : 
CONF               .         00                            : 
END                .         0                             : 
ERR                .         0                             : 
GS00               .M        0610.64                       : 
GS01               .M        0206.79                       : 
MM00               .M        0060.00                       : 
NOKG               .         1                             : 
NPR                .         980119                        : 
PART               .         Палагутин                     : 
PROJECT_UPGRADE_TIME .         2021-03-18T21_24_49           : 
PRZK               .         Шакиров                       : 
TLFamily_AZIMUTH   .         True Dip Azimuth              : 
TLFamily_DEPTH     .         Measured Depth                : 
TLFamily_METKA     .                                       : 
TLFamily_ROLL      .                                       : 
TLFamily_SPEED     .         Spontaneous Potential         : 
TLFamily_ZENIT     .                                       : 
VPRG               .         310                           : 
WAY                .         UP                            : 
group              .         prim                          : 
~Curve Information
#_______________________________________________________________________________
#
#LOGNAME           .UNIT     LOG_ID                        : DESCRIPTION
#_______________________________________________________________________________
DEPTH              .M                                      :  
AZIMUTH            .DEG                                    :  
METKA              .                                       :  
ROLL               .DEG                                    :  
SPEED              .M/H                                    :  
ZENIT              .DEG                                    :  
~Ascii
# ...
453.2      265.91     0          100.57     648        24.93     
453.4      265.15     0          99.68      648        24.98     
453.6      263.88     0          100.69     684        24.83     
453.8      266.6      0          102.38     648        25.3      
454        264.55     0          102.98     648        24.85     
454.2      263.42     0          102.11     684        24.58     
454.4      266.21     0          101.39     648        25.27     
454.6      263.2      0          101.89     684        24.61     
454.8      263.91     0          102.33     648        24.7      
455        268.71     0          103.68     684        25.94     
455.2      265.71     0          105.94     684        25.38     
455.4      264.01     0          108.19     684        25.04     
455.6      265.08     0          109.77     648        25.28     
455.8      263.49     0          110.75     612        24.91     
456        265.65     0          110.25     684        25.25     
456.2      264.55     0          109.47     684        25.05     
456.4      264.93     0          108.63     648        25.04     
456.6      265.33     0          107.18     684        25.28     
456.8      264.67     0          105.06     684        24.98     
457        264.82     0          103.65     648        25.05     
457.2      265.65     0          103.19     684        25.34     
457.4      264.21     0          104.8      720        25.12     
457.6      262.87     0          109.01     684        25.12     
457.8      264.31     0          113.5      576        25.14     
458        264.51     0          115.73     684        25.17     
458.2      264.74     0          117.1      684        25.18     
458.4      264.88     0          117.69     684        25.17     
458.6      264.58     0          117.41     648        25.08     
458.8      264.08     0          117.46     648        25.11     
459        265.11     0          118.7      648        25.36     
459.2      264.31     0          119.73     684        25.08     
459.4      263.56     0          119.94     684        24.94     
459.6      264.96     0          119.25     648        25.22     
459.8      264.18     0          117.6      648        25        
460        263.34     0          115.75     684        24.93     
460.2      264.18     0          115.17     684        25.15     
460.4      263.59     0          115.65     648        25        
460.6      265.13     0          116.33     684        25.25     
460.8      265.16     0          116.79     648        25.23     
461        263.1      0          117.6      648        24.86     
461.2      265.18     0          118.45     648        25.29     
461.4      264.38     0          118.58     684        25.08     
461.6      263.45     0          118.08     684        24.86     
461.8      265.17     0          118.12     684        25.36     
462        264.94     1          118.82     648        25.23     
462.2      265.01     0          119.93     648        25.15     
462.4      266.72     0          121.09     684        25.43     
462.6      266.2      0          123.55     648        25.25     
462.8      271.07     0          126.53     684        25.36     
463        286.38     0          127.93     648        25.53     
463.2      327.04     0          128.09     684        25.28     
463.4      190.6      0          127.89     648        25.51     
463.6      168.37     0          127.94     684        25.69     
463.8      350.85     0          128.37     684        25.25     
464        295.26     0          128.91     684        25.31     
464.2      275.39     0          128.49     684        25.59     
464.4      267.27     0          128.2      648        25.35     
464.6      265.94     0          127.19     648        25.43     
464.8      264.9      0          125.27     684        25.31     
465        263.59     0          124.3      684        25.15     
465.2      263.84     0          123.84     684        25.17     
465.4      263.94     0          123.25     684        25.22     
465.6      263.9      0          124.03     648        25.25     
465.8      264.35     0          126.31     612        25.47     
466        264.11     0          127.93     684        25.36     
466.2      262.27     0          129.51     684        25.19     
466.4      262.34     0          132.12     684        25.13     
466.6      262.6      0          134.55     612        25.07     
466.8      263.73     0          136.61     648        25.14     
467        263.77     0          138.29     684        25.12     
467.2      262.95     0          139.82     684        25        
467.4      263.54     0          141.93     720        25.3      
467.6      264.3      0          144.57     612        25.44     
467.8      263.81     0          146.89     648        25.26     
468        262.9      0          149.02     648        25.16     
468.2      263.64     0          150.72     684        25.25     
468.4      263.15     0          151.48     684        25.1      
468.6      263.33     0          151.29     684        25.17     
468.8      264.69     0          150.17     612        25.52     
469        262.83     0          149.21     684        25.14     
469.2      264.05     0          149.24     684        25.5      
469.4      264.61     0          149.35     684        25.57     
469.6      263.09     0          148.62     648        25.21     
469.8      264.27     0          147.33     684        25.49     
470        264.46     0          145.39     648        25.51     
470.2      263.81     0          143.28     684        25.41     
470.4      264.4      0          141.09     684        25.53     
470.6      263.31     0          138        648        25.29     
470.8      262.21     0          136.36     684        25.45     
471        264.62     0          135.95     648        25.66     
471.2      263.81     0          135.07     684        25.35     
471.4      263.67     0          133.78     684        25.43     
471.6      263.79     0          133.67     612        25.51     
471.8      264.29     0          133.12     684        25.4      
472        264.78     0          131.32     684        25.4      
472.2      264.73     1          129.12     648        25.5      
472.4      263.78     0          128.19     648        25.42     
472.6      264.12     0          127.97     684        25.52     
472.8      263.33     0          129.12     648        25.46     
473        263.62     0          130.37     684        25.35     
473.2      263.97     0          131.59     684        25.65     
473.4      264.28     0          133.37     648        25.57     
473.6      262.86     0          135.85     648        25.42     
473.8      264.25     0          138.07     684        25.58     
474        263.86     0          139.78     684        25.51     
474.2      263.79     0          141.35     648        25.46     
474.4      264.61     0          142.88     648        25.61     
474.6      264.29     0          144.31     684        25.42     
474.8      265.59     0          145.69     684        25.4      
475        269        0          148.11     684        25.61     
475.2      276.77     0          150.38     684        25.56     
475.4      303.32     0          150.75     684        25.4      
475.6      331.94     0          150.39     576        25.67     
475.8      176.03     0          149        684        25.45     
476        176.17     0          147.46     684        25.44     
476.2      353.22     0          146.47     648        25.93     
476.4      284.58     0          146.26     684        25.51     
476.6      271.28     0          146.58     612        25.63     
476.8      267.53     0          146.63     648        25.69     
477        265.05     0          144.72     684        25.44     
477.2      264.46     0          142.24     720        25.61     
477.4      263.93     0          141.53     684        25.52     
