~Version
 VERS              .         2.0                           : CWLS LOG ASCII STANDARD - VERSION 2.0
 WRAP              .         NO                            : ONE LINE PER DEPTH STEP
 DLM               .         SPACE                         : DELIMITING CHARACTER(SPACE TAB OR COMMA)
~Well Information
#_______________________________________________________________________________
#
#PARAMETER_NAME    .UNIT     VALUE                         : DESCRIPTION
#_______________________________________________________________________________
STRT               .M        2647.6                        : First reference value
STOP               .M        2757.2                        : Last reference value
STEP               .M        0.1999997                     : Step increment
NULL               .         -9999                         : Missing value
COMP               .                                       : Company
WELL               .         616                           : Well name
FLD                .                                       : Field
LOC                .                                       : Location
CNTY               .                                       : County
STAT               .                                       : State
CTRY               .                                       : Country
SRVC               .                                       : Service Company
DATE               .                                       : Date
API                .                                       : API number
PROJECT_UPGRADE_TIME .         2021-03-18T21_24_50           : 
group              .         Good                          : 
~Parameter Information Block
#_______________________________________________________________________________
#
#PARAMETER_NAME    .UNIT     VALUE                         : DESCRIPTION
#_______________________________________________________________________________
SET                .         D7017_D                       : 
OTHER              .         Kedr.exe версия 2.1.2.32      : 
OTHER_10           .         TM.GRD = 0.00404*TM$.UE + 0.07: 
OTHER_11           .         MN.ATM = (6.33279e-006*TM.GRD + 0.02401)*(MN$.UE + 2.72*TM.GRD + -2018): 
OTHER_12           .         GK.MKR/H = GK$.UE / 43.5489 + 0: 
OTHER_13           .         RES.SM = 0.00476*CRES.UE - 1.51709: 
OTHER_14           .         PL.GSM3 = 0 + 0 * (PL.UE / 1) +  0 * (PL.UE / 1)^2: 
OTHER_15           .         Постоянная времени ГГП = 6 сек: 
OTHER_16           .         Постоянная времени ГК = 6 сек : 
OTHER_2            .         KedrData.dll версия 3.2.2.14  : 
OTHER_3            .         LasInf.dll версия 3.2.0.13    : 
OTHER_4            .         Драйвер версия 1.2.0.5        : 
OTHER_5            .         Прибор_ КСА-M1                : 
OTHER_6            .         Номер прибора_ 155+р204       : 
OTHER_7            .         Режим_ КСА-М1 + ГГП + Резистивиметр: 
OTHER_8            .         Форма_ 223\2                  : 
OTHER_9            .         Тарировки_                    : 
PROJECT_UPGRADE_TIME .         2021-03-18T21_24_50           : 
TLFamily_CRES      .                                       : 
TLFamily_DEPT      .         Measured Depth                : 
TLFamily_GK        .         Gamma Ray                     : 
TLFamily_GK$       .                                       : 
TLFamily_LM        .         Casing Collar locator         : 
TLFamily_METKA     .                                       : 
TLFamily_MN        .                                       : 
TLFamily_MN$       .                                       : 
TLFamily_PL        .                                       : 
TLFamily_PL_2      .                                       : 
TLFamily_RCOR      .                                       : 
TLFamily_RES       .         Mud Resistivity               : 
TLFamily_SPID      .         Spontaneous Potential         : 
TLFamily_STD       .                                       : 
TLFamily_TIME      .         Time                          : 
TLFamily_TM        .         Temperature                   : 
TLFamily_TM$       .         Temperature                   : 
TLFamily_VGD       .         Gas Volume                    : 
group              .         prim                          : 
~Curve Information
#_______________________________________________________________________________
#
#LOGNAME           .UNIT     LOG_ID                        : DESCRIPTION
#_______________________________________________________________________________
DEPT               .M                                      : 1 Глубина, м -    0.0 см 
CRES               .UE                                     : 9 Проводимость, усл.ед. -  222.0 см 
GK                 .MKR/H                                  : 16 Гамма-активность, мкр./ч -  106.0 см 
GK$                .UE                                     : 13 Гамма-активность, усл.ед. -  106.0 см 
LM                 .                                       : 11 Локатор муфт,  -   16.0 см 
METKA              .                                       : 3 Метки,  -    0.0 см 
MN                 .ATM                                    : 15 Давление, атм. -  160.0 см 
MN$                .UE                                     : 7 Давление, усл.ед. -  160.0 см 
PL                 .UE                                     : 10 Плотность, усл.ед. -  270.0 см 
PL_2               .GSM3                                   : 18 Плотность, г./см3 -  270.0 см 
RCOR               .CM/KM                                  : 5 Коррекция по ролику, см/км -    0.0 см 
RES                .SM                                     : 17 Проводимость,  -  222.0 см 
SPID               .M/H                                    : 2 Скорость, м/час -    0.0 см 
STD                .                                       : 12 Приток,  -  170.0 см 
TIME               .S                                      : 4 Время, сек -    0.0 см 
TM                 .GRD                                    : 14 Температура, °C -  180.0 см 
TM$                .UE                                     : 6 Температура, усл.ед. -  180.0 см 
VGD                .                                       : 8 Влагомер,  -  170.0 см 
~Ascii
# ...
2705       1207       10.1       437        115        0          248.908    12135      13         0          0          4.2282     -260       9042       8368.59    46.086     11390      6629      
2705.2     1202       9.67       440        121        0          248.907    12135      13         0          0          4.2044     -260       9043       8365.83    46.086     11390      6629      
2705.4     1205       9.14       405        107        0          248.931    12136      13         0          0          4.2187     -260       9044       8362.95    46.078     11388      6632      
2705.6     1207       8.81       384        115        0          248.963    12137      13         0          0          4.2282     -260       9041       8360.18    46.075     11387      6630      
2705.8     1206       8.91       369        130        0          248.979    12138      13         0          0          4.2212     -260       9044       8357.43    46.073     11387      6630      
2706       1209       9.76       403        123        0          249.003    12139      13         0          0          4.2378     -260       9037       8354.61    46.071     11386      6631      
2706.2     1209       10.12      453        82         0          248.962    12137      13         0          0          4.2378     -260       9036       8351.78    46.065     11385      6632      
2706.4     1207       9.63       439        94         0          249.043    12141      13         0          0          4.2282     -300       9033       8349.04    46.065     11385      6632      
2706.6     1206       9.77       400        100        0          249.074    12142      13         0          0          4.2235     -278       9033       8346.27    46.061     11384      6633      
2706.8     1205       9.94       433        85         0          249.099    12143      13         0          0          4.2187     -260       9037       8343.4     46.053     11382      6634      
2707       1201       9.69       414        120        0          249.099    12143      13         0          0          4.1997     -260       9039       8340.63    46.057     11383      6635      
2707.2     1205       10.17      434        120        0          249.123    12144      13         0          0          4.2171     -260       9039       8337.74    46.057     11383      6635      
2707.4     1207       10.51      469        102        0          249.131    12144      13         0          0          4.2266     -260       9036       8334.99    46.057     11383      6635      
2707.6     1206       9.93       453        102        0          249.158    12145      13         0          0          4.2236     -234       9033       8332.23    46.056     11383      6635      
2707.8     1199       9.44       413        149        0          249.171    12146      14         0          0          4.1917     -260       9031       8329.48    46.043     11379      6635      
2708       1203       9.59       403        118        0          249.188    12147      14         0          0          4.2092     -260       9030       8326.59    46.048     11381      6634      
2708.2     1197       9.71       427        98         0          249.211    12148      14         0          0          4.1822     -260       9028       8323.83    46.055     11382      6633      
2708.4     1198       9.49       425        117        0          249.243    12149      14         0          0          4.1854     -260       9028       8320.94    46.047     11380      6636      
2708.6     1196       9.35       410        118        1          249.267    12150      14         0          0          4.1759     -260       9027       8318.18    46.045     11380      6635      
2708.8     1200       9.2        399        121        0          249.267    12150      14         0          0          4.1949     -190       9029       8315.44    46.045     11380      6634      
2709       1203       9.26       406        147        0          249.291    12151      14         0          0          4.2108     -260       9027       8312.67    46.041     11379      6635      
2709.2     1198       9.12       402        132        0          249.315    12152      13         0          0          4.1854     -260       9025       8309.8     46.041     11379      6634      
2709.4     1196       9.1        383        114        0          249.339    12153      14         0          0          4.1759     -260       9025       8307.03    46.037     11378      6635      
2709.6     1198       9.51       405        130        0          249.347    12153      14         0          0          4.1854     -260       9025       8304.27    46.037     11378      6636      
2709.8     1195       9.92       412        126        1          249.363    12154      14         0          0          4.1711     -260       9024       8301.52    46.034     11377      6637      
2710       1198       10.39      440        111        0          249.387    12155      14         0          0          4.1838     -260       9024       8296.93    46.036     11378      6636      
2710.2     1198       10.34      439        129        0          249.412    12156      14         0          0          4.1854     -260       9022       8294.17    46.033     11377      6634      
2710.4     1191       11.12      484        128        0          249.412    12156      14         0          0          4.1521     -260       9019       8291.42    46.033     11377      6634      
2710.6     1192       11.12      488        102        0          249.436    12157      14         0          0          4.1568     -260       9020       8288.66    46.033     11377      6635      
2710.8     1194       11.05      474        163        0          249.452    12158      14         0          0          4.1681     -260       9022       8285.77    46.037     11378      6635      
2711       1196       11.28      496        116        0          249.46     12158      14         0          0          4.1743     -260       9022       8282.95    46.033     11377      6637      
2711.2     1196       10.58      477        345        1          249.492    12159      13         0          0          4.1759     -260       9021       8280.25    46.033     11377      6639      
2711.4     1198       9.55       451        293        0          249.525    12161      14         0          0          4.1854     -260       9026       8277.43    46.032     11377      6636      
2711.6     1194       8.15       387        390        0          249.533    12161      14         0          0          4.1647     -260       9027       8274.61    46.033     11377      6640      
2711.8     1190       7.26       336        110        0          249.533    12161      14         0          0          4.1489     -320       9027       8271.73    46.033     11377      6640      
2712       1193       6.91       297        163        0          249.582    12163      14         0          0          4.16       -190       9025       8268.97    46.033     11377      6639      
2712.2     1192       7.48       305        478        1          249.606    12164      14         0          0          4.1568     -260       9024       8266.21    46.033     11377      6641      
2712.4     1193       7.46       334        409        0          249.614    12164      14         0          0          4.1632     -260       9024       8263.46    46.033     11377      6642      
2712.6     1196       6.74       297        520        0          249.63     12165      13         0          0          4.1744     -260       9024       8260.56    46.03      11376      6638      
2712.8     1198       6.68       276        299        0          249.655    12166      14         0          0          4.1854     -290       9025       8257.74    46.029     11376      6639      
2713       1194       7.49       307        1194       0          249.666    12166      14         0          0          4.1664     -277       9024       8254.92    46.033     11377      6641      
