~Version
 VERS              .         2.0                           : CWLS LOG ASCII STANDARD - VERSION 2.0
 WRAP              .         NO                            : ONE LINE PER DEPTH STEP
 DLM               .         SPACE                         : DELIMITING CHARACTER(SPACE TAB OR COMMA)
~Well Information
#_______________________________________________________________________________
#
#PARAMETER_NAME    .UNIT     VALUE                         : DESCRIPTION
#_______________________________________________________________________________
STRT               .M        5.8                           : First reference value
STOP               .M        2774.6                        : Last reference value
STEP               .M        0.2                           : Step increment
NULL               .         -9999                         : Missing value
COMP               .                                       : Company
WELL               .         616                           : Well name
FLD                .                                       : Field
LOC                .                                       : Location
CNTY               .                                       : County
STAT               .                                       : State
CTRY               .                                       : Country
SRVC               .                                       : Service Company
DATE               .                                       : Date
API                .                                       : API number
PROJECT_UPGRADE_TIME .         2021-03-18T21_24_50           : 
group              .         Good                          : 
~Parameter Information Block
#_______________________________________________________________________________
#
#PARAMETER_NAME    .UNIT     VALUE                         : DESCRIPTION
#_______________________________________________________________________________
SET                .         D1747_D                       : 
OTHER              .         Программное обеспечение станции MONITOR-386EX 25/12/99 15_08_10   BGF V52 22/08/01 16_56_30   3.1_SNGF___BGF_N_111239: 
OTHER_10           .         Тарировки_                    : 
OTHER_11           .         <_techsia_sc_> Постоянная времени фильтра ГК  3.0 сек, kf=0.016529: 
OTHER_12           .         <_techsia_sc_> Постоянная времени фильтра ННК  3.0 сек, kf=0.016529: 
OTHER_13           .         GK.MKR/H = GK$.IMP/476        : 
OTHER_14           .         WSAT.PERC = -12.5 + 78.0 * (NKT2$.IMP / NKT1$.IMP) * 1731/33716: 
OTHER_15           .         NKT2.PRIV = NKT2$.IMP/33716   : 
OTHER_16           .         NKT1.PRIV = NKT1$.IMP/1731    : 
OTHER_2            .         Kedr.exe версия 3.3.2.32      : 
OTHER_3            .         KedrData.dll версия 3.3.2.17  : 
OTHER_4            .         Драйвер версия 2.1.1.9        : 
OTHER_5            .         Мнемоники версия 3.2 S        : 
OTHER_6            .         Прибор_ СРК-73Ц-1N            : 
OTHER_7            .         Номер прибора_ 906            : 
OTHER_8            .         Режим_ с локатором            : 
OTHER_9            .         Форма_ 623-1                  : 
PROJECT_UPGRADE_TIME .         2021-03-18T21_24_49           : 
TLFamily_DEPT      .         Measured Depth                : 
TLFamily_GK        .         Gamma Ray                     : 
TLFamily_GK$       .                                       : 
TLFamily_LM        .         Casing Collar locator         : 
TLFamily_METKA     .                                       : 
TLFamily_NKT1      .         Neutron Far                   : 
TLFamily_NKT1$     .         Neutron Far                   : 
TLFamily_NKT2      .         Neutron Near                  : 
TLFamily_NKT2$     .         Neutron Near                  : 
TLFamily_RCOR      .                                       : 
TLFamily_SPID      .         Spontaneous Potential         : 
TLFamily_TENS      .         Cable Tension                 : 
TLFamily_TIME      .         Time                          : 
TLFamily_WSAT      .         Neutron Porosity              : 
group              .         prim                          : 
~Curve Information
#_______________________________________________________________________________
#
#LOGNAME           .UNIT     LOG_ID                        : DESCRIPTION
#_______________________________________________________________________________
DEPT               .M                                      : 1 Глубина, м -    0.0 см 
GK                 .MKR/H                                  : 11 Гамма-активность, мкр./ч -   97.0 см 
GK$                .IMP                                    : 9 Гамма-активность, имп/мин -   97.0 см 
LM                 .                                       : 10 Локатор муфт,  -   27.0 см 
METKA              .                                       : 3 Метки,  -    0.0 см 
NKT1               .PRIV                                   : 14 Большой зонд приведенный,  -  278.0 см 
NKT1$              .IMP                                    : 8 Большой зонд, имп/мин -  278.0 см 
NKT2               .PRIV                                   : 13 Малый зонд приведенный,  -  289.0 см 
NKT2$              .IMP                                    : 7 Малый зонд, имп/мин -  289.0 см 
RCOR               .CM/KM                                  : 5 Коррекция по ролику, см/км -    0.0 см 
SPID               .M/H                                    : 2 Скорость, м/час -    0.0 см 
TENS               .T                                      : 6 Натяжение кабеля, т -    0.0 см 
TIME               .S                                      : 4 Время, сек -    0.0 см 
WSAT               .PERC                                   : 12 Водонасыщенная пористость, % -  284.0 см 
~Ascii
# ...
2397.8     6.51       3101       42         0          1.39       2404.43    0.92       31158.77   -472       -380       0          16612.25   40.11     
2398       6.62       3153       49         0          1.4        2421.02    0.94       31850.35   -472       -380       0          16610.39   40.59     
2398.2     6.59       3137       26         0          1.42       2460.69    0.93       31405.97   -472       -380       0          16608.62   43.09     
2398.4     5.98       2845       30         0          1.29       2235.15    0.91       30565.03   -472       -380       0          16606.69   42.43     
2398.6     5.9        2810       31         0          1.36       2356.37    0.91       30715.69   -472       -449       0          16604.82   39.96     
2398.8     6.2        2953       35         0          1.37       2370.49    0.89       30083.07   -472       -380       0          16602.97   35.14     
2399       6.27       2983       36         0          1.38       2380.18    0.88       29828.58   -472       -380       0          16601.12   34.67     
2399.2     5.96       2838       36         0          1.27       2194.85    0.88       29586.8    -472       -380       0          16599.22   34.92     
2399.4     5.79       2754       31         0          1.15       1997.3     0.88       29661.62   -472       -326       0          16597.32   36.74     
2399.6     6.3        2996       25         0          1.26       2188.18    0.88       29627.96   -472       -380       0          16595.31   38.01     
2399.8     6.78       3229       36         1          1.28       2210.74    0.88       29794.54   -472       -323       0          16593.46   39.26     
2400       6.94       3302       33         0          1.38       2388.53    0.88       29799.28   -471       -380       0          16591.51   40.52     
2400.2     6.92       3294       35         0          1.35       2335.59    0.9        30244.34   -471       -382       0          16589.65   39.74     
2400.4     6.71       3192       42         0          1.41       2447.7     0.89       30080.59   -471       -377       0          16587.85   37.55     
2400.6     6.92       3293       45         0          1.49       2570.56    0.89       30135.27   -471       -380       0          16585.95   34.86     
2400.8     6.5        3094       16         0          1.49       2573.46    0.88       29502.61   -471       -380       0          16584.05   35.89     
2401       6.94       3304       27         0          1.47       2537.34    0.88       29830.18   -471       -380       0          16582.14   32.32     
2401.2     7.21       3432       39         0          1.32       2286.01    0.89       30012.4    -471       -380       0          16580.29   36.44     
2401.4     6.76       3217       31         0          1.25       2156.92    0.87       29188.89   -471       -377       0          16578.39   35.95     
2401.6     7.12       3389       42         0          1.42       2449.87    0.89       29910.96   -471       -380       0          16576.48   35.77     
2401.8     6.73       3205       38         0          1.46       2531.44    0.87       29475.23   -471       -380       0          16574.58   38.45     
2402       6.93       3300       8          0          1.4        2423.62    0.88       29663.17   -471       -380       0          16572.77   37.76     
2402.2     6.69       3182       43         0          1.4        2430.04    0.89       29956.69   -471       -380       0          16570.87   38.54     
2402.4     6.13       2917       39         0          1.43       2481.03    0.9        30202.34   -471       -380       0          16569.02   36.97     
2402.6     6.15       2928       34         0          1.45       2513.48    0.91       30715.71   -471       -380       0          16567.11   37.49     
2402.8     5.64       2684       59         0          1.59       2758.3     0.93       31449.65   -471       -380       0          16565.26   39.05     
2403       5.64       2682       71         0          1.64       2840.26    0.92       31101.3    -471       -380       0          16563.41   35.71     
2403.2     6.18       2941       34         0          1.65       2857.13    0.91       30641.24   -471       -380       0          16561.55   33.55     
2403.4     6.12       2911       48         0          1.67       2891.35    0.92       31054.07   -471       -380       0          16559.7    36.71     
2403.6     5.87       2795       41         0          1.6        2771.9     0.92       31036.4    -471       -321       0          16557.89   34.72     
2403.8     5.75       2735       29         0          1.7        2947.51    0.92       30850.39   -471       -331       0          16555.79   34.38     
2404       6.06       2883       30         0          1.56       2693.67    0.91       30674.13   -471       -380       0          16553.94   32.03     
2404.2     6.33       3013       38         0          1.44       2491.57    0.9        30321.74   -471       -380       0          16552.04   32.58     
2404.4     6.27       2986       34         0          1.38       2387.54    0.89       30152.75   -471       -380       0          16550.17   35.28     
2404.6     5.87       2792       40         0          1.41       2448.96    0.9        30398.42   -471       -403       0          16548.33   37.41     
2404.8     5.95       2834       14         0          1.34       2315.73    0.93       31272.04   -471       -380       0          16546.48   38.43     
2405       5.79       2757       30         0          1.44       2496.61    0.92       30946.58   -471       -380       0          16544.63   39.94     
2405.2     5.87       2794       524        0          1.38       2391.59    0.92       31115.99   -471       -380       0          16542.73   42.64     
2405.4     6.4        3044       2042       0          1.45       2510.69    0.92       31164.74   -471       -380       0          16540.87   40.98     
2405.6     6.64       3162       1906       0          1.43       2470.11    0.91       30574.5    -471       -380       0          16538.96   38.56     
2405.8     6.5        3095       51         0          1.52       2630.37    0.9        30367.8    -471       -380       0          16536.96   38.98     
2406       6.02       2865       58         0          1.47       2537.47    0.92       30877.11   -471       -380       0          16535.16   39.81     
2406.2     6.16       2931       44         0          1.55       2686.38    0.93       31294.93   -471       -413       0          16533.25   35.58     
2406.4     6.25       2975       46         0          1.51       2617.01    0.92       31156.59   -471       -380       0          16531.4    35.5      
2406.6     6.23       2967       36         0          1.49       2575.56    0.94       31548.83   -471       -375       0          16529.55   36.37     
2406.8     6.84       3257       40         0          1.53       2642.81    0.92       31066.07   -471       -407       0          16527.7    36.06     
2407       6.39       3040       36         0          1.42       2464.12    0.92       30896.74   -471       -380       0          16525.84   37.47     
2407.2     7.14       3397       46         0          1.42       2453.9     0.93       31491.88   -471       -380       0          16523.94   35.53     
2407.4     6.72       3201       36         0          1.5        2587.88    0.92       30918      -471       -380       0          16522.04   37.3      
2407.6     6.43       3059       52         0          1.46       2522.03    0.93       31507.74   -471       -380       0          16520.18   38.95     
2407.8     6.53       3108       37         0          1.51       2605.59    0.93       31289.99   -471       -375       0          16518.33   32.91     
2408       7.13       3394       32         0          1.37       2377.17    0.93       31429.35   -471       -380       0          16516.38   37.78     
