~Version
 VERS              .         2.0                           : CWLS LOG ASCII STANDARD - VERSION 2.0
 WRAP              .         NO                            : ONE LINE PER DEPTH STEP
 DLM               .         SPACE                         : DELIMITING CHARACTER(SPACE TAB OR COMMA)
~Well Information
#_______________________________________________________________________________
#
#PARAMETER_NAME    .UNIT     VALUE                         : DESCRIPTION
#_______________________________________________________________________________
STRT               .M        2658.8                        : First reference value
STOP               .M        2768.199891                   : Last reference value
STEP               .M        0.1999998                     : Step increment
NULL               .         -9999                         : Missing value
COMP               .                                       : Company
WELL               .         616                           : Well name
FLD                .                                       : Field
LOC                .                                       : Location
CNTY               .                                       : County
STAT               .                                       : State
CTRY               .                                       : Country
SRVC               .                                       : Service Company
DATE               .                                       : Date
API                .                                       : API number
PROJECT_UPGRADE_TIME .         2021-03-18T21_24_50           : 
group              .         Good                          : 
~Parameter Information Block
#_______________________________________________________________________________
#
#PARAMETER_NAME    .UNIT     VALUE                         : DESCRIPTION
#_______________________________________________________________________________
SET                .         D7017_D_2                     : 
NPR                .         155                           : Номер прибора
OTHER              .         Kedr.exe версия 2.1.2.32      : 
OTHER_10           .         TM.GRD = 0.00404*TM$.UE + 0.07: 
OTHER_11           .         MN.ATM = (6.33279e-006*TM.GRD + 0.02401)*(MN$.UE + 2.72*TM.GRD + -2018): 
OTHER_12           .         GK.MKR/H = GK$.UE / 43.5489 + 0: 
OTHER_13           .         RES.SM = 0.00476*CRES.UE - 1.51709: 
OTHER_14           .         PL.GSM3 = 0 + 0 * (PL.UE / 1) +  0 * (PL.UE / 1)^2: 
OTHER_15           .         Постоянная времени ГГП = 6 сек: 
OTHER_16           .         Постоянная времени ГК = 6 сек : 
OTHER_2            .         KedrData.dll версия 3.2.2.14  : 
OTHER_3            .         LasInf.dll версия 3.2.0.13    : 
OTHER_4            .         Драйвер версия 1.2.0.5        : 
OTHER_5            .         Прибор_ КСА-M1                : 
OTHER_6            .         Номер прибора_ 155+р204       : 
OTHER_7            .         Режим_ КСА-М1 + ГГП + Резистивиметр: 
OTHER_8            .         Форма_ 223\2                  : 
OTHER_9            .         Тарировки_                    : 
PR                 .         КСА-Т7 М1                     : Тип прибора
PROJECT_UPGRADE_TIME .         2021-03-18T21_24_50           : 
PRTY               .         ПП-223_2                      : Номер партии
SRV                .         ЦКРС                          : Заказчик
SRVC               .         Лузин  А.Б.                   : Начальник партии
TLFamily_DEPT      .         Measured Depth                : 
TLFamily_GK        .         Gamma Ray                     : 
TLFamily_LM        .         Casing Collar locator         : 
TLFamily_MN        .                                       : 
TLFamily_SPID      .         Spontaneous Potential         : 
TLFamily_TM        .         Temperature                   : 
group              .         second                        : 
~Curve Information
#_______________________________________________________________________________
#
#LOGNAME           .UNIT     LOG_ID                        : DESCRIPTION
#_______________________________________________________________________________
DEPT               .M                                      : Depth curve 
GK                 .мкР/час                                : Гамма каротаж, мкр/час 
LM                 .е.ацп                                  : Локация муфт 
MN                 .атм                                    : Манометрия, атм 
SPID               .м/ч                                    : Скорость записи,м/час 
TM                 .град.С                                 : Термометрия,град.С 
~Ascii
# ...
2730.799928 7.35       143.001    250.2      -260       46.09     
2730.999928 7.2        149.003    250.22     -260       46.09     
2731.199928 7.18       160.997    250.23     -260.01    46.07     
2731.399927 7.17       147.99     250.22     -299.99    46.06     
2731.599927 7.06       106.001    250.24     -260       46.05     
2731.799927 7.35       110.003    250.26     -260       46.04     
2731.999927 7.74       121.001    250.26     -260.01    46.04     
2732.199927 7.65       125.001    250.29     -300       46.04     
2732.399926 7.73       130.002    250.29     -299.99    46.05     
2732.599926 8.47       139.078    250.32     -260       46.07     
2732.799926 8.12       451.919    250.33     -260       46.07     
2732.999926 7.32       126.006    250.34     -260       46.09     
2733.199926 7.32       148.99     250.35     -260.015   46.1      
2733.399925 7.57       110.024    250.37     -320       46.12     
2733.599925 8.02       208.169    250.38     -319.968   46.14     
2733.799925 8.37       885.81     250.4      -192.017   46.16     
2733.999925 8.29       127        250.41     -260.015   46.18     
2734.199925 7.94       127.032    250.43     -319.985   46.2      
2734.399924 7.85       253.969    250.45     -260       46.22     
2734.599924 7.86       129.009    250.45     -260       46.24     
2734.799924 7.76       164.997    250.46     -260.004   46.24     
2734.999924 7.31       152.122    250.49     -275.996   46.24     
2735.199924 6.79       640.268    250.49     -260       46.25     
2735.399923 6.93       5713.759   250.49     -260       46.25     
2735.599923 7.53       748.837    250.51     -260       46.31     
2735.799923 7.57       98.005     250.53     -260.015   46.38     
2735.999923 7.11       116.998    250.57     -320       46.43     
2736.199923 6.99       110        250.57     -320       46.49     
2736.399922 7.26       110.005    250.58     -319.985   46.55     
2736.599922 7.52       128.999    250.6      -260       46.58     
2736.799922 7.61       124.001    250.6      -259.993   46.56     
2736.999922 8.03       129.005    250.62     -233.007   46.6      
2737.199922 8.91       150.986    250.65     -260       46.69     
2737.399921 8.52       96         250.65     -260       46.77     
2737.599921 7.71       95.007     250.69     -260       46.81     
2737.799921 7.46       124.002    250.69     -260       46.86     
2737.999921 7.84       129.995    250.7      -260       46.89     
2738.199921 8.48       110.015    250.72     -260       46.95     
2738.39992 9.69       169.99     250.75     -260       47.03     
2738.59992 11.44      131.999    250.75     -260       47.12     
2738.79992 11.55      128.998    250.79     -260       47.16     
2738.99992 11.38      121.997    250.8      -260       47.31     
2739.19992 12.36      111.999    250.81     -260       47.37     
2739.399919 12.89      110.006    250.85     -259.982   47.45     
2739.599919 13.77      135.006    250.83     -190.018   47.55     
2739.799919 15.01      157.991    250.86     -260       47.61     
2739.999919 15.17      124.004    250.87     -260       47.63     
2740.199919 14.65      140.003    250.91     -260       47.69     
2740.399918 14.69      150.991    250.91     -260       47.78     
2740.599918 14.76      116.007    250.92     -260       47.84     
2740.799918 13.93      142.004    250.92     -260       47.86     
2740.999918 12.89      158.996    250.93     -260       47.88     
2741.199918 11.79      143.988    250.95     -259.994   47.97     
2741.399917 10.59      96.006     250.96     -237.006   47.97     
2741.599917 9.91       120.001    251        -260       48.03     
2741.799917 10.6       125.01     250.99     -260       48.11     
2741.999917 11.51      165.998    251.02     -260       48.22     
2742.199917 11.66      157.988    251.05     -260       48.29     
2742.399916 10.31      109.009    251.04     -260       48.36     
2742.599916 10.08      146.001    251.07     -260       48.38     
2742.799916 10.26      149.994    251.1      -260       48.45     
2742.999916 10.26      124.998    251.12     -260       48.62     
2743.199916 10.31      118.995    251.06     -260       48.67     
2743.399915 9.96       100.006    251.13     -260       48.72     
2743.599915 9.57       124.013    251.15     -260       48.75     
2743.799915 10.13      176.998    251.18     -260       48.89     
2743.999915 9.92       167.983    251.19     -260       48.93     
2744.199915 9.99       99.014     251.19     -260       49.01     
2744.399914 10.37      155.004    251.23     -260       49.02     
2744.599914 10.06      170.982    251.23     -260.015   49.13     
2744.799914 10.11      99.009     251.26     -319.985   49.33     
2744.999914 9.88       136.002    251.28     -259.982   49.39     
2745.199914 9.63       143.995    251.31     -190.018   49.51     
2745.399913 9.46       124        251.3      -260       49.55     
2745.599913 9.48       123.012    251.32     -260.005   49.65     
2745.799913 9.78       169.009    251.34     -280.01    49.73     
2745.999913 9.57       202.981    251.36     -319.985   49.82     
2746.199913 9.36       128.171    251.39     -260       49.95     
2746.399912 9.74       810.556    251.42     -260       50.02     
2746.599912 11.22      7014.325   251.4      -260       50.19     
2746.799912 11.88      334.962    251.45     -260       50.27     
2746.999912 11.4       182.999    251.47     -260       50.42     
2747.199912 11.08      179.002    251.47     -260       50.58     
2747.399911 10.93      187.997    251.5      -260       50.6      
2747.599911 10.77      176.99     251.53     -260       50.65     
2747.799911 10.34      137.025    251.55     -260.015   50.84     
2747.999911 10.13      234.986    251.57     -319.985   50.9      
2748.199911 10.19      181.004    251.6      -260       51.08     
2748.39991 10.1       194.999    251.6      -259.982   51.23     
2748.59991 10.43      191.996    251.64     -190.028   51.34     
2748.79991 10.64      177.998    251.66     -300       51.44     
2748.99991 11.06      171.991    251.66     -299.99    51.46     
2749.19991 11         138.021    251.72     -260       51.7      
2749.399909 10.92      220.985    251.76     -260       51.91     
2749.599909 11.44      160.002    251.78     -260       52.02     
2749.799909 11.8       166.002    251.79     -260       52.2      
2749.999909 11.78      175.001    251.81     -260       52.29     
2750.199909 10.9       178.993    251.82     -260       52.45     
2750.399908 10.26      152.011    251.86     -260       52.53     
2750.599908 10.75      194.996    251.87     -260       52.63     
2750.799908 11.01      179.007    251.9      -260       52.71     
2750.999908 10.59      206.005    251.94     -260.005   52.88     
2751.199908 9.67       225.995    251.96     -280.01    52.96     
2751.399907 9.76       204.995    251.98     -319.985   53.14     
2751.599907 10.15      186.994    252.03     -259.982   53.2      
2751.799907 9.99       162.01     252.04     -190.012   53.52     
2751.999907 10.32      201.998    252.09     -236.006   53.64     
2752.199907 10.78      194.992    252.13     -260       53.83     
2752.399906 10.33      164.006    252.16     -260.015   53.93     
2752.599906 10.05      189.009    252.18     -319.985   54.18     
2752.799906 9.84       225.005    252.24     -260       54.31     
2752.999906 10.07      242.999    252.28     -260       54.56     
2753.199906 9.91       238.99     252.29     -260       54.72     
2753.399905 9.73       198.998    252.35     -259.982   54.87     
2753.599905 10.43      191.012    252.37     -190.018   55.04     
2753.799905 10.51      238.986    252.4      -260       55.17     
2753.999905 10.53      182.019    252.44     -260       55.28     
2754.199905 10.07      257.996    252.46     -260       55.41     
2754.399904 9.5        240.991    252.51     -260.015   55.52     
2754.599904 9.17       205.002    252.58     -319.985   55.74     
