~Version
 VERS              .         2.0                           : CWLS LOG ASCII STANDARD - VERSION 2.0
 WRAP              .         NO                            : ONE LINE PER DEPTH STEP
 DLM               .         SPACE                         : DELIMITING CHARACTER(SPACE TAB OR COMMA)
~Well Information
#_______________________________________________________________________________
#
#PARAMETER_NAME    .UNIT     VALUE                         : DESCRIPTION
#_______________________________________________________________________________
STRT               .M        0.2                           : First reference value
STOP               .M        2774.2                        : Last reference value
STEP               .M        0.2                           : Step increment
NULL               .         -9999                         : Missing value
COMP               .                                       : Company
WELL               .         616                           : Well name
FLD                .                                       : Field
LOC                .                                       : Location
CNTY               .                                       : County
STAT               .                                       : State
CTRY               .                                       : Country
SRVC               .                                       : Service Company
DATE               .                                       : Date
API                .                                       : API number
PROJECT_UPGRADE_TIME .         2021-03-18T21_24_50           : 
group              .         Good                          : 
~Parameter Information Block
#_______________________________________________________________________________
#
#PARAMETER_NAME    .UNIT     VALUE                         : DESCRIPTION
#_______________________________________________________________________________
SET                .         D1799_D_2                     : 
NPR                .                                       : 
OTHER              .         Программное обеспечение станции MONITOR-386EX 25/12/99 15_08_10   BGF V52 22/08/01 16_56_30   3.1_SNGF___BGF_N_092049: 
OTHER_10           .         Тарировки_                    : 
OTHER_11           .         TM.GRD = 0.00403*TM$.UE + -1.07: 
OTHER_12           .         MN.ATM = (9.34907e-006*TM.GRD + 0.02171)*(MN$.UE + -7.93*TM.GRD + -1787): 
OTHER_13           .         GK.MKR/H = LM. / 42.4676      : 
OTHER_14           .         GK.FLT = 0.1*GK.MKR/H[-1] + (1-0.1)*GK.MKR/H[0]: 
OTHER_2            .         Kedr.exe версия 3.4.2.51      : 
OTHER_3            .         KedrData.dll версия 3.4.2.24  : 
OTHER_4            .         Драйвер версия 2.1.1.3        : 
OTHER_5            .         Мнемоники версия 3.3 S        : 
OTHER_6            .         Прибор_ КСА-Т4                : 
OTHER_7            .         Номер прибора_ 03             : 
OTHER_8            .         Режим_ КСА-Т4                 : 
OTHER_9            .         Форма_ КВА.                   : 
PR                 .                                       : 
PROJECT_UPGRADE_TIME .         2021-03-18T21_24_49           : 
PRTY               .         ПП-603-1                      : N партии
SRV                .                                       : 
SRVC               .         Карпов                        : Начальник партии
TLFamily_DEPT      .         Measured Depth                : 
TLFamily_LM        .         Casing Collar locator         : 
TLFamily_MN        .                                       : 
TLFamily_TM        .         Temperature                   : 
group              .         second                        : 
~Curve Information
#_______________________________________________________________________________
#
#LOGNAME           .UNIT     LOG_ID                        : DESCRIPTION
#_______________________________________________________________________________
DEPT               .M                                      : Depth curve 
LM                 .е.ацп                                  : Локатор муфт,е.ацп 
MN                 .атм                                    : Манометрия, атм 
TM                 .град.C                                 : Термограмма по стволу скважины,град.C 
~Ascii
# ...
2730.2     150.201    250.353    45.166    
2730.4     1139.904   250.356    45.168    
2730.6     666.908    250.395    45.175    
2730.8     213.026    250.423    45.167    
2731       341.969    250.434    45.167    
2731.2     192.002    250.427    45.161    
2731.4     201.997    250.48     45.151    
2731.6     187.994    250.495    45.137    
2731.8     160.001    250.519    45.12     
2732       165.011    250.538    45.106    
2732.2     220.987    250.58     45.09     
2732.4     156.998    250.562    45.074    
2732.6     149.015    250.607    45.061    
2732.8     222.99     250.62     45.053    
2733       173.998    250.652    45.023    
2733.2     165.011    250.661    44.993    
2733.4     217.989    250.703    44.966    
2733.6     165.03     250.726    44.947    
2733.8     312.984    250.727    44.933    
2734       234.997    250.749    44.928    
2734.2     221.989    250.761    44.924    
2734.4     169.999    250.827    44.92     
2734.6     165.997    250.816    44.922    
2734.8     153.001    250.838    44.924    
2735       156.602    250.86     44.92     
2735.2     3109.453   250.871    44.917    
2735.4     5332.202   250.905    44.92     
2735.6     1416.795   250.927    44.916    
2735.8     408.965    250.95     44.912    
2736       236.987    250.898    44.908    
2736.2     173.003    250.972    44.908    
2736.4     187.025    251.016    44.908    
2736.6     311.989    251.016    44.908    
2736.8     259.982    251.074    44.904    
2737       171.026    251.06     44.906    
2737.2     298.992    251.081    44.919    
2737.4     258.99     251.101    44.951    
2737.6     210.994    251.121    44.976    
2737.8     180.001    251.141    45.005    
2738       183.994    251.168    45.038    
2738.2     153.988    251.179    45.086    
2738.4     94.006     251.217    45.164    
2738.6     122.008    251.212    45.24     
2738.8     163.005    251.23     45.313    
2739       185.985    251.233    45.373    
2739.2     110.997    251.256    45.444    
2739.4     96.011     251.259    45.554    
2739.6     147.995    251.284    45.678    
2739.8     123.014    251.307    45.767    
2740       190.007    251.323    45.858    
2740.2     225        251.334    45.964    
2740.4     223.988    251.354    46.065    
2740.6     163.994    251.349    46.138    
2740.8     136        251.348    46.202    
2741       133.994    251.384    46.27     
2741.2     105.996    251.397    46.35     
2741.4     86.008     251.434    46.44     
2741.6     123.998    251.432    46.532    
2741.8     113.997    251.449    46.613    
2742       97.003     251.515    46.695    
2742.2     110        251.464    46.774    
2742.4     108.995    251.499    46.844    
2742.6     84.01      251.496    46.907    
2742.8     132        251.515    46.947    
2743       131.994    251.549    46.988    
2743.2     101.995    251.567    47.04     
2743.4     77.003     251.551    47.105    
2743.6     93.003     251.588    47.167    
2743.8     105.997    251.607    47.213    
2744       89.007     251.64     47.273    
2744.2     121.015    251.644    47.322    
2744.4     194.995    251.641    47.371    
2744.6     169.991    251.659    47.42     
2744.8     128.023    251.677    47.478    
2745       240.987    251.696    47.519    
2745.2     177.992    251.715    47.576    
2745.4     136.989    251.755    47.629    
2745.6     81.002     251.773    47.69     
2745.8     93.004     251.769    47.753    
2746       113.998    251.786    47.808    
2746.2     102.361    251.804    47.882    
2746.4     1867.467   251.823    47.953    
2746.6     4148.395   251.836    48.043    
2746.8     1191.804   251.852    48.128    
2747       231.981    251.867    48.232    
2747.2     137.991    251.89     48.33     
2747.4     94.995     251.897    48.433    
2747.6     69         251.9      48.534    
2747.8     67.998     251.905    48.634    
2748       59.007     251.941    48.749    
2748.2     92.995     251.935    48.853    
2748.4     68.006     251.974    48.937    
2748.6     95.001     251.99     49.005    
2748.8     101.997    251.989    49.112    
2749       89         252        49.214    
2749.2     86.994     252.007    49.386    
2749.4     56.998     252.022    49.512    
2749.6     48.002     252.059    49.603    
2749.8     56.001     252.069    49.724    
2750       60.999     252.071    49.83     
2750.2     57         252.093    49.933    
2750.4     55.003     252.094    50.059    
2750.6     70.999     252.115    50.192    
2750.8     65.999     252.117    50.329    
2751       61         252.131    50.51     
2751.2     59.999     252.152    50.656    
2751.4     53.001     252.152    50.797    
2751.6     58.002     252.165    50.945    
2751.8     66.996     252.185    51.07     
2752       49.006     252.189    51.229    
2752.2     75.996     252.222    51.382    
2752.4     57.001     252.211    51.53     
2752.6     60.004     252.221    51.702    
2752.8     78.997     252.237    51.892    
2753       62.001     252.245    52.074    
2753.2     67.999     252.252    52.219    
2753.4     61         252.264    52.377    
2753.6     60.001     252.286    52.524    
2753.8     64         252.305    52.701    
2754       65.003     252.302    52.829    
2754.2     77.999     252.308    53.007    
2754.4     72.999     252.316    53.2      
2754.6     66.997     252.332    53.391    
2754.8     53.001     252.333    53.597    
2755       57.004     252.365    53.785    
2755.2     77         252.351    53.966    
2755.4     75.018     252.378    54.193    
2755.6     161.003    252.365    54.433    
2755.8     175.984    252.39     54.659    
2756       98.995     252.378    54.891    
2756.2     74.996     252.392    55.116    
2756.4     55.014     252.393    55.32     
2756.6     120.996    252.42     55.52     
2756.8     102.001    252.423    55.709    
2757       108.998    252.436    55.919    
2757.2     97         252.433    56.107    
2757.4     95.549     252.469    56.309    
2757.6     2766.757   252.453    56.525    
2757.8     6449.014   252.447    56.744    
2758       1651.729   252.474    56.934    
2758.2     332.958    252.482    57.189    
2758.4     129.998    252.51     57.36     
2758.6     120.996    252.503    57.552    
2758.8     101.996    252.518    57.768    
2759       83         252.531    58.04     
2759.2     85.001     252.541    58.248    
2759.4     89         252.546    58.465    
2759.6     89.999     252.529    58.689    
2759.8     82.997     252.543    58.926    
2760       68         252.559    59.126    
2760.2     68.004     252.576    59.324    
2760.4     85.998     252.597    59.508    
2760.6     76.005     252.597    59.669    
2760.8     102        252.615    59.809    
2761       100.005    252.623    59.936    
2761.2     124.994    252.635    60.079    
2761.4     94.998     252.671    60.213    
2761.6     87         252.676    60.351    
2761.8     87.001     252.695    60.488    
2762       90.003     252.709    60.62     
2762.2     103        252.726    60.725    
2762.4     103        252.744    60.809    
2762.6     103.005    252.768    60.93     
2762.8     126.003    252.768    61.054    
2763       138.998    252.791    61.152    
2763.2     130.997    252.824    61.234    
2763.4     118.002    252.841    61.293    
2763.6     127.002    252.867    61.39     
2763.8     136.004    252.873    61.488    
2764       157        252.913    61.554    
2764.2     154.999    252.921    61.637    
2764.4     151.995    252.946    61.705    
2764.6     130        252.968    61.782    
2764.8     131.998    252.981    61.85     
2765       123        253.021    61.917    
2765.2     124.005    253.025    61.978    
2765.4     147.014    253.072    62.076    
2765.6     212.995    253.079    62.149    
2765.8     190        253.093    62.181    
2766       190.997    253.134    62.216    
2766.2     177.002    253.159    62.268    
2766.4     185.999    253.173    62.306    
