~Version
 VERS              .         2.0                           : CWLS LOG ASCII STANDARD - VERSION 2.0
 WRAP              .         NO                            : ONE LINE PER DEPTH STEP
 DLM               .         SPACE                         : DELIMITING CHARACTER(SPACE TAB OR COMMA)
~Well Information
#_______________________________________________________________________________
#
#PARAMETER_NAME    .UNIT     VALUE                         : DESCRIPTION
#_______________________________________________________________________________
STRT               .M        827.6                         : First reference value
STOP               .M        1707.2                        : Last reference value
STEP               .M        0.2                           : Step increment
NULL               .         -9999                         : Missing value
COMP               .                                       : Company
WELL               .         616                           : Well name
FLD                .                                       : Field
LOC                .                                       : Location
CNTY               .                                       : County
STAT               .                                       : State
CTRY               .                                       : Country
SRVC               .                                       : Service Company
DATE               .                                       : Date
API                .                                       : API number
PROJECT_UPGRADE_TIME .         2021-03-18T21_24_50           : 
group              .         Good                          : 
~Parameter Information Block
#_______________________________________________________________________________
#
#PARAMETER_NAME    .UNIT     VALUE                         : DESCRIPTION
#_______________________________________________________________________________
SET                .         616_8                         : 
CONF               .         00                            : 
END                .         0                             : 
ERR                .         0                             : 
GS00               .M        1705.33                       : 
GS01               .M        0825.11                       : 
MM00               .M        0210.00                       : 
NOKG               .         0                             : 
NPR                .         980615                        : 
PART               .         Бутенко                       : 
PROJECT_UPGRADE_TIME .         2021-03-18T21_24_49           : 
PRZK               .         Шакиров                       : 
TLFamily_AZIMUTH   .         True Dip Azimuth              : 
TLFamily_DEPTH     .         Measured Depth                : 
TLFamily_METKA     .                                       : 
TLFamily_ROLL      .                                       : 
TLFamily_SPEED     .         Spontaneous Potential         : 
TLFamily_ZENIT     .                                       : 
VPRG               .         310                           : 
WAY                .         UP                            : 
group              .         prim                          : 
~Curve Information
#_______________________________________________________________________________
#
#LOGNAME           .UNIT     LOG_ID                        : DESCRIPTION
#_______________________________________________________________________________
DEPTH              .M                                      :  
AZIMUTH            .DEG                                    :  
METKA              .                                       :  
ROLL               .DEG                                    :  
SPEED              .M/H                                    :  
ZENIT              .DEG                                    :  
~Ascii
# ...
1169.2     256.4      0          155.28     648        32.71     
1169.4     256.08     0          154.8      648        32.63     
1169.6     254.92     0          154.73     648        32.41     
1169.8     257.47     0          154.94     648        32.98     
1170       253.6      0          155.03     612        32.12     
1170.2     257.6      0          154.64     648        32.86     
1170.4     256.69     0          154.54     612        32.63     
1170.6     257.86     0          154.45     648        32.59     
1170.8     261.62     0          153.64     648        33.02     
1171       266.32     0          153.61     648        32.65     
1171.2     299.23     0          154.83     648        33.46     
1171.4     344.28     0          155.82     648        32.5      
1171.6     105.3      0          156.3      648        32.95     
1171.8     106.23     0          156        648        33.16     
1172       345.39     1          155.85     648        32.67     
1172.2     284.18     0          156.17     684        33.29     
1172.4     264.77     0          156.45     612        33.19     
1172.6     259.96     0          156.64     648        33.34     
1172.8     257.73     0          156.76     648        33.18     
1173       255.86     0          156.81     612        32.79     
1173.2     259.01     0          156.34     648        33.37     
1173.4     253.71     0          155.73     648        32.3      
1173.6     256.47     0          155.62     648        33.03     
1173.8     257.33     0          155.5      648        33.13     
1174       254.14     0          155.11     648        32.46     
1174.2     256.96     0          154.37     648        33.12     
1174.4     255.08     0          153.97     648        32.69     
1174.6     255.17     0          153.73     612        32.9      
1174.8     256.38     0          152.19     648        32.59     
1175       253.95     0          151.34     648        32.48     
1175.2     258.4      0          153.1      612        33.2      
1175.4     256.22     0          153.21     648        32.81     
1175.6     255.56     0          153.29     648        33.03     
1175.8     252.58     0          155.06     648        32.59     
1176       255.56     0          155.24     648        32.94     
1176.2     255.98     0          154.59     648        32.93     
1176.4     254.6      0          154.12     648        32.79     
1176.6     256.22     0          154.12     648        33.19     
1176.8     255.27     0          154.53     612        32.91     
1177       255.95     0          155.07     648        33.02     
1177.2     256.31     0          155.36     648        33.11     
1177.4     255.41     0          155.68     612        32.93     
1177.6     255.98     0          155.78     648        33.06     
1177.8     254.27     0          155.57     648        32.65     
1178       258.33     0          155        648        33.48     
1178.2     254.46     0          154.57     648        32.64     
1178.4     256.01     0          154.6      648        33.01     
1178.6     257.38     0          155.05     648        33.25     
1178.8     255.01     0          155.18     648        32.7      
1179       256.35     0          155.39     612        33.17     
1179.2     254.9      0          156.09     648        32.89     
1179.4     255.64     0          156.65     648        33        
1179.6     256.18     0          156.91     648        33.12     
1179.8     254.27     0          157.05     612        32.67     
1180       258.61     0          156.5      648        33.41     
1180.2     254.29     0          155.72     648        32.57     
1180.4     256.82     0          155.38     648        33.17     
1180.6     256.08     0          155.41     648        33.06     
1180.8     255.72     0          155.74     648        33        
1181       257.14     0          156.15     648        33.29     
1181.2     254.66     0          156.65     612        32.74     
1181.4     255.68     0          157.12     648        33.16     
1181.6     256.48     0          157.01     648        33.16     
1181.8     255.32     0          156.62     612        32.83     
1182       258.35     1          156.61     648        33.4      
1182.2     255.56     0          156.58     648        32.74     
1182.4     258.39     0          156.63     648        33.38     
1182.6     256.39     0          156.99     648        32.83     
1182.8     257.97     0          157.61     648        33.02     
1183       259.67     0          157.58     648        32.97     
1183.2     262.08     0          155.77     648        32.83     
1183.4     281.85     0          155.81     612        33.49     
1183.6     327.87     0          157.19     648        33.16     
1183.8     275.22     0          158.04     648        33.2      
1184       141.12     0          158.45     648        33.23     
1184.2     280.02     0          158.66     612        33.33     
1184.4     318.09     0          159.22     684        33.67     
1184.6     274.26     0          159.64     612        33.01     
1184.8     264.18     0          158.74     648        33.5      
1185       258.67     0          157.65     648        33.17     
1185.2     258.02     0          157.62     648        33.28     
1185.4     256.79     0          156.99     648        33.14     
1185.6     255.26     0          155.99     612        32.93     
1185.8     256.98     0          155.77     648        33.31     
1186       255.05     0          156        648        32.85     
1186.2     256.49     0          156.45     648        33.22     
1186.4     256.79     0          156.6      648        33.31     
1186.6     252.04     0          156.47     612        32.3      
1186.8     257.58     0          156.04     648        33.47     
1187       254.53     0          155.82     648        32.81     
1187.2     256.52     0          156.29     648        33.31     
1187.4     256.66     0          156.43     648        33.26     
1187.6     256.04     0          156.9      648        33.18     
1187.8     259.22     0          157.42     648        33.68     
1188       253.78     0          157.68     612        32.8      
1188.2     255.56     0          157.4      648        33.11     
1188.4     256.15     0          157        648        33.37     
1188.6     254.74     0          157.06     648        33.03     
1188.8     257.23     0          157.46     648        33.59     
1189       254.45     0          158.09     612        33.02     
1189.2     257.03     0          158.52     648        33.6      
1189.4     255.36     0          158.51     648        33.11     
1189.6     256.4      0          157.79     648        33.2      
1189.8     254.32     0          157.7      648        33.38     
1190       255.17     0          157.84     612        32.96     
1190.2     256.63     0          157.85     648        33.46     
1190.4     255.37     0          157.88     648        33.15     
1190.6     256.38     0          157.45     684        33.34     
1190.8     256.67     0          156.79     612        33.39     
1191       255.85     0          156.35     648        33.19     
1191.2     258.81     0          156.25     648        33.88     
1191.4     253.42     0          156.53     648        32.76     
1191.6     256.32     0          156.52     648        33.38     
1191.8     256.1      0          156.83     648        33.45     
1192       255.48     1          157.62     612        33.17     
1192.2     256.1      0          157.71     612        33.42     
1192.4     255.82     0          157.29     684        33.24     
1192.6     257.96     0          156.73     648        33.61     
1192.8     254.74     0          156.37     648        32.99     
1193       256.53     0          156.68     648        33.43     
1193.2     255.08     0          157.26     612        33.09     
1193.4     256.92     0          157.8      648        33.5      
