~Version
 VERS              .         2.0                           : CWLS LOG ASCII STANDARD - VERSION 2.0
 WRAP              .         NO                            : ONE LINE PER DEPTH STEP
 DLM               .         SPACE                         : DELIMITING CHARACTER(SPACE TAB OR COMMA)
~Well Information
#_______________________________________________________________________________
#
#PARAMETER_NAME    .UNIT     VALUE                         : DESCRIPTION
#_______________________________________________________________________________
STRT               .M        2648.8                        : First reference value
STOP               .M        2754.8                        : Last reference value
STEP               .M        0.2                           : Step increment
NULL               .         -9999                         : Missing value
COMP               .                                       : Company
WELL               .         616                           : Well name
FLD                .                                       : Field
LOC                .                                       : Location
CNTY               .                                       : County
STAT               .                                       : State
CTRY               .                                       : Country
SRVC               .                                       : Service Company
DATE               .                                       : Date
API                .                                       : API number
PROJECT_UPGRADE_TIME .         2021-03-18T21_24_50           : 
group              .         Good                          : 
~Parameter Information Block
#_______________________________________________________________________________
#
#PARAMETER_NAME    .UNIT     VALUE                         : DESCRIPTION
#_______________________________________________________________________________
SET                .         D7019_D                       : 
OTHER              .         Kedr.exe версия 2.1.2.32      : 
OTHER_10           .         TM.GRD = 0.00404*TM$.UE + 0.07: 
OTHER_11           .         MN.ATM = (6.33279e-006*TM.GRD + 0.02401)*(MN$.UE + 2.72*TM.GRD + -2018): 
OTHER_12           .         GK.MKR/H = GK$.UE / 43.5489 + 0: 
OTHER_13           .         RES.SM = 0.00476*CRES.UE - 1.51709: 
OTHER_14           .         PL.GSM3 = 0 + 0 * (PL.UE / 1) +  0 * (PL.UE / 1)^2: 
OTHER_15           .         Постоянная времени ГГП = 6 сек: 
OTHER_16           .         Постоянная времени ГК = 6 сек : 
OTHER_2            .         KedrData.dll версия 3.2.2.14  : 
OTHER_3            .         LasInf.dll версия 3.2.0.13    : 
OTHER_4            .         Драйвер версия 1.2.0.5        : 
OTHER_5            .         Прибор_ КСА-M1                : 
OTHER_6            .         Номер прибора_ 155+р204       : 
OTHER_7            .         Режим_ КСА-М1 + ГГП + Резистивиметр: 
OTHER_8            .         Форма_ 223\2                  : 
OTHER_9            .         Тарировки_                    : 
PROJECT_UPGRADE_TIME .         2021-03-18T21_24_50           : 
TLFamily_CRES      .                                       : 
TLFamily_DEPT      .         Measured Depth                : 
TLFamily_GK        .         Gamma Ray                     : 
TLFamily_GK$       .                                       : 
TLFamily_LM        .         Casing Collar locator         : 
TLFamily_METKA     .                                       : 
TLFamily_MN        .                                       : 
TLFamily_MN$       .                                       : 
TLFamily_PL        .                                       : 
TLFamily_PL_2      .                                       : 
TLFamily_RCOR      .                                       : 
TLFamily_RES       .         Mud Resistivity               : 
TLFamily_SPID      .         Spontaneous Potential         : 
TLFamily_STD       .                                       : 
TLFamily_TIME      .         Time                          : 
TLFamily_TM        .         Temperature                   : 
TLFamily_TM$       .         Temperature                   : 
TLFamily_VGD       .         Gas Volume                    : 
group              .         prim                          : 
~Curve Information
#_______________________________________________________________________________
#
#LOGNAME           .UNIT     LOG_ID                        : DESCRIPTION
#_______________________________________________________________________________
DEPT               .M                                      : 1 Глубина, м -    0.0 см 
CRES               .UE                                     : 9 Проводимость, усл.ед. -  222.0 см 
GK                 .MKR/H                                  : 16 Гамма-активность, мкр./ч -  106.0 см 
GK$                .UE                                     : 13 Гамма-активность, усл.ед. -  106.0 см 
LM                 .                                       : 11 Локатор муфт,  -   16.0 см 
METKA              .                                       : 3 Метки,  -    0.0 см 
MN                 .ATM                                    : 15 Давление, атм. -  160.0 см 
MN$                .UE                                     : 7 Давление, усл.ед. -  160.0 см 
PL                 .UE                                     : 10 Плотность, усл.ед. -  270.0 см 
PL_2               .GSM3                                   : 18 Плотность, г./см3 -  270.0 см 
RCOR               .CM/KM                                  : 5 Коррекция по ролику, см/км -    0.0 см 
RES                .SM                                     : 17 Проводимость,  -  222.0 см 
SPID               .M/H                                    : 2 Скорость, м/час -    0.0 см 
STD                .                                       : 12 Приток,  -  170.0 см 
TIME               .S                                      : 4 Время, сек -    0.0 см 
TM                 .GRD                                    : 14 Температура, °C -  180.0 см 
TM$                .UE                                     : 6 Температура, усл.ед. -  180.0 см 
VGD                .                                       : 8 Влагомер,  -  170.0 см 
~Ascii
# ...
2730.8     1273       13.23      612        76         0          251.342    12229      15         0          0          4.5424     580        9223       10804.37   47.161     11656      6660      
2731       1273       13.88      637        78         0          251.416    12232      14         0          0          4.5424     557        9236       10805.69   47.219     11671      6660      
2731.2     1275       14.28      625        70         0          251.451    12233      14         0          0          4.5519     510        9247       10807.02   47.264     11682      6659      
2731.4     1277       14.32      625        78         0          251.458    12233      14         0          0          4.5614     568        9257       10808.27   47.31      11693      6660      
2731.6     1278       14.15      588        79         0          251.491    12234      14         0          0          4.5662     538        9269       10809.63   47.366     11707      6660      
2731.8     1279       13.83      588        77         0          251.547    12236      15         0          0          4.571      522        9288       10810.92   47.428     11722      6661      
2732       1279       13.2       517        88         0          251.563    12236      15         0          0          4.571      580        9303       10812.23   47.551     11753      6657      
2732.2     1282       12.53      517        100        0          251.597    12237      15         0          0          4.5868     538        9320       10813.52   47.605     11766      6658      
2732.4     1285       11.91      481        106        0          251.625    12238      14         0          0          4.5995     524        9333       10814.87   47.65      11777      6656      
2732.6     1287       11.48      481        130        0          251.649    12239      15         0          0          4.6071     580        9346       10816.2    47.711     11792      6657      
2732.8     1288       11.18      470        145        0          251.661    12239      15         0          0          4.6146     557        9360       10817.45   47.765     11806      6657      
2733       1289       10.99      470        128        0          251.692    12240      14         0          0          4.6185     580        9371       10818.75   47.795     11813      6658      
2733.2     1291       10.62      440        100        0          251.722    12241      15         0          0          4.6281     570        9384       10820.04   47.846     11826      6658      
2733.4     1293       10.37      440        117        0          251.728    12241      15         0          0          4.6376     568        9394       10821.35   47.892     11837      6657      
2733.6     1295       10.34      450        150        0          251.761    12242      15         0          0          4.6463     580        9405       10822.67   47.937     11848      6655      
2733.8     1297       10.34      450        155        0          251.793    12243      15         0          0          4.6566     557        9416       10823.93   48.005     11865      6656      
2734       1298       10.6       477        138        0          251.823    12244      14         0          0          4.659      510        9427       10825.25   48.063     11879      6657      
2734.2     1298       10.78      477        120        0          251.859    12245      14         0          0          4.6614     557        9439       10826.56   48.109     11891      6652      
2734.4     1300       10.46      441        105        0          251.865    12245      15         0          0          4.6709     580        9450       10827.83   48.192     11912      6654      
2734.6     1302       10.25      431        72         0          251.899    12246      15         0          0          4.6795     580        9460       10829.15   48.239     11923      6654      
2734.8     1303       9.97       421        82         0          251.929    12247      15         0          0          4.6852     522        9471       10830.46   48.311     11941      6654      
2735       1306       9.82       421        58         0          251.968    12248      14         0          0          4.6995     580        9479       10831.77   48.381     11958      6655      
2735.2     1308       9.88       433        76         0          251.989    12249      15         0          0          4.709      580        9492       10833.04   48.469     11980      6652      
2735.4     1309       9.86       422        72         0          252.013    12249      15         0          0          4.7117     580        9508       10834.36   48.538     11997      6653      
2735.6     1311       9.64       410        76         0          252.026    12249      15         0          0          4.7233     580        9523       10835.63   48.624     12018      6655      
2735.8     1312       9.46       396        87         0          252.061    12250      15         0          0          4.728      580        9538       10836.94   48.72      12042      6654      
2736       1313       9.28       396        62         0          252.084    12251      15         0          0          4.7344     580        9550       10838.26   48.806     12063      6653      
2736.2     1317       9.31       414        64         0          252.13     12252      15         0          0          4.7502     580        9566       10839.53   48.885     12083      6653      
2736.4     1317       9.41       414        84         0          252.167    12253      15         0          0          4.7518     580        9581       10840.84   48.962     12102      6654      
2736.6     1319       9.58       437        93         0          252.188    12253      15         0          0          4.7622     580        9597       10842.11   49.056     12125      6652      
2736.8     1321       9.8        437        5382       0          252.197    12253      15         0          0          4.7685     580        9614       10843.38   49.136     12145      6651      
2737       1324       9.74       413        3390       0          252.233    12254      14         0          0          4.7836     580        9628       10844.69   49.223     12167      6652      
2737.2     1326       9.61       413        859        0          252.268    12255      15         0          0          4.7953     560        9645       10845.99   49.37      12203      6651      
2737.4     1329       9.83       445        232        0          252.29     12256      15         0          0          4.8089     580        9662       10847.27   49.454     12224      6652      
2737.6     1330       10.02      445        126        0          252.337    12257      14         0          0          4.8153     533        9678       10848.53   49.53      12243      6652      
2737.8     1332       10.61      513        96         0          252.373    12258      15         0          0          4.8239     580        9696       10849.84   49.609     12262      6652      
2738       1333       11.18      513        84         0          252.384    12258      15         0          0          4.8272     580        9714       10851.17   49.693     12283      6653      
2738.2     1338       11.07      466        91         0          252.423    12259      15         0          0          4.8518     557        9732       10852.49   49.78      12304      6653      
2738.4     1340       10.89      466        90         0          252.442    12259      14         0          0          4.8613     510        9752       10853.81   49.893     12333      6650      
2738.6     1343       10.58      444        139        0          252.486    12260      15         0          0          4.8756     568        9771       10855.06   50.033     12367      6649      
2738.8     1344       10.39      444        144        0          252.522    12261      14         0          0          4.8804     580        9793       10856.32   50.186     12405      6648      
