~Version
 VERS              .         2.0                           : CWLS LOG ASCII STANDARD - VERSION 2.0
 WRAP              .         NO                            : ONE LINE PER DEPTH STEP
 DLM               .         SPACE                         : DELIMITING CHARACTER(SPACE TAB OR COMMA)
~Well Information
#_______________________________________________________________________________
#
#PARAMETER_NAME    .UNIT     VALUE                         : DESCRIPTION
#_______________________________________________________________________________
STRT               .M        209.2                         : First reference value
STOP               .M        612.6                         : Last reference value
STEP               .M        0.2                           : Step increment
NULL               .         -9999                         : Missing value
COMP               .                                       : Company
WELL               .         616                           : Well name
FLD                .                                       : Field
LOC                .                                       : Location
CNTY               .                                       : County
STAT               .                                       : State
CTRY               .                                       : Country
SRVC               .                                       : Service Company
DATE               .                                       : Date
API                .                                       : API number
PROJECT_UPGRADE_TIME .         2021-03-18T21_24_50           : 
group              .         Good                          : 
~Parameter Information Block
#_______________________________________________________________________________
#
#PARAMETER_NAME    .UNIT     VALUE                         : DESCRIPTION
#_______________________________________________________________________________
SET                .         616_3                         : 
CONF               .         00                            : 
END                .         0                             : 
ERR                .         0                             : 
GS00               .M        0610.64                       : 
GS01               .M        0206.79                       : 
MM00               .M        0060.00                       : 
NOKG               .         1                             : 
NPR                .         980119                        : 
PART               .         Палагутин                     : 
PROJECT_UPGRADE_TIME .         2021-03-18T21_24_49           : 
PRZK               .         Шакиров                       : 
TLFamily_AZIMUTH   .         True Dip Azimuth              : 
TLFamily_DEPTH     .         Measured Depth                : 
TLFamily_METKA     .                                       : 
TLFamily_ROLL      .                                       : 
TLFamily_SPEED     .         Spontaneous Potential         : 
TLFamily_ZENIT     .                                       : 
VPRG               .         310                           : 
WAY                .         UP                            : 
group              .         prim                          : 
~Curve Information
#_______________________________________________________________________________
#
#LOGNAME           .UNIT     LOG_ID                        : DESCRIPTION
#_______________________________________________________________________________
DEPTH              .M                                      :  
AZIMUTH            .DEG                                    :  
METKA              .                                       :  
ROLL               .DEG                                    :  
SPEED              .M/H                                    :  
ZENIT              .DEG                                    :  
~Ascii
# ...
526.4      261.45     0          153.15     684        25.58     
526.6      260.03     0          152.85     684        25.35     
526.8      261.8      0          154.23     648        25.89     
527        260.51     0          155.61     720        25.54     
527.2      260.06     0          156.32     684        25.43     
527.4      261.33     0          156.23     684        25.71     
527.6      260.54     0          156.75     684        25.48     
527.8      261.04     0          157.62     612        25.68     
528        261.64     0          158.88     684        25.75     
528.2      260.22     0          160.55     648        25.58     
528.4      261.49     0          161.16     648        25.9      
528.6      261.02     0          160.66     684        25.84     
528.8      260.92     0          160.79     684        25.86     
529        260.16     0          161.16     648        25.71     
529.2      261.22     0          161.36     612        25.97     
529.4      260.8      0          161.16     684        25.88     
529.6      259.91     0          160.6      684        25.75     
529.8      260.29     0          160.25     684        25.86     
530        259.89     0          159.98     612        25.74     
530.2      259.71     0          160.19     684        25.78     
530.4      260.38     0          160.75     648        25.94     
530.6      259.04     0          161.64     684        25.65     
530.8      259.9      0          162.24     684        25.82     
531        261.1      0          162.07     684        26.04     
531.2      257.73     0          161.73     576        25.36     
531.4      260.76     0          160.96     684        26.01     
531.6      260.39     0          160.52     684        25.85     
531.8      257.68     0          160.79     684        25.45     
532        261.59     0          161.47     720        26.18     
532.2      259.89     1          162.34     576        25.78     
532.4      260.48     0          162.94     684        25.62     
532.6      261.71     0          161.61     684        26.02     
532.8      260.6      0          159.98     684        25.76     
533        261.51     0          158.85     612        25.92     
533.2      260.95     0          158.3      684        25.89     
533.4      260.64     0          158.16     648        25.84     
533.6      261.48     0          158.23     684        26.04     
533.8      260.34     0          158.32     648        25.82     
534        260.38     0          158.24     684        25.84     
534.2      261.45     0          157.91     720        26.04     
534.4      261.08     0          157.84     612        25.97     
534.6      260.87     0          157.76     684        25.92     
534.8      261.98     0          157.5      684        26.1      
535        261.4      0          157.42     612        25.92     
535.2      261.7      0          157.38     684        25.91     
535.4      262.82     0          157.27     684        25.99     
535.6      265.48     0          157.55     648        26.21     
535.8      269.25     0          158.9      648        25.92     
536        287.22     0          159.99     684        25.96     
536.2      334.44     0          160.2      648        26.06     
536.4      188.27     0          160.1      684        25.74     
536.6      183.91     0          159.97     684        26.25     
536.8      340.88     0          159.53     648        26.09     
537        284.17     0          159.49     684        25.89     
537.2      269.63     0          159.47     684        26.21     
537.4      263.44     0          159.93     684        26.01     
537.6      260.96     0          160.49     684        25.79     
537.8      261.39     0          159.73     612        26.02     
538        259.76     0          159.23     684        25.68     
538.2      261.62     0          158.37     648        25.99     
538.4      260.9      0          157.16     684        25.81     
538.6      259.58     0          156.31     684        25.55     
538.8      261.67     0          155.33     684        26.13     
539        260.49     0          155.81     684        25.98     
539.2      259.35     0          155.98     684        25.74     
539.4      260.17     0          155.52     684        25.95     
539.6      259.76     0          155.6      684        25.73     
539.8      260.2      0          155.93     648        25.76     
540        261.05     0          156.66     648        25.91     
540.2      260.49     0          157.33     648        25.83     
540.4      260.38     0          157.46     684        25.83     
540.6      259.9      0          156.69     684        25.96     
540.8      260.2      0          156.43     684        26.04     
541        259.87     0          157.32     612        25.91     
541.2      259.87     0          158.18     648        25.91     
541.4      260.71     0          158.73     684        26.06     
541.6      259.42     0          159.1      684        25.79     
541.8      261.27     0          158.98     684        26.21     
542        260.64     1          158.79     648        26.04     
542.2      259.75     0          159.28     648        25.88     
542.4      261.17     0          160.26     684        26.18     
542.6      259.22     0          161.4      684        25.76     
542.8      259.51     0          162.32     684        25.85     
543        260.69     0          162.47     612        26.12     
543.2      258.83     0          162.44     684        25.73     
543.4      261.07     0          162.54     648        26.2      
543.6      259.72     0          163.06     684        26.02     
543.8      259.41     0          164.25     684        26        
544        259.97     0          165.67     684        26.11     
544.2      259.5      0          166.71     684        25.98     
544.4      260.35     0          166.87     684        26.15     
544.6      259.49     0          166.32     720        25.94     
544.8      260.98     0          165.7      648        26.31     
545        260.55     0          164.82     684        26.23     
545.2      260.9      0          163.97     684        26.33     
545.4      260.1      0          163.59     684        26.15     
545.6      260.77     0          163.53     720        26.31     
545.8      260.69     0          163.56     648        26.33     
546        260.69     0          163.56     612        26.33     
546.2      260.59     0          163.37     612        26.3      
546.4      259.51     0          162.64     612        26.05     
546.6      261        0          161.59     576        26.41     
546.8      259.6      0          161.07     576        26.11     
547        260.48     0          161.5      540        26.4      
547.2      259.33     0          163.07     612        26.05     
547.4      261.88     0          165.05     612        26.49     
547.6      261.55     0          166.64     576        26.33     
547.8      262.22     0          167.85     540        26.27     
548        264.22     0          168.17     576        26.33     
548.2      269.85     0          167.62     504        26.39     
548.4      289.93     0          167.14     504        26.56     
548.6      301.27     0          166.36     468        26.34     
548.8      226.52     0          164.92     504        26.52     
549        252.02     0          162.55     360        26.3      
549.2      294.82     2          161.72     252        26.49     
549.4      275.2      0          161.91     504        26.73     
549.6      265.33     0          162.56     504        26.46     
549.8      263.13     0          162.21     468        26.83     
550        260.3      0          160.75     468        26.6      
550.2      259.31     0          159.86     504        26.34     
550.4      259.9      0          158.49     504        26.28     
550.6      260.5      0          157.45     468        26.4      
