~Version
 VERS              .         2.0                           : CWLS LOG ASCII STANDARD - VERSION 2.0
 WRAP              .         NO                            : ONE LINE PER DEPTH STEP
 DLM               .         SPACE                         : DELIMITING CHARACTER(SPACE TAB OR COMMA)
~Well Information
#_______________________________________________________________________________
#
#PARAMETER_NAME    .UNIT     VALUE                         : DESCRIPTION
#_______________________________________________________________________________
STRT               .M        2667.8                        : First reference value
STOP               .M        2773.4                        : Last reference value
STEP               .M        0.1999997                     : Step increment
NULL               .         -9999                         : Missing value
COMP               .                                       : Company
WELL               .         616                           : Well name
FLD                .                                       : Field
LOC                .                                       : Location
CNTY               .                                       : County
STAT               .                                       : State
CTRY               .                                       : Country
SRVC               .                                       : Service Company
DATE               .                                       : Date
API                .                                       : API number
PROJECT_UPGRADE_TIME .         2021-03-18T21_24_50           : 
group              .         Good                          : 
~Parameter Information Block
#_______________________________________________________________________________
#
#PARAMETER_NAME    .UNIT     VALUE                         : DESCRIPTION
#_______________________________________________________________________________
SET                .         D0401_D                       : 
OTHER              .         Kedr.exe версия 2.1.2.32      : 
OTHER_10           .         TM.GRD = 0.00379*TM$.UE + 7.11: 
OTHER_11           .         MN.ATM = (8e-006*TM.GRD + 0.02)*(MN$.UE + -8*TM.GRD + -1800): 
OTHER_12           .         GK.MKR/H = GK$.UE / 57.17 + 0 : 
OTHER_2            .         KedrData.dll версия 3.2.2.14  : 
OTHER_3            .         LasInf.dll версия 3.2.0.13    : 
OTHER_4            .         Драйвер версия 1.2.0.4        : 
OTHER_5            .         Прибор_ АКП4_90               : 
OTHER_6            .         Номер прибора_ 56             : 
OTHER_7            .         Режим_ АКП4_90 - все каналы   : 
OTHER_8            .         Форма_ Г-1                    : 
OTHER_9            .         Тарировки_                    : 
PROJECT_UPGRADE_TIME .         2021-03-18T21_24_49           : 
TLFamily_DEPT      .         Measured Depth                : 
TLFamily_GK        .         Gamma Ray                     : 
TLFamily_GK$       .                                       : 
TLFamily_LM        .         Casing Collar locator         : 
TLFamily_METKA     .                                       : 
TLFamily_METKA_1   .                                       : 
TLFamily_MN        .                                       : 
TLFamily_MN$       .                                       : 
TLFamily_RCOR      .                                       : 
TLFamily_SPID      .         Spontaneous Potential         : 
TLFamily_TIME      .         Time                          : 
TLFamily_TM        .         Temperature                   : 
TLFamily_TM$       .         Temperature                   : 
group              .         second                        : 
~Curve Information
#_______________________________________________________________________________
#
#LOGNAME           .UNIT     LOG_ID                        : DESCRIPTION
#_______________________________________________________________________________
DEPT               .M                                      : 1 Глубина, м -    0.0 см 
GK                 .MKR/H                                  : 12 Гамма-активность, мкр./ч -   65.0 см 
GK$                .UE                                     : 9 Гамма-активность, усл.ед. -   65.0 см 
LM                 .                                       : 8 Локатор муфт,  -   30.0 см 
METKA              .                                       : 3 Метки,  -    0.0 см 
METKA_1            .                                       : 13 Маркеры - 65 см 
MN                 .ATM                                    : 11 Давление, атм. -  140.0 см 
MN$                .UE                                     : 7 Давление, усл.ед. -  140.0 см 
RCOR               .CM/KM                                  : 5 Коррекция по ролику, см/км -    0.0 см 
SPID               .M/H                                    : 2 Скорость, м/час -    0.0 см 
TIME               .S                                      : 4 Время, сек -    0.0 см 
TM                 .GRD                                    : 10 Температура, °C -  145.0 см 
TM$                .UE                                     : 6 Температура, усл.ед. -  145.0 см 
~Ascii
# ...
2701.4     8.28       476        430        0          0          262.014    15146      0          -260       6148.82    83.825     20241     
2701.6     8.33       468        469        0          0          262.069    15149      0          -260       6145.99    83.839     20245     
2701.8     8.31       482        422        0          0          262.069    15149      0          -260       6143.17    83.842     20246     
2702       8.19       471        374        1          0          262.11     15151      0          -260       6140.46    83.85      20248     
2702.2     8.3        450        423        0          0          262.12     15152      0          -300       6137.64    83.854     20249     
2702.4     8.71       496        449        0          0          262.15     15153      0          -260       6134.8     83.869     20253     
2702.6     8.69       509        419        0          0          262.17     15154      0          -260       6131.96    83.88      20256     
2702.8     8.6        482        432        0          0          262.177    15154      0          -260       6129.27    83.882     20256     
2703       8.58       507        484        0          0          262.211    15156      0          -260       6126.37    83.888     20258     
2703.2     8.38       493        438        0          0          262.21     15156      0          -260       6123.6     83.899     20261     
2703.4     8.4        470        387        0          0          262.251    15158      0          -260       6120.78    83.903     20262     
2703.6     8.28       491        429        0          0          262.285    15160      0          -280       6117.94    83.911     20264     
2703.8     7.95       456        411        0          0          262.285    15160      0          -233       6115.11    83.917     20266     
2704       7.88       480        427        0          0          262.333    15162      0          -260       6112.42    83.914     20265     
2704.2     7.25       487        423        0          0          262.333    15162      0          -260       6109.58    83.919     20266     
2704.4     6.27       400        330        0          0          262.363    15163      0          -260       6106.75    83.932     20270     
2704.6     5.86       331        479        0          0          262.38     15164      0          -260       6103.92    83.941     20272     
2704.8     5.88       338        384        0          0          262.393    15165      0          -260       6101.08    83.945     20273     
2705       5.69       351        406        0          0          262.447    15168      0          -260       6098.26    83.956     20276     
2705.2     5.53       313        398        0          0          262.413    15166      0          -260       6095.43    83.964     20278     
2705.4     5.71       318        998        1          0          262.488    15170      0          -260       6092.73    83.964     20278     
2705.6     5.86       327        346        0          0          262.474    15169      0          -260       6089.89    83.975     20281     
2705.8     5.99       339        411        0          0          262.501    15170      0          -260       6087.07    83.983     20283     
2706       6.06       340        392        0          0          262.535    15172      0          -260       6084.3     83.993     20286     
2706.2     6.11       351        479        0          0          262.534    15172      0          -260       6081.27    84.002     20288     
2706.4     5.9        367        418        0          0          262.596    15175      0          -260       6078.52    84.007     20289     
2706.6     5.44       356        432        0          0          262.588    15175      0          -260       6075.75    84.015     20292     
2706.8     5.25       300        449        0          0          262.588    15175      0          -260       6072.91    84.024     20294     
2707       5.52       311        497        0          0          262.656    15178      0          -260       6070.09    84.036     20297     
2707.2     5.59       320        418        0          0          262.635    15177      0          -260       6067.26    84.038     20297     
2707.4     5.56       326        492        0          0          262.676    15179      0          -260       6064.55    84.039     20298     
2707.6     5.46       313        1763       0          0          262.683    15179      0          -260       6061.7     84.051     20301     
2707.8     5.59       295        6682       0          0          262.717    15181      0          -260       6058.86    84.055     20302     
2708       5.9        316        518        0          0          262.764    15183      0          -260       6056.08    84.062     20304     
2708.2     6.06       337        509        0          0          262.757    15183      0          -260       6053.32    84.07      20306     
2708.4     5.81       361        1264       0          0          262.784    15184      0          -260       6050.5     84.081     20309     
2708.6     5.45       296        428        0          0          262.79     15185      0          -260       6047.65    84.085     20310     
2708.8     5.71       331        400        0          0          262.825    15186      0          -260       6044.83    84.092     20312     
2709       5.62       330        482        0          0          262.879    15189      0          -260       6042.01    84.092     20312     
2709.2     5.54       310        454        0          0          262.866    15188      0          -260       6039.17    84.098     20313     
2709.4     5.66       313        473        0          0          262.91     15191      0          -260       6036.47    84.108     20316     
2709.6     5.82       318        712        0          0          262.92     15191      0          -260       6033.64    84.119     20319     
2709.8     6.17       315        386        1          0          262.92     15191      0          -260       6030.8     84.123     20320     
2710       6.62       365        525        0          0          262.967    15193      0          -260       6027.14    84.13      20322     
2710.2     6.68       370        396        0          0          262.953    15193      0          -260       6024.37    84.138     20324     
2710.4     6.84       400        431        0          0          263.021    15196      0          -260       6021.55    84.146     20326     
2710.6     6.69       390        425        0          0          263        15195      0          -260       6018.72    84.149     20327     
2710.8     6.74       368        541        0          0          263.028    15196      0          -260       6015.95    84.154     20328     
2711       6.72       397        465        0          0          263.062    15198      0          -260       6013.18    84.161     20330     
2711.2     6.82       380        409        0          0          263.041    15197      0          -260       6010.35    84.168     20332     
2711.4     6.84       412        428        0          0          263.113    15201      0          -260       6007.53    84.171     20333     
2711.6     6.48       374        417        0          0          263.116    15201      0          -260       6004.68    84.176     20334     
2711.8     6.6        334        390        0          0          263.184    15204      0          -260       6001.99    84.187     20337     
2712       7.16       369        513        0          0          263.142    15202      0          -260       5999.17    84.191     20338     
2712.2     7.48       431        478        0          0          263.194    15204      0          -260       5996.32    84.195     20339     
2712.4     7.42       430        444        0          0          263.231    15206      0          -260       5993.63    84.206     20342     
