~Version
 VERS              .         2.0                           : CWLS LOG ASCII STANDARD - VERSION 2.0
 WRAP              .         NO                            : ONE LINE PER DEPTH STEP
 DLM               .         SPACE                         : DELIMITING CHARACTER(SPACE TAB OR COMMA)
~Well Information
#_______________________________________________________________________________
#
#PARAMETER_NAME    .UNIT     VALUE                         : DESCRIPTION
#_______________________________________________________________________________
STRT               .M        46                            : First reference value
STOP               .M        2756.6                        : Last reference value
STEP               .M        0.2                           : Step increment
NULL               .         -9999                         : Missing value
COMP               .                                       : Company
WELL               .         616                           : Well name
FLD                .                                       : Field
LOC                .                                       : Location
CNTY               .                                       : County
STAT               .                                       : State
CTRY               .                                       : Country
SRVC               .                                       : Service Company
DATE               .                                       : Date
API                .                                       : API number
PROJECT_UPGRADE_TIME .         2021-03-18T21_24_50           : 
group              .         Good                          : 
~Parameter Information Block
#_______________________________________________________________________________
#
#PARAMETER_NAME    .UNIT     VALUE                         : DESCRIPTION
#_______________________________________________________________________________
SET                .         D4390_D                       : 
OTHER              .         Запись производится в присутствии: 
OTHER_10           .         Максимальная температура      : 
OTHER_100          .         GK.FLT = 0.1*GR.UR/H[-1] + (1-0.1)*GR.UR/H[0]: 
OTHER_11           .         Тип промывочной жидкости      : 
OTHER_12           .         Сопротивление ПЖ (Ом*м) при 20°C: 
OTHER_13           .         Плотность ПЖ(г/см3)           : 
OTHER_14           .         Вязкость ПЖ(с)                : 
OTHER_15           .         Водоотдача ПЖ(см3/30мин)      : 
OTHER_16           .         Уровень ПЖ                    : 
OTHER_17           .         Нефть ПЖ (%)                  : 
OTHER_18           .         Барит ПЖ (%)                  : 
OTHER_19           .         Гематит ПЖ (%)                : 
OTHER_2            .         Заказчик ННСН  ЦДНГ-1         : 
OTHER_20           .         КМЦ ПЖ (%)                    : 
OTHER_21           .         Разгазирование ПЖ (да,нет)    : 
OTHER_22           .         Подъемник                     : 
OTHER_23           .         Лаборатория                   : 
OTHER_24           .         Тип кабеля                    : 
OTHER_25           .         Длина кабеля (м)              : 
OTHER_26           .         Цена последней метки          : 
OTHER_27           .         Цена контрольной метки        : 
OTHER_28           .         Диаметр долота (мм)           : 
OTHER_29           .         Глубина бурения (м)           : 
OTHER_3            .         Площадь                       : 
OTHER_30           .         Искусственный забой (м)       : 
OTHER_31           .         Диаметр колонны (мм)          : 
OTHER_32           .         Толщина колонны (мм)          : 
OTHER_33           .         Башмак колонны (м)            : 
OTHER_34           .         Диаметр НКТ (мм)              : 
OTHER_35           .         Толщина НКТ (мм)              : 
OTHER_36           .         Воронка НКТ (м)               : 
OTHER_37           .         Дата цементожа                : 
OTHER_38           .         Тип, количество(т) и плотность цемента: 
OTHER_39           .         Интервалы перфорации (м)      : 
OTHER_4            .         Категория                     : 
OTHER_40           .         Направление, диаметр (мм)     : 
OTHER_41           .         Направление, глубина (м)      : 
OTHER_42           .         Кондуктор, диаметр (мм)       : 
OTHER_43           .         Кондуктор, глубина (м)        : 
OTHER_44           .         Техническая колонна, диаметр (мм): 
OTHER_45           .         Техническая колонна, глубина (м): 
OTHER_46           .         Эксплуатационная колонна, диаметр (мм): 
OTHER_47           .         Эксплуатационная колонна, глубина (м): 
OTHER_48           .         Программа Кедр-02 версия 3.4  : 
OTHER_49           .         Операционная система Windows NT 5.1 build 2600 Service Pack 2: 
OTHER_5            .         Назначение исследований       : 
OTHER_50           .         Программное обеспечение станции MONITOR-386EX 25/12/99 15_08_10   BGF V54 20/09/05 15_32_17   3.3__BGF_9030071: 
OTHER_51           .         Kedr.exe версия 3.4.2.74      : 
OTHER_52           .         KedrData.dll версия 3.4.2.29  : 
OTHER_53           .         Мнемоники версия 3.18 S       : 
OTHER_54           .         Драйвер версия 2.1.1.4        : 
OTHER_55           .         LasInf.dll 4.3.0.35           : 
OTHER_56           .         Прибор_ КСА-Т4                : 
OTHER_57           .         Номер прибора_ 160            : 
OTHER_58           .         Режим_ КСА-Т4                 : 
OTHER_59           .         Форма_ С.А.Б.                 : 
OTHER_6            .         Альтитуда стола ротора        : 
OTHER_60           .         Тарировки_                    : 
OTHER_61           .         <_techsia_sc_> Дата тарировки температуры 25.05.2010: 
OTHER_62           .         Ручной ввод коэффициентов     : 
OTHER_63           .         TM.DEGC = 0.00402*RTM.E.ACP + -0.994: 
OTHER_64           .         <_techsia_sc_> Дата тарировки давления 25.05.2010: 
OTHER_65           .         Ручной ввод коэффициентов     : 
OTHER_66           .         MN.ATM = (2.27521e-006*TM.DEGC + 0.02078)*(RMN.E.ACP + 6.2*TM.DEGC + -1688): 
OTHER_67           .         <_techsia_sc_> Дата тарировки ГК 25.05.2010: 
OTHER_68           .         Ручной ввод коэффициентов     : 
OTHER_69           .         GR.UR/H = RGR.IMP/MIN / 45.5144: 
OTHER_7            .         Вид исследований 3  6         : 
OTHER_70           .         GK.FLT = 0.1*GR.UR/H[-1] + (1-0.1)*GR.UR/H[0]: 
OTHER_71           .         <_techsia_sc_> Дата тарировки температуры 25.05.2010: 
OTHER_72           .         Ручной ввод коэффициентов     : 
OTHER_73           .         TM.DEGC = 0.00402*RTM.E.ACP + -0.994: 
OTHER_74           .         <_techsia_sc_> Дата тарировки давления 25.05.2010: 
OTHER_75           .         Ручной ввод коэффициентов     : 
OTHER_76           .         MN.ATM = (2.27521e-006*TM.DEGC + 0.02078)*(RMN.E.ACP + 6.2*TM.DEGC + -1688): 
OTHER_77           .         <_techsia_sc_> Дата тарировки ГК 25.05.2010: 
OTHER_78           .         Ручной ввод коэффициентов     : 
OTHER_79           .         GR.UR/H = RGR.IMP/MIN / 45.5144: 
OTHER_8            .         Начало бурения интервала каротажа: 
OTHER_80           .         GK.FLT = 0.1*GR.UR/H[-1] + (1-0.1)*GR.UR/H[0]: 
OTHER_81           .         <_techsia_sc_> Дата тарировки температуры 25.05.2010: 
OTHER_82           .         Ручной ввод коэффициентов     : 
OTHER_83           .         TM.DEGC = 0.00402*RTM.E.ACP + -0.994: 
OTHER_84           .         <_techsia_sc_> Дата тарировки давления 25.05.2010: 
OTHER_85           .         Ручной ввод коэффициентов     : 
OTHER_86           .         MN.ATM = (2.27521e-006*TM.DEGC + 0.02078)*(RMN.E.ACP + 6.2*TM.DEGC + -1688): 
OTHER_87           .         <_techsia_sc_> Дата тарировки ГК 25.05.2010: 
OTHER_88           .         Ручной ввод коэффициентов     : 
OTHER_89           .         GR.UR/H = RGR.IMP/MIN / 45.5144: 
OTHER_9            .         Окончание бурения интервала каротажа: 
OTHER_90           .         GK.FLT = 0.1*GR.UR/H[-1] + (1-0.1)*GR.UR/H[0]: 
OTHER_91           .         <_techsia_sc_> Дата тарировки температуры 25.05.2010: 
OTHER_92           .         Ручной ввод коэффициентов     : 
OTHER_93           .         TM.DEGC = 0.00402*RTM.E.ACP + -0.994: 
OTHER_94           .         <_techsia_sc_> Дата тарировки давления 25.05.2010: 
OTHER_95           .         Ручной ввод коэффициентов     : 
OTHER_96           .         MN.ATM = (2.27521e-006*TM.DEGC + 0.02078)*(RMN.E.ACP + 6.2*TM.DEGC + -1688): 
OTHER_97           .         <_techsia_sc_> Дата тарировки ГК 25.05.2010: 
OTHER_98           .         Ручной ввод коэффициентов     : 
OTHER_99           .         GR.UR/H = RGR.IMP/MIN / 45.5144: 
PROJECT_UPGRADE_TIME .         2021-03-18T21_24_50           : 
TLFamily_CCLC      .                                       : 
TLFamily_DEPT      .         Measured Depth                : 
TLFamily_GK        .         Gamma Ray                     : 
TLFamily_GR        .         Gamma Ray                     : 
TLFamily_METKA     .                                       : 
TLFamily_MN        .                                       : 
TLFamily_RCOR      .                                       : 
TLFamily_RGR       .                                       : 
TLFamily_RMN       .                                       : 
TLFamily_RTEN      .                                       : 
TLFamily_RTM       .                                       : 
TLFamily_SPEE      .         Cable Speed                   : 
TLFamily_TIME      .         Time                          : 
TLFamily_TM        .         Temperature                   : 
group              .         prim                          : 
~Curve Information
#_______________________________________________________________________________
#
#LOGNAME           .UNIT     LOG_ID                        : DESCRIPTION
#_______________________________________________________________________________
DEPT               .M                                      : 1 Глубина, м -    0.0 см 
CCLC               .E.ACP                                  : 9 Локатор муфт,  -   20.0 см 
GK                 .FLT                                    : 14 Гамма-активность фильтрованная, мкр./ч -  110.0 см 
GR                 .UR/H                                   : 13 Гамма-активность, мкр./ч -  110.0 см 
METKA              .CU                                     : 3 Метки,  -    0.0 см 
MN                 .ATM                                    : 12 Давление, атм. -  160.0 см 
RCOR               .CM/KM                                  : 5 Коррекция по ролику, см/км -    0.0 см 
RGR                .IMP/MIN                                : 10 Гамма-активность, усл.ед. -  110.0 см 
RMN                .E.ACP                                  : 8 Давление, усл.ед. -  160.0 см 
RTEN               .T                                      : 6 Натяжение кабеля, т -    0.0 см 
RTM                .E.ACP                                  : 7 Температура, усл.ед. -  170.0 см 
SPEE               .M/H                                    : 2 Скорость, м/час -    0.0 см 
TIME               .S                                      : 4 Время, сек -    0.0 см 
TM                 .DEGC                                   : 11 Температура, °C -  170.0 см 
~Ascii
# ...
1127.6     1363       2.72       2.72       0          102.24     -661       124        6397       0.08       8042       1665       2367.43    31.337    
1127.8     1222       2.68       2.68       0          102.264    -661       122        6398       0.08       8044       1667       2367.84    31.343    
1128       1222       2.64       2.64       0          102.283    -661       120        6399       0.08       8045       1669       2368.27    31.347    
1128.2     1042       2.64       2.64       0          102.284    -661       120        6399       0.08       8046       1671       2368.7     31.352    
1128.4     1231       2.64       2.64       0          102.305    -661       120        6400       0.08       8047       1670       2369.13    31.355    
1128.6     1368       2.64       2.64       0          102.311    -661       120        6400       0.08       8048       1670       2369.55    31.36     
1128.8     1240       2.64       2.64       0          102.336    -661       120        6401       0.08       8051       1672       2370.01    31.369    
1129       1116       2.82       2.82       0          102.362    -661       128        6403       0.08       8052       1670       2370.45    31.375    
1129.2     1123       3.03       3.03       0          102.371    -661       138        6403       0.08       8053       1666       2370.9     31.38     
1129.4     1140       3.03       3.03       0          102.372    -661       138        6403       0.08       8054       1660       2371.33    31.384    
1129.6     1062       3.03       3.03       0          102.414    -661       138        6405       0.08       8055       1657       2371.76    31.387    
1129.8     964        3.03       3.03       0          102.414    -661       138        6405       0.08       8055       1655       2372.21    31.387    
1130       965        3.03       3.03       0          102.423    -661       138        6405       0.08       8056       1653       2372.66    31.39     
1130.2     1010       2.83       2.83       0          102.458    -661       129        6407       0.08       8056       1652       2373.07    31.391    
1130.4     990        2.7        2.7        0          102.477    -661       123        6408       0.08       8056       1650       2373.54    31.391    
1130.6     971        2.7        2.7        0          102.457    -661       123        6407       0.08       8056       1648       2373.98    31.393    
1130.8     1015       2.7        2.7        0          102.503    -661       123        6409       0.08       8056       1646       2374.42    31.393    
1131       1101       2.7        2.7        0          102.51     -661       123        6410       0.08       8056       1643       2374.86    31.391    
1131.2     1099       2.7        2.7        0          102.52     -661       123        6410       0.08       8055       1642       2375.3     31.387    
1131.4     1029       2.47       2.47       0          102.538    -661       113        6411       0.08       8054       1642       2375.73    31.383    
1131.6     1153       2.42       2.42       0          102.559    -661       110        6412       0.08       8054       1642       2376.18    31.383    
1131.8     1119       2.42       2.42       0          102.561    -661       110        6412       0.08       8053       1644       2376.61    31.381    
1132       926        2.42       2.42       0          102.579    -661       110        6413       0.08       8053       1647       2377.04    31.379    
1132.2     839        2.42       2.42       0          102.593    -661       110        6414       0.08       8053       1646       2377.48    31.379    
1132.4     908        2.42       2.42       0          102.619    -661       110        6415       0.08       8054       1646       2377.92    31.384    
1132.6     811        3.01       3.01       0          102.644    -661       137        6416       0.08       8055       1648       2378.38    31.389    
1132.8     1169       3.01       3.01       0          102.665    -661       137        6417       0.08       8057       1650       2378.79    31.393    
1133       1104       3.01       3.01       0          102.666    -661       137        6417       0.08       8058       1651       2379.22    31.398    
1133.2     1002       3.01       3.01       0          102.691    -661       137        6418       0.08       8059       1652       2379.67    31.403    
1133.4     905        3.01       3.01       0          102.693    -661       137        6418       0.08       8060       1651       2380.12    31.408    
1133.6     940        3.52       3.52       0          102.728    -661       160        6420       0.08       8061       1652       2380.54    31.413    
1133.8     1121       3.52       3.52       0          102.735    -661       160        6420       0.08       8063       1653       2380.97    31.42     
1134       965        3.52       3.52       0          102.761    -661       160        6421       0.08       8065       1654       2381.42    31.426    
1134.2     1071       3.52       3.52       0          102.775    -661       160        6422       0.08       8067       1656       2381.85    31.435    
1134.4     1137       3.52       3.52       0          102.791    -661       160        6423       0.08       8068       1654       2382.27    31.441    
1134.6     1003       3.52       3.52       0          102.817    -661       160        6424       0.08       8071       1652       2382.72    31.45     
1134.8     1064       3.47       3.47       0          102.821    -661       158        6424       0.08       8073       1651       2383.16    31.459    
1135       1029       3.47       3.47       0          102.836    -661       158        6425       0.08       8076       1647       2383.65    31.47     
1135.2     965        3.47       3.47       0          102.865    -661       158        6426       0.08       8078       1644       2384.05    31.479    
1135.4     1114       3.47       3.47       0          102.879    -661       158        6427       0.08       8079       1644       2384.5     31.484    
1135.6     1117       3.47       3.47       0          102.906    -661       158        6428       0.08       8081       1643       2384.94    31.493    
1135.8     976        3.47       3.47       0          102.929    -661       158        6429       0.08       8082       1644       2385.36    31.498    
1136       5178       3.34       3.34       0          102.91     -661       152        6428       0.08       8084       1646       2385.79    31.502    
1136.2     5364       3.34       3.34       2          102.928    -670       152        6429       0.08       8085       1647       2386.44    31.507    
1136.4     3546       3.34       3.34       0          102.953    -670       152        6430       0.08       8086       1647       2386.88    31.512    
1136.6     1916       3.34       3.34       0          102.954    -670       152        6430       0.08       8088       1647       2387.3     31.518    
1136.8     1464       3.34       3.34       0          102.977    -670       152        6431       0.08       8090       1648       2387.74    31.526    
1137       1051       3.27       3.27       0          103.002    -670       149        6432       0.08       8091       1650       2388.18    31.53     
1137.2     781        2.97       2.97       0          103.029    -670       135        6433       0.08       8092       1652       2388.61    31.535    
1137.4     803        2.97       2.97       0          103.041    -670       135        6434       0.08       8094       1653       2389.06    31.544    
1137.6     699        2.97       2.97       0          103.073    -670       135        6436       0.08       8095       1654       2389.47    31.549    
1137.8     872        2.97       2.97       0          103.075    -670       135        6436       0.08       8097       1653       2389.93    31.555    
