~Version
 VERS              .         2.0                           : CWLS LOG ASCII STANDARD - VERSION 2.0
 WRAP              .         NO                            : ONE LINE PER DEPTH STEP
 DLM               .         SPACE                         : DELIMITING CHARACTER(SPACE TAB OR COMMA)
~Well Information
#_______________________________________________________________________________
#
#PARAMETER_NAME    .UNIT     VALUE                         : DESCRIPTION
#_______________________________________________________________________________
STRT               .M        138.6                         : First reference value
STOP               .M        217                           : Last reference value
STEP               .M        0.2                           : Step increment
NULL               .         -9999                         : Missing value
COMP               .                                       : Company
WELL               .         616                           : Well name
FLD                .                                       : Field
LOC                .                                       : Location
CNTY               .                                       : County
STAT               .                                       : State
CTRY               .                                       : Country
SRVC               .                                       : Service Company
DATE               .                                       : Date
API                .                                       : API number
PROJECT_UPGRADE_TIME .         2021-03-18T21_24_50           : 
group              .         Good                          : 
~Parameter Information Block
#_______________________________________________________________________________
#
#PARAMETER_NAME    .UNIT     VALUE                         : DESCRIPTION
#_______________________________________________________________________________
SET                .         D1349_D                       : 
OTHER              .         Программное обеспечение станции MONITOR-386EX 25/12/99 15_08_10   BGF V52 22/08/01 16_56_30   3.1_SNGF__BGF_								111238: 
OTHER_10           .         Тарировки_                    : 
OTHER_11           .         <_techsia_sc_> Постоянная времени фильтра  0.5 сек, kf=0.181269: 
OTHER_12           .         TM.GRD = 0.00428968*TM$.UE + -0.3284: 
OTHER_13           .         GK.MKR/H = GK$.UE / 40.16     : 
OTHER_14           .         NKT. = NKT$.UE / 1            : 
OTHER_2            .         Kedr.exe версия 3.3.2.43      : 
OTHER_3            .         KedrData.dll версия 3.3.2.22  : 
OTHER_4            .         Драйвер версия 2.1.1.3        : 
OTHER_5            .         Мнемоники версия 3.3 S        : 
OTHER_6            .         Прибор_ РК4-38                : 
OTHER_7            .         Номер прибора_ 35с            : 
OTHER_8            .         Режим_ РК4-38                 : 
OTHER_9            .         Форма_ 3                      : 
PROJECT_UPGRADE_TIME .         2021-03-18T21_24_49           : 
TLFamily_DEPT      .         Measured Depth                : 
TLFamily_GK        .         Gamma Ray                     : 
TLFamily_GK$       .                                       : 
TLFamily_LM        .         Casing Collar locator         : 
TLFamily_METKA     .                                       : 
TLFamily_NKT       .         Neutron Far                   : 
TLFamily_NKT$      .         Neutron Far                   : 
TLFamily_RCOR      .                                       : 
TLFamily_SPID      .         Spontaneous Potential         : 
TLFamily_TENS      .         Cable Tension                 : 
TLFamily_TIME      .         Time                          : 
TLFamily_TM        .         Temperature                   : 
TLFamily_TM$       .         Temperature                   : 
group              .         prim                          : 
~Curve Information
#_______________________________________________________________________________
#
#LOGNAME           .UNIT     LOG_ID                        : DESCRIPTION
#_______________________________________________________________________________
DEPT               .M                                      : 1 Глубина, м -    0.0 см 
GK                 .MKR/H                                  : 12 Гамма-активность, мкр./ч -   23.0 см 
GK$                .UE                                     : 10 Гамма-активность, усл.ед. -   23.0 см 
LM                 .                                       : 8 Локатор муфт,  -  180.0 см 
METKA              .                                       : 3 Метки,  -    0.0 см 
NKT                .                                       : 13 НКТ, прив. -  160.0 см 
NKT$               .UE                                     : 9 НКТ, усл.ед. -  160.0 см 
RCOR               .CM/KM                                  : 5 Коррекция по ролику, см/км -    0.0 см 
SPID               .M/H                                    : 2 Скорость, м/час -    0.0 см 
TENS               .T                                      : 6 Натяжение кабеля, т -    0.0 см 
TIME               .S                                      : 4 Время, сек -    0.0 см 
TM                 .GRD                                    : 11 Температура, °C -  193.0 см 
TM$                .UE                                     : 7 Температура, усл.ед. -  193.0 см 
~Ascii
# ...
183.4      2.76       94         116        0          0.518      1          7013       -299       0          1169.62    1.295      378       
183.6      2.95       113        147        0          0          0          7013       -313       0          1167.33    1.256      369       
183.8      2.84       124        177        0          0          0          7013       -309       0          1164.94    1.25       368       
184        2.58       110        125        0          0          0          7013       -306       0          1162.7     1.182      352       
184.2      2.56       98         121        0          0          0          7013       -303       0          1160.35    1.164      348       
184.4      2.76       106        135        0          0          0          7013       -317       0          1157.95    1.164      348       
184.6      2.87       118        124        0          0          0          7013       -313       0          1155.76    1.13       340       
184.8      2.78       112        113        0          0          0          7013       -305       0          1153.47    1.143      343       
185        2.79       111        121        0          0          0          7013       -304       0          1151.18    1.102      334       
185.2      2.8        116        190        0          0          0          7013       -302       0          1148.77    1.101      333       
185.4      2.55       101        79         0          0          0          7013       -312       0          1146.48    1.036      318       
185.6      2.67       101        134        0          0          0          7013       -318       0          1144.14    1.049      321       
185.8      3.19       126        142        0          0          0          7013       -310       0          1141.75    1.039      319       
186        3.39       130        115        0          0          0          7013       -302       0          1139.51    0.928      293       
186.2      3.39       138        95         0          0          0          7013       -304       0          1137.21    0.982      306       
186.4      3.17       139        126        0          0          0          7013       -307       0          1134.81    0.952      298       
186.6      2.94       125        150        0          0          0          7013       -304       0          1132.62    0.89       284       
186.8      2.9        112        147        0          0          0          7013       -307       0          1130.23    0.947      297       
187        3.06       118        213        0          0          0          7013       -305       0          1127.82    0.83       270       
187.2      3.16       127        233        0          0          0          7013       -306       0          1125.58    0.857      276       
187.4      3.15       127        98         0          0          0          7013       -315       0          1123.24    0.821      268       
187.6      3.1        128        125        0          0          0          7013       -324       0          1120.95    0.866      278       
187.8      2.93       121        129        0          0          0          7013       -314       0          1118.63    0.864      278       
188        2.71       108        111        0          0          0          7013       -314       0          1116.4     0.816      267       
188.2      2.79       110        70         0          0          0          7013       -318       0          1113.99    0.832      270       
188.4      2.93       118        87         0          0          0          7013       -305       0          1111.6     0.8        263       
188.6      2.91       116        81         0          0          0          7013       -313       0          1109.36    0.795      262       
188.8      3          119        82         0          0          0          7013       -314       0          1107.02    0.787      260       
189        2.91       121        151        0          0          0          7013       -310       0          1104.65    0.75       251       
189.2      2.73       118        563        0          0          0          7013       -307       0          1102.48    0.765      255       
189.4      2.57       107        6895       0          0          0          7013       -309       0          1100.08    0.744      250       
189.6      2.42       103        11788      0          0          0          7013       -303       0          1097.69    0.731      247       
189.8      2.39       92         89         0          0          0          7013       -304       0          1095.45    0.69       237       
190        2.66       96         134        2          0          0          7013       -314       0          1093.05    0.714      243       
190.2      3.04       116        72         0          0          0          7013       -311       0          1090.92    0.591      214       
190.4      3.23       132        78         0          0          0          7013       -308       0          1089.96    0.6        217       
190.6      3.19       132        95         0          0          0          7013       -309       0          1087.66    0.547      204       
190.8      3          128        97         0          0          0          7013       -311       0          1085.26    0.538      202       
191        2.76       115        116        0          0          0          7013       -300       0          1083.02    0.555      206       
191.2      2.72       106        64         0          0          0          7013       -306       0          1080.68    0.538      202       
191.4      2.88       112        122        0          0          0          7013       -303       0          1078.29    0.55       205       
191.6      3.08       121        157        0          0          0          7013       -301       0          1076.07    0.469      186       
191.8      3.25       128        89         0          0          0          7013       -303       0          1073.7     0.469      186       
192        3.4        138        86         0          0          0          7013       -298       0          1071.35    0.479      188       
192.2      3.29       133        162        0          0          0          7013       -303       0          1069.03    0.504      194       
192.4      3.19       125        119        0          0          0          7013       -305       0          1066.81    0.534      201       
192.6      3.46       132        121        0          0          0          7013       -307       0          1064.47    0.512      196       
192.8      3.59       141        148        0          0          0          7013       -296       0          1062.07    0.506      195       
193        3.61       145        109        0          0          0          7013       -309       0          1059.83    0.498      193       
193.2      3.53       146        108        0          0          0          7013       -314       0          1057.34    0.461      184       
193.4      3.39       142        70         0          0.002      0          7013       -306       0          1055.05    0.476      187       
193.6      3.4        132        131        0          0.009      0          7013       -302       0          1052.94    0.467      185       
193.8      3.52       140        233        0          0.044      0          7013       -311       0          1050.45    0.454      182       
194        3.57       142        228        0          0.193      0          7013       -313       0          1048.16    0.457      183       
194.2      3.53       148        225        0          0.816      1          7013       -309       0          1045.84    0.397      169       
194.4      3.16       136        126        0          0.091      1          7013       -309       0          1043.52    0.373      164       
