~Version
 VERS              .         2.0                           : CWLS LOG ASCII STANDARD - VERSION 2.0
 WRAP              .         NO                            : ONE LINE PER DEPTH STEP
 DLM               .         SPACE                         : DELIMITING CHARACTER(SPACE TAB OR COMMA)
~Well Information
#_______________________________________________________________________________
#
#PARAMETER_NAME    .UNIT     VALUE                         : DESCRIPTION
#_______________________________________________________________________________
STRT               .M        44.8                          : First reference value
STOP               .M        2755.2                        : Last reference value
STEP               .M        0.2                           : Step increment
NULL               .         -9999                         : Missing value
COMP               .                                       : Company
WELL               .         616                           : Well name
FLD                .                                       : Field
LOC                .                                       : Location
CNTY               .                                       : County
STAT               .                                       : State
CTRY               .                                       : Country
SRVC               .                                       : Service Company
DATE               .                                       : Date
API                .                                       : API number
PROJECT_UPGRADE_TIME .         2021-03-18T21_24_50           : 
group              .         Good                          : 
~Parameter Information Block
#_______________________________________________________________________________
#
#PARAMETER_NAME    .UNIT     VALUE                         : DESCRIPTION
#_______________________________________________________________________________
SET                .         D4390_D_2                     : 
COMM               .                                       : 
OTHER              .         Запись производится в присутствии: 
OTHER_10           .         Максимальная температура      : 
OTHER_100          .         GK.FLT = 0.1*GR.UR/H[-1] + (1-0.1)*GR.UR/H[0]: 
OTHER_11           .         Тип промывочной жидкости      : 
OTHER_12           .         Сопротивление ПЖ (Ом*м) при 20°C: 
OTHER_13           .         Плотность ПЖ(г/см3)           : 
OTHER_14           .         Вязкость ПЖ(с)                : 
OTHER_15           .         Водоотдача ПЖ(см3/30мин)      : 
OTHER_16           .         Уровень ПЖ                    : 
OTHER_17           .         Нефть ПЖ (%)                  : 
OTHER_18           .         Барит ПЖ (%)                  : 
OTHER_19           .         Гематит ПЖ (%)                : 
OTHER_2            .         Заказчик ННСН  ЦДНГ-1         : 
OTHER_20           .         КМЦ ПЖ (%)                    : 
OTHER_21           .         Разгазирование ПЖ (да,нет)    : 
OTHER_22           .         Подъемник                     : 
OTHER_23           .         Лаборатория                   : 
OTHER_24           .         Тип кабеля                    : 
OTHER_25           .         Длина кабеля (м)              : 
OTHER_26           .         Цена последней метки          : 
OTHER_27           .         Цена контрольной метки        : 
OTHER_28           .         Диаметр долота (мм)           : 
OTHER_29           .         Глубина бурения (м)           : 
OTHER_3            .         Площадь                       : 
OTHER_30           .         Искусственный забой (м)       : 
OTHER_31           .         Диаметр колонны (мм)          : 
OTHER_32           .         Толщина колонны (мм)          : 
OTHER_33           .         Башмак колонны (м)            : 
OTHER_34           .         Диаметр НКТ (мм)              : 
OTHER_35           .         Толщина НКТ (мм)              : 
OTHER_36           .         Воронка НКТ (м)               : 
OTHER_37           .         Дата цементожа                : 
OTHER_38           .         Тип, количество(т) и плотность цемента: 
OTHER_39           .         Интервалы перфорации (м)      : 
OTHER_4            .         Категория                     : 
OTHER_40           .         Направление, диаметр (мм)     : 
OTHER_41           .         Направление, глубина (м)      : 
OTHER_42           .         Кондуктор, диаметр (мм)       : 
OTHER_43           .         Кондуктор, глубина (м)        : 
OTHER_44           .         Техническая колонна, диаметр (мм): 
OTHER_45           .         Техническая колонна, глубина (м): 
OTHER_46           .         Эксплуатационная колонна, диаметр (мм): 
OTHER_47           .         Эксплуатационная колонна, глубина (м): 
OTHER_48           .         Программа Кедр-02 версия 3.4  : 
OTHER_49           .         Операционная система Windows NT 5.1 build 2600 Service Pack 2: 
OTHER_5            .         Назначение исследований       : 
OTHER_50           .         Программное обеспечение станции MONITOR-386EX 25/12/99 15_08_10   BGF V54 20/09/05 15_32_17   3.3__BGF_9030071: 
OTHER_51           .         Kedr.exe версия 3.4.2.74      : 
OTHER_52           .         KedrData.dll версия 3.4.2.29  : 
OTHER_53           .         Мнемоники версия 3.18 S       : 
OTHER_54           .         Драйвер версия 2.1.1.4        : 
OTHER_55           .         LasInf.dll 4.3.0.35           : 
OTHER_56           .         Прибор_ КСА-Т4                : 
OTHER_57           .         Номер прибора_ 160            : 
OTHER_58           .         Режим_ КСА-Т4                 : 
OTHER_59           .         Форма_ С.А.Б.                 : 
OTHER_6            .         Альтитуда стола ротора        : 
OTHER_60           .         Тарировки_                    : 
OTHER_61           .         <_techsia_sc_> Дата тарировки температуры 25.05.2010: 
OTHER_62           .         Ручной ввод коэффициентов     : 
OTHER_63           .         TM.DEGC = 0.00402*RTM.E.ACP + -0.994: 
OTHER_64           .         <_techsia_sc_> Дата тарировки давления 25.05.2010: 
OTHER_65           .         Ручной ввод коэффициентов     : 
OTHER_66           .         MN.ATM = (2.27521e-006*TM.DEGC + 0.02078)*(RMN.E.ACP + 6.2*TM.DEGC + -1688): 
OTHER_67           .         <_techsia_sc_> Дата тарировки ГК 25.05.2010: 
OTHER_68           .         Ручной ввод коэффициентов     : 
OTHER_69           .         GR.UR/H = RGR.IMP/MIN / 45.5144: 
OTHER_7            .         Вид исследований 3  6         : 
OTHER_70           .         GK.FLT = 0.1*GR.UR/H[-1] + (1-0.1)*GR.UR/H[0]: 
OTHER_71           .         <_techsia_sc_> Дата тарировки температуры 25.05.2010: 
OTHER_72           .         Ручной ввод коэффициентов     : 
OTHER_73           .         TM.DEGC = 0.00402*RTM.E.ACP + -0.994: 
OTHER_74           .         <_techsia_sc_> Дата тарировки давления 25.05.2010: 
OTHER_75           .         Ручной ввод коэффициентов     : 
OTHER_76           .         MN.ATM = (2.27521e-006*TM.DEGC + 0.02078)*(RMN.E.ACP + 6.2*TM.DEGC + -1688): 
OTHER_77           .         <_techsia_sc_> Дата тарировки ГК 25.05.2010: 
OTHER_78           .         Ручной ввод коэффициентов     : 
OTHER_79           .         GR.UR/H = RGR.IMP/MIN / 45.5144: 
OTHER_8            .         Начало бурения интервала каротажа: 
OTHER_80           .         GK.FLT = 0.1*GR.UR/H[-1] + (1-0.1)*GR.UR/H[0]: 
OTHER_81           .         <_techsia_sc_> Дата тарировки температуры 25.05.2010: 
OTHER_82           .         Ручной ввод коэффициентов     : 
OTHER_83           .         TM.DEGC = 0.00402*RTM.E.ACP + -0.994: 
OTHER_84           .         <_techsia_sc_> Дата тарировки давления 25.05.2010: 
OTHER_85           .         Ручной ввод коэффициентов     : 
OTHER_86           .         MN.ATM = (2.27521e-006*TM.DEGC + 0.02078)*(RMN.E.ACP + 6.2*TM.DEGC + -1688): 
OTHER_87           .         <_techsia_sc_> Дата тарировки ГК 25.05.2010: 
OTHER_88           .         Ручной ввод коэффициентов     : 
OTHER_89           .         GR.UR/H = RGR.IMP/MIN / 45.5144: 
OTHER_9            .         Окончание бурения интервала каротажа: 
OTHER_90           .         GK.FLT = 0.1*GR.UR/H[-1] + (1-0.1)*GR.UR/H[0]: 
OTHER_91           .         <_techsia_sc_> Дата тарировки температуры 25.05.2010: 
OTHER_92           .         Ручной ввод коэффициентов     : 
OTHER_93           .         TM.DEGC = 0.00402*RTM.E.ACP + -0.994: 
OTHER_94           .         <_techsia_sc_> Дата тарировки давления 25.05.2010: 
OTHER_95           .         Ручной ввод коэффициентов     : 
OTHER_96           .         MN.ATM = (2.27521e-006*TM.DEGC + 0.02078)*(RMN.E.ACP + 6.2*TM.DEGC + -1688): 
OTHER_97           .         <_techsia_sc_> Дата тарировки ГК 25.05.2010: 
OTHER_98           .         Ручной ввод коэффициентов     : 
OTHER_99           .         GR.UR/H = RGR.IMP/MIN / 45.5144: 
PROJECT_UPGRADE_TIME .         2021-03-18T21_24_50           : 
PRTY               .         ПП-601-1                      : N партии
SRVC               .         Барковский                    : Начальник партии
TLFamily_DEPT      .         Measured Depth                : 
TLFamily_LM        .         Casing Collar locator         : 
TLFamily_METKA     .                                       : 
TLFamily_MN        .                                       : 
TLFamily_TM        .         Temperature                   : 
group              .         second                        : 
~Curve Information
#_______________________________________________________________________________
#
#LOGNAME           .UNIT     LOG_ID                        : DESCRIPTION
#_______________________________________________________________________________
DEPT               .M                                      : Depth curve 
LM                 .е.ацп                                  : Локатор муфт,е.ацп 
METKA              .е.ацп                                  : Магнитные метки,е.ацп 
MN                 .атм                                    : 12 Давление, атм. -  160.0 см 
TM                 .град.C                                 : Термограмма по стволу скважины,град.C 
~Ascii
# ...
570.4      525.001    0          55.315     17.452    
570.6      563.999    0          55.324     17.454    
570.8      529.997    0          55.359     17.458    
571        448.999    0          55.384     17.462    
571.2      434.006    0          55.388     17.466    
571.4      589.999    0          55.409     17.472    
571.6      572.998    0          55.419     17.477    
571.8      529.001    0          55.444     17.478    
572        563.003    0          55.452     17.483    
572.2      639.994    0          55.474     17.489    
572.4      482.997    0          55.474     17.496    
572.6      412.005    0          55.49      17.501    
572.8      545        0          55.528     17.506    
573        552.997    0          55.539     17.515    
573.2      459.999    0          55.56      17.521    
573.4      434.003    0          55.566     17.528    
573.6      507.999    0          55.591     17.536    
573.8      491.996    0          55.606     17.546    
574        382.999    0          55.622     17.551    
574.2      358.002    0          55.629     17.561    
574.4      424        0          55.652     17.57     
574.6      410.997    0          55.677     17.577    
574.8      338.001    2          55.694     17.582    
575        363.997    0          55.707     17.582    
575.2      289.998    0          55.732     17.582    
575.4      221.004    0          55.756     17.582    
575.6      340.222    0          55.762     17.582    
575.8      6545.92    0          55.786     17.582    
576        4319.949   0          55.811     17.587    
576.2      2904.95    0          55.82      17.591    
576.4      1512.989   0          55.842     17.598    
576.6      1211.988   0          55.843     17.607    
576.8      886.994    0          55.881     17.617    
577        710.997    0          55.909     17.626    
577.2      641.002    0          55.91      17.635    
577.4      693.996    0          55.926     17.645    
577.6      571.003    0          55.965     17.654    
577.8      651.998    0          55.976     17.664    
578        601.002    0          55.996     17.674    
578.2      663.998    0          56.021     17.687    
578.4      608.997    0          56.026     17.694    
578.6      517.998    0          56.052     17.698    
578.8      460.999    0          56.064     17.703    
579        441.003    0          56.082     17.707    
579.2      529.996    0          56.106     17.707    
579.4      405.001    0          56.127     17.707    
579.6      419        0          56.126     17.704    
579.8      429        0          56.151     17.703    
580        425.001    0          56.168     17.699    
580.2      447.003    0          56.187     17.699    
580.4      531.995    0          56.191     17.699    
580.6      405.001    0          56.216     17.699    
580.8      428.001    0          56.231     17.703    
581        461.002    0          56.247     17.708    
581.2      507.001    0          56.273     17.712    
581.4      531.003    0          56.277     17.717    
581.6      614        0          56.296     17.722    
581.8      603.005    0          56.308     17.731    
582        744.001    0          56.333     17.736    
582.2      768.997    0          56.341     17.742    
582.4      692.001    0          56.365     17.751    
582.6      729.995    0          56.391     17.761    
582.8      580.001    0          56.407     17.77     
583        611        0          56.422     17.78     
583.2      609.999    0          56.43      17.786    
583.4      584.001    0          56.473     17.795    
583.6      602.997    0          56.479     17.805    
583.8      513.999    0          56.496     17.814    
584        490.004    0          56.497     17.824    
584.2      601.002    1          56.53      17.832    
584.4      661        0          56.541     17.839    
584.6      674        0          56.549     17.844    
584.8      667.159    2          56.584     17.85     
585        5023.942   0          56.585     17.856    
585.2      3433.959   0          56.601     17.865    
585.4      2317.973   0          56.647     17.874    
585.6      1572.982   0          56.633     17.882    
585.8      1084.988   0          56.659     17.89     
586        760.994    0          56.685     17.9      
586.2      610.004    0          56.696     17.905    
586.4      706.004    0          56.715     17.913    
586.6      807.999    0          56.745     17.926    
586.8      776        0          56.78      17.934    
587        781.998    0          56.786     17.94     
587.2      726.997    0          56.805     17.947    
587.4      636.999    0          56.817     17.952    
587.6      600.998    0          56.842     17.957    
587.8      559.002    0          56.867     17.961    
588        614.999    0          56.872     17.966    
588.2      587.002    0          56.898     17.971    
588.4      639.999    0          56.914     17.976    
588.6      608.001    0          56.93      17.985    
588.8      635.002    0          56.937     17.991    
589        694.995    0          56.962     17.999    
589.2      561        0          56.987     18.007    
589.4      562.999    0          57.002     18.012    
589.6      522.998    0          57.019     18.025    
589.8      467.998    0          57.025     18.031    
590        425.005    0          57.049     18.039    
590.2      572        0          57.075     18.046    
590.4      570.001    0          57.1       18.052    
590.6      596.998    0          57.112     18.057    
590.8      548.999    0          57.129     18.061    
591        517.022    0          57.136     18.063    
591.2      1112.997   0          57.161     18.065    
591.4      1032.993   0          57.175     18.065    
591.6      842.003    0          57.204     18.064    
591.8      918.998    0          57.216     18.061    
592        858.001    0          57.218     18.059    
592.2      896.002    0          57.248     18.057    
592.4      949.997    0          57.268     18.057    
592.6      878.004    0          57.271     18.057    
592.8      973.007    0          57.298     18.063    
593        1168.994   0          57.323     18.075    
593.2      1001.996   0          57.33      18.089    
593.4      894.008    0          57.356     18.103    
593.6      1120.997   0          57.369     18.113    
593.8      1036.008   0          57.386     18.118    
594        1259.995   0          57.411     18.121    
594.2      1120.992   0          57.417     18.124    
594.4      897.998    0          57.441     18.125    
594.6      845.202    0          57.465     18.125    
594.8      6281.92    2          57.476     18.13     
595        4141.918   0          57.494     18.139    
595.2      1922.981   0          57.499     18.147    
595.4      1410.991   0          57.524     18.154    
595.6      1173       0          57.543     18.163    
595.8      1168.988   0          57.569     18.173    
596        843.003    0          57.587     18.183    
596.2      936.002    0          57.608     18.192    
596.4      1002.003   0          57.636     18.197    
596.6      1081.994   0          57.652     18.203    
596.8      926        0          57.673     18.207    
597        936.998    0          57.682     18.218    
597.2      877.995    0          57.708     18.232    
597.4      736.004    0          57.72      18.243    
597.6      855.002    0          57.758     18.251    
597.8      900.999    0          57.764     18.256    
598        874.996    0          57.784     18.258    
598.2      771.995    0          57.792     18.261    
598.4      647        0          57.806     18.262    
598.6      649.997    0          57.836     18.266    
598.8      571        0          57.848     18.271    
599        569.008    0          57.85      18.276    
599.2      785.996    0          57.877     18.281    
599.4      676.003    0          57.902     18.282    
