~Version
 VERS              .         2.0                           : CWLS LOG ASCII STANDARD - VERSION 2.0
 WRAP              .         NO                            : ONE LINE PER DEPTH STEP
 DLM               .         SPACE                         : DELIMITING CHARACTER(SPACE TAB OR COMMA)
~Well Information
#_______________________________________________________________________________
#
#PARAMETER_NAME    .UNIT     VALUE                         : DESCRIPTION
#_______________________________________________________________________________
STRT               .M        220                           : First reference value
STOP               .M        600                           : Last reference value
STEP               .M        10                            : Step increment
NULL               .         -9999                         : Missing value
COMP               .                                       : Company
WELL               .         616                           : Well name
FLD                .                                       : Field
LOC                .                                       : Location
CNTY               .                                       : County
STAT               .                                       : State
CTRY               .                                       : Country
SRVC               .                                       : Service Company
DATE               .                                       : Date
API                .                                       : API number
PROJECT_UPGRADE_TIME .         2021-03-18T21_24_50           : 
group              .         Good                          : 
~Parameter Information Block
#_______________________________________________________________________________
#
#PARAMETER_NAME    .UNIT     VALUE                         : DESCRIPTION
#_______________________________________________________________________________
SET                .         3                             : 
ALT                .м        78.80                         : Альтитуда
COND               .м        0.00                          : Кондуктор
KWRK               .         Забуpка                       : Вид работ
KX                 .м        0.00                          : Координата X устья скважины
KY                 .м        0.00                          : Координата Y устья скважины
NPR                .         980119                        : Номер прибора
Operator           .         Емельянова                    : 
PART               .         Палагутин                     : Начальник партии
PROJECT_UPGRADE_TIME .         2021-03-18T21_24_49           : 
PRZK               .         Шакиров                       : Представитель заказчика
SCLN               .         18.24                         : Поправка на магн.склон. и сближ.мерид.
TLFamily_AZIM      .         Hole Azimuth                  : 
TLFamily_DEPT      .         Measured Depth                : 
TLFamily_METKA     .                                       : 
TLFamily_ROLL      .                                       : 
TLFamily_SPEE      .         Cable Speed                   : 
TLFamily_ZENI      .                                       : 
TPR                .         ИОН-1                         : Тип скважинного прибора
group              .         second                        : 
~Curve Information
#_______________________________________________________________________________
#
#LOGNAME           .UNIT     LOG_ID                        : DESCRIPTION
#_______________________________________________________________________________
DEPT               .M                                      :  
AZIM               .DEG                                    :  
METKA              .                                       :  
ROLL               .DEG                                    :  
SPEE               .M/H                                    :  
ZENI               .DEG                                    :  
~Ascii
220.0      250.14     0          256.28     576        22.6      
230        254.03     0          37.96      612        23.88     
240        254.99     0          39.76      648        24.61     
250        257.52     0          37.59      648        25.76     
260        261.13     0          39.02      684        26.77     
270        264.43     0          38.62      648        27.6      
280        264.75     0          88.54      648        28.22     
290        266.8      0          99.26      648        28.89     
300        265.91     0          113.97     648        28.91     
310        265.23     0          223.65     612        28.11     
320        265.95     0          229.03     612        27.85     
330        266.5      0          230.04     648        27.21     
340        267.23     0          308.86     576        26.4      
350        267.36     0          40.23      648        25.68     
360        267.14     0          39.31      684        24.73     
370        267.33     0          43.38      684        24.18     
380        266.58     0          145.57     684        24.05     
390        267.4      0          229.97     720        23.97     
400        267.38     0          290.72     684        23.96     
410        267.5      0          43.02      720        23.94     
420        267.11     0          45.94      684        24.2      
430        266.91     0          46.79      648        24.42     
440        266.77     0          98.77      648        24.61     
450        266.05     0          100.3      648        24.92     
460        264.7      0          115.75     684        25.17     
470        263.8      0          145.39     648        25.38     
480        263.28     0          152.5      684        25.49     
490        262.89     0          139.28     648        25.49     
500        262.49     0          155.26     648        25.46     
510        262.25     0          153.42     612        25.57     
520        261.1      0          160.47     612        25.71     
530        260.43     0          159.98     612        25.78     
540        260.4      0          156.66     648        25.92     
550        260.62     0          160.75     468        26.35     
560        260.76     0          163.42     468        26.7      
570        259.7      0          161.26     468        27.03     
580        258.39     0          159.04     504        27.4      
590        257.7      0          160.85     504        27.32     
600        258.86     0          157.08     468        27.27     
