~Version
 VERS              .         2.0                           : CWLS LOG ASCII STANDARD - VERSION 2.0
 WRAP              .         NO                            : ONE LINE PER DEPTH STEP
 DLM               .         SPACE                         : DELIMITING CHARACTER(SPACE TAB OR COMMA)
~Well Information
#_______________________________________________________________________________
#
#PARAMETER_NAME    .UNIT     VALUE                         : DESCRIPTION
#_______________________________________________________________________________
STRT               .M        2647.6                        : First reference value
STOP               .M        2755.199839                   : Last reference value
STEP               .M        0.1999997                     : Step increment
NULL               .         -9999                         : Missing value
COMP               .                                       : Company
WELL               .         616                           : Well name
FLD                .                                       : Field
LOC                .                                       : Location
CNTY               .                                       : County
STAT               .                                       : State
CTRY               .                                       : Country
SRVC               .                                       : Service Company
DATE               .                                       : Date
API                .                                       : API number
PROJECT_UPGRADE_TIME .         2021-03-18T21_24_50           : 
group              .         Good                          : 
~Parameter Information Block
#_______________________________________________________________________________
#
#PARAMETER_NAME    .UNIT     VALUE                         : DESCRIPTION
#_______________________________________________________________________________
SET                .         D7024_D                       : 
OTHER              .         Kedr.exe версия 2.1.2.32      : 
OTHER_10           .         TM.GRD = 0.00404*TM$.UE + 0.07: 
OTHER_11           .         MN.ATM = (6.33279e-006*TM.GRD + 0.02401)*(MN$.UE + 2.72*TM.GRD + -2018): 
OTHER_12           .         GK.MKR/H = GK$.UE / 43.5489 + 0: 
OTHER_13           .         RES.SM = 0.00476*CRES.UE - 1.51709: 
OTHER_14           .         PL.GSM3 = 0 + 0 * (PL.UE / 1) +  0 * (PL.UE / 1)^2: 
OTHER_15           .         Постоянная времени ГГП = 6 сек: 
OTHER_16           .         Постоянная времени ГК = 6 сек : 
OTHER_2            .         KedrData.dll версия 3.2.2.14  : 
OTHER_3            .         LasInf.dll версия 3.2.0.13    : 
OTHER_4            .         Драйвер версия 1.2.0.5        : 
OTHER_5            .         Прибор_ КСА-M1                : 
OTHER_6            .         Номер прибора_ 155+р204       : 
OTHER_7            .         Режим_ КСА-М1 + ГГП + Резистивиметр: 
OTHER_8            .         Форма_ 223\2                  : 
OTHER_9            .         Тарировки_                    : 
PROJECT_UPGRADE_TIME .         2021-03-18T21_24_50           : 
TLFamily_CRES      .                                       : 
TLFamily_DEPT      .         Measured Depth                : 
TLFamily_GK        .         Gamma Ray                     : 
TLFamily_GK$       .                                       : 
TLFamily_LM        .         Casing Collar locator         : 
TLFamily_METKA     .                                       : 
TLFamily_MN        .                                       : 
TLFamily_MN$       .                                       : 
TLFamily_PL        .                                       : 
TLFamily_PL_2      .                                       : 
TLFamily_RCOR      .                                       : 
TLFamily_RES       .         Mud Resistivity               : 
TLFamily_SPID      .         Spontaneous Potential         : 
TLFamily_STD       .                                       : 
TLFamily_TIME      .         Time                          : 
TLFamily_TM        .         Temperature                   : 
TLFamily_TM$       .         Temperature                   : 
TLFamily_VGD       .         Gas Volume                    : 
group              .         prim                          : 
~Curve Information
#_______________________________________________________________________________
#
#LOGNAME           .UNIT     LOG_ID                        : DESCRIPTION
#_______________________________________________________________________________
DEPT               .M                                      : 1 Глубина, м -    0.0 см 
CRES               .UE                                     : 9 Проводимость, усл.ед. -  222.0 см 
GK                 .MKR/H                                  : 16 Гамма-активность, мкр./ч -  106.0 см 
GK$                .UE                                     : 13 Гамма-активность, усл.ед. -  106.0 см 
LM                 .                                       : 11 Локатор муфт,  -   16.0 см 
METKA              .                                       : 3 Метки,  -    0.0 см 
MN                 .ATM                                    : 15 Давление, атм. -  160.0 см 
MN$                .UE                                     : 7 Давление, усл.ед. -  160.0 см 
PL                 .UE                                     : 10 Плотность, усл.ед. -  270.0 см 
PL_2               .GSM3                                   : 18 Плотность, г./см3 -  270.0 см 
RCOR               .CM/KM                                  : 5 Коррекция по ролику, см/км -    0.0 см 
RES                .SM                                     : 17 Проводимость,  -  222.0 см 
SPID               .M/H                                    : 2 Скорость, м/час -    0.0 см 
STD                .                                       : 12 Приток,  -  170.0 см 
TIME               .S                                      : 4 Время, сек -    0.0 см 
TM                 .GRD                                    : 14 Температура, °C -  180.0 см 
TM$                .UE                                     : 6 Температура, усл.ед. -  180.0 см 
VGD                .                                       : 8 Влагомер,  -  170.0 см 
~Ascii
# ...
2745.999852 1298       9.66       421        92         0          380.498    17486      14         0          0          4.6628     580        10843      16476.16   55.349     13683      6693      
2746.199852 1302       9.62       412        92         0          380.826    17498      14         0          0          4.6781     533        10868      16477.5    55.543     13731      6684      
2746.399852 1304       9.54       412        82         0          381.926    17542      14         0          0          4.6899     550        10897      16478.79   55.715     13774      6685      
2746.599852 1307       9.38       393        172        0          381.943    17542      14         0          0          4.7042     521        10925      16480.1    55.861     13810      6689      
2746.799851 1307       9.21       393        107        0          382.682    17571      14         0          0          4.7022     580        10962      16481.37   55.99      13842      6689      
2746.999851 1311       8.61       332        108        0          383.205    17591      14         0          0          4.7217     533        11002      16482.72   56.207     13895      6687      
2747.199851 1316       8.13       332        95         0          383.421    17599      14         0          0          4.7494     580        11038      16483.99   56.405     13944      6687      
2747.39985 1316       7.79       323        89         0          383.857    17616      14         0          0          4.7479     560        11072      16485.28   56.509     13970      6687      
2747.59985 1316       7.61       323        590        0          384.462    17640      14         0          0          4.7457     520        11100      16486.56   56.681     14013      6683      
2747.79985 1321       7.63       337        4080       0          383.189    17586      14         0          0          4.7725     568        11127      16487.89   56.8       14042      6674      
2747.999849 1324       7.68       337        1544       0          382.663    17564      14         0          0          4.7851     580        11157      16489.17   56.947     14078      6681      
2748.199849 1326       7.75       341        380        0          380.948    17492      14         0          0          4.7947     580        11184      16490.46   57.133     14124      6675      
2748.399849 1329       7.79       341        139        0          381.52     17514      14         0          0          4.8089     530        11210      16491.75   57.32      14171      6676      
2748.599849 1330       8.2        378        109        0          380.729    17481      14         0          0          4.8151     510        11239      16493.09   57.503     14216      6684      
2748.799848 1333       8.44       380        103        0          381.221    17500      14         0          0          4.8256     522        11268      16494.36   57.686     14261      6679      
2748.999848 1334       8.69       390        84         0          380.414    17466      14         0          0          4.8314     552        11299      16495.67   57.808     14292      6673      
2749.199848 1335       8.82       390        95         0          380.565    17471      14         0          0          4.8375     557        11330      16496.99   57.964     14330      6679      
2749.399847 1336       8.73       375        50         0          380.693    17476      14         0          0          4.8431     510        11360      16498.33   58.111     14367      6679      
2749.599847 1338       8.67       375        43         0          381.705    17517      14         0          0          4.8518     530        11387      16499.65   58.212     14392      6672      
2749.799847 1339       8.73       383        34         0          382.244    17538      14         0          0          4.8545     545        11410      16500.94   58.265     14405      6664      
2749.999846 1338       8.78       386        33         0          384.219    17618      14         0          0          4.8542     580        11428      16502.21   58.341     14424      6678      
2750.199846 1339       8.88       391        27         1          383.863    17603      14         0          0          4.8565     580        11451      16504.16   58.462     14454      6686      
2750.399846 1340       9.04       416        29         0          385.439    17667      14         0          0          4.8621     533        11476      16505.43   58.589     14485      6684      
2750.599845 1342       9.29       416        30         0          383.333    17580      14         0          0          4.8688     580        11499      16506.77   58.653     14501      6676      
2750.799845 1342       9.58       443        28         0          384.635    17633      14         0          0          4.8708     580        11520      16508.04   58.74      14522      6682      
2750.999845 1345       9.87       443        28         0          383.66     17592      14         0          0          4.8843     502        11543      16509.42   58.883     14558      6681      
2751.199845 1161       9.35       383        27         0          383.663    17592      14         0          0          4.0096     580        11562      16510.72   59.001     14587      6668      
2751.399844 1048       9.08       383        30         0          382.465    17543      14         0          0          3.4698     580        11579      16511.99   58.983     14582      6670      
2751.599844 911        8.87       377        27         0          382.197    17532      14         0          0          2.819      580        11594      16513.26   58.969     14579      6669      
2751.799844 878        8.79       382        30         0          384.294    17618      14         0          0          2.6622     540        11604      16514.57   58.966     14578      6667      
2751.999843 869        9.07       408        27         0          383.917    17602      14         0          0          2.6193     510        11610      16515.87   59.036     14596      6667      
2752.199843 864        9.17       395        27         0          385.371    17662      14         0          0          2.5956     580        11615      16517.16   59.047     14598      6663      
2752.399843 855        9.09       392        29         0          384.405    17622      13         0          0          2.5527     580        11620      16518.49   59.03      14594      6663      
2752.599842 854        9.04       391        26         -9999      383.098    17568      14         0          -9999      2.548      -9999      11615      -9999      59.045     14598      6657      
2752.799842 850        9.01       391        -9999      -9999      381.938    17520      13         0          -9999      2.5305     -9999      11613      -9999      59.121     14617      6670      
2752.999842 849        8.93       377        -9999      -9999      380.819    17474      13         0          -9999      2.5241     -9999      11613      -9999      59.173     14629      6655      
2753.199842 847        8.71       370        -9999      -9999      381.732    17511      13         0          -9999      2.5127     -9999      11616      -9999      59.203     14637      6660      
2753.399841 846        8.69       387        -9999      -9999      380.955    17479      13         0          -9999      2.5099     -9999      11618      -9999      59.22      14641      6657      
2753.599841 844        -9999      -9999      -9999      -9999      381.32     17494      14         0          -9999      2.502      -9999      11622      -9999      59.234     14644      6662      
2753.799841 844        -9999      -9999      -9999      -9999      380.304    17453      13         0          -9999      2.4988     -9999      11625      -9999      59.24      14646      6661      
2753.99984 842        -9999      -9999      -9999      -9999      381.155    17487      14         0          -9999      2.4895     -9999      11627      -9999      59.243     14647      6665      
