~Version
 VERS              .         2.0                           : CWLS LOG ASCII STANDARD - VERSION 2.0
 WRAP              .         NO                            : ONE LINE PER DEPTH STEP
 DLM               .         SPACE                         : DELIMITING CHARACTER(SPACE TAB OR COMMA)
~Well Information
#_______________________________________________________________________________
#
#PARAMETER_NAME    .UNIT     VALUE                         : DESCRIPTION
#_______________________________________________________________________________
STRT               .M        827.6                         : First reference value
STOP               .M        1707.2                        : Last reference value
STEP               .M        0.2                           : Step increment
NULL               .         -9999                         : Missing value
COMP               .                                       : Company
WELL               .         616                           : Well name
FLD                .                                       : Field
LOC                .                                       : Location
CNTY               .                                       : County
STAT               .                                       : State
CTRY               .                                       : Country
SRVC               .                                       : Service Company
DATE               .                                       : Date
API                .                                       : API number
PROJECT_UPGRADE_TIME .         2021-03-18T21_24_50           : 
group              .         Good                          : 
~Parameter Information Block
#_______________________________________________________________________________
#
#PARAMETER_NAME    .UNIT     VALUE                         : DESCRIPTION
#_______________________________________________________________________________
SET                .         616_8                         : 
CONF               .         00                            : 
END                .         0                             : 
ERR                .         0                             : 
GS00               .M        1705.33                       : 
GS01               .M        0825.11                       : 
MM00               .M        0210.00                       : 
NOKG               .         0                             : 
NPR                .         980615                        : 
PART               .         Бутенко                       : 
PROJECT_UPGRADE_TIME .         2021-03-18T21_24_49           : 
PRZK               .         Шакиров                       : 
TLFamily_AZIMUTH   .         True Dip Azimuth              : 
TLFamily_DEPTH     .         Measured Depth                : 
TLFamily_METKA     .                                       : 
TLFamily_ROLL      .                                       : 
TLFamily_SPEED     .         Spontaneous Potential         : 
TLFamily_ZENIT     .                                       : 
VPRG               .         310                           : 
WAY                .         UP                            : 
group              .         prim                          : 
~Curve Information
#_______________________________________________________________________________
#
#LOGNAME           .UNIT     LOG_ID                        : DESCRIPTION
#_______________________________________________________________________________
DEPTH              .M                                      :  
AZIMUTH            .DEG                                    :  
METKA              .                                       :  
ROLL               .DEG                                    :  
SPEED              .M/H                                    :  
ZENIT              .DEG                                    :  
~Ascii
# ...
1510.8     359.98     0          207.02     612        32.25     
1511       353.28     0          207.89     612        32.43     
1511.2     4.49       0          208.4      612        32.16     
1511.4     318.27     0          208.35     612        32.51     
1511.6     293.75     0          208.59     612        32.21     
1511.8     315.4      0          208.65     612        32.3      
1512       274.65     0          208.06     612        32.18     
1512.2     265.49     1          206.69     576        31.83     
1512.4     251.43     0          203.86     648        32.83     
1512.6     323.23     0          202.94     612        32.36     
1512.8     356.41     0          200.65     612        32.85     
1513       347.86     0          197.55     612        32.47     
1513.2     22.43      0          197.28     648        32.72     
1513.4     3.68       0          200.57     612        31.9      
1513.6     55.19      0          206.16     612        32.91     
1513.8     344.19     0          208.85     612        33.22     
1514       348.19     0          209.37     648        32.63     
1514.2     323.31     0          209.14     612        32.56     
1514.4     332.07     0          208.31     576        32.07     
1514.6     341.01     0          207.96     612        32.24     
1514.8     8.6        0          208.03     648        31.69     
1515       7.38       0          206.92     612        31.8      
1515.2     359.71     0          205.48     612        31.94     
1515.4     351.62     0          203.43     612        32.11     
1515.6     335.78     0          198.99     648        32.51     
1515.8     348.87     0          199.15     612        31.62     
1516       345.38     0          205.28     612        32.22     
1516.2     3.91       0          207.25     612        31.82     
1516.4     353.76     0          207.31     612        32.08     
1516.6     350.72     0          207.52     576        31.94     
1516.8     350.29     0          207.67     612        32.26     
1517       349.26     0          208.08     648        32.06     
1517.2     2.26       0          208.78     612        31.73     
1517.4     354.78     0          209.01     648        32.16     
1517.6     353.22     0          209.04     612        31.91     
1517.8     344.98     0          208.86     612        32.17     
1518       342.85     0          208.77     612        32.07     
1518.2     356.51     0          208.97     612        32.29     
1518.4     345.34     0          209.1      612        31.99     
1518.6     5.44       0          209.02     648        32.01     
1518.8     358.93     0          208.41     576        32.18     
1519       1.59       0          207.76     612        31.92     
1519.2     6.8        0          207.53     648        32.11     
1519.4     2.78       0          208.16     612        31.82     
1519.6     13.55      0          209.28     648        32.17     
1519.8     351.72     0          210.12     612        32.06     
1520       355.03     0          210.95     612        32.03     
1520.2     1.62       0          211.28     612        32.19     
1520.4     358.97     0          209.33     612        32        
1520.6     2.89       0          206.24     612        32.4      
1520.8     349.22     0          204.54     612        31.64     
1521       359.96     0          205.26     576        32.17     
1521.2     352.18     0          206.75     648        31.92     
1521.4     0.13       0          207.6      612        31.97     
1521.6     4.99       0          207.81     648        31.73     
1521.8     358.31     0          207.98     612        32.17     
1522       6.39       1          208.64     612        32.21     
1522.2     353.37     0          209.42     684        31.8      
1522.4     5.39       0          209.87     612        32.22     
1522.6     9.88       0          210.15     612        32.02     
1522.8     4.94       0          210.16     612        32.14     
1523       6.37       0          209.77     612        31.84     
1523.2     359.71     0          209.45     648        32.09     
1523.4     7.85       0          209.3      612        31.82     
1523.6     3.12       0          209.15     648        31.78     
1523.8     17.84      0          208.51     612        32.09     
1524       19.59      0          207.62     612        31.84     
1524.2     25.22      0          207.24     612        32.16     
1524.4     34.32      0          207.28     612        33.85     
1524.6     5.77       0          206.48     648        32.34     
1524.8     7.69       0          206.16     612        32.2      
1525       9.01       0          206.44     612        32.3      
1525.2     3.95       0          206.86     612        32.32     
1525.4     3.11       0          206.56     648        32.07     
1525.6     358.72     0          206.29     576        32.05     
1525.8     57.11      0          208.86     648        32.21     
1526       28.08      0          210.24     612        32.37     
1526.2     8.51       0          210.19     612        32.14     
1526.4     14.73      0          210.04     612        32.19     
1526.6     2.41       0          210.18     612        31.96     
1526.8     356.13     0          210.04     612        32.09     
1527       25.33      0          209.58     612        32.05     
1527.2     359.94     0          208.5      612        31.29     
1527.4     342.63     0          207.6      612        31.55     
1527.6     345.49     0          206.92     612        31.28     
1527.8     339.81     0          204.51     576        31.52     
1528       0.12       0          205.35     648        31.32     
1528.2     333.35     0          208.95     612        31.89     
1528.4     327.89     0          210.01     612        32.06     
1528.6     320.31     0          209.37     612        31.78     
1528.8     299.18     0          208.61     612        32.02     
1529       323.73     0          208.19     612        31.85     
1529.2     284        0          207.46     612        31.63     
1529.4     270.02     0          206.97     612        32.07     
1529.6     275.13     0          206.8      612        31.66     
1529.8     253.68     0          207.32     612        32.01     
1530       264.68     0          207.76     576        31.7      
1530.2     263.38     0          208.01     612        31.95     
1530.4     323.69     0          207.92     612        31.9      
1530.6     306.65     0          207.4      648        31.66     
1530.8     345.42     0          206.8      612        32.01     
1531       346.99     0          207.11     612        31.88     
1531.2     338.34     0          208.13     612        32.02     
1531.4     2.26       0          208.7      612        31.84     
1531.6     343.46     0          209.55     612        31.73     
1531.8     351.51     0          209.74     612        31.98     
1532       357.32     0          209.93     612        31.74     
1532.2     355.58     1          209.92     576        31.99     
1532.4     358.81     0          208.96     612        31.66     
1532.6     336.67     0          208.75     648        31.85     
1532.8     356.54     0          208.94     612        31.78     
1533       350.97     0          208.31     612        31.65     
1533.2     357.08     0          207.88     612        31.86     
1533.4     11.74      0          208.57     648        31.73     
1533.6     1.79       0          209.44     612        32.11     
1533.8     20.14      0          209.68     612        31.77     
1534       350.06     0          209.86     612        31.91     
1534.2     353.86     0          210.1      612        31.77     
1534.4     9.57       0          210.45     576        31.77     
1534.6     2.21       0          210.69     612        31.7      
1534.8     2.81       0          211.02     648        31.54     
1535       343.37     0          210.95     612        32.1      
