~Version
 VERS              .         2.0                           : CWLS LOG ASCII STANDARD - VERSION 2.0
 WRAP              .         NO                            : ONE LINE PER DEPTH STEP
 DLM               .         SPACE                         : DELIMITING CHARACTER(SPACE TAB OR COMMA)
~Well Information
#_______________________________________________________________________________
#
#PARAMETER_NAME    .UNIT     VALUE                         : DESCRIPTION
#_______________________________________________________________________________
STRT               .M        2648.2                        : First reference value
STOP               .M        2758.600166                   : Last reference value
STEP               .M        0.2000003                     : Step increment
NULL               .         -9999                         : Missing value
COMP               .                                       : Company
WELL               .         616                           : Well name
FLD                .                                       : Field
LOC                .                                       : Location
CNTY               .                                       : County
STAT               .                                       : State
CTRY               .                                       : Country
SRVC               .                                       : Service Company
DATE               .                                       : Date
API                .                                       : API number
PROJECT_UPGRADE_TIME .         2021-03-18T21_24_50           : 
group              .         Good                          : 
~Parameter Information Block
#_______________________________________________________________________________
#
#PARAMETER_NAME    .UNIT     VALUE                         : DESCRIPTION
#_______________________________________________________________________________
SET                .         D7020_D                       : 
OTHER              .         Kedr.exe версия 2.1.2.32      : 
OTHER_10           .         TM.GRD = 0.00404*TM$.UE + 0.07: 
OTHER_11           .         MN.ATM = (6.33279e-006*TM.GRD + 0.02401)*(MN$.UE + 2.72*TM.GRD + -2018): 
OTHER_12           .         GK.MKR/H = GK$.UE / 43.5489 + 0: 
OTHER_13           .         RES.SM = 0.00476*CRES.UE - 1.51709: 
OTHER_14           .         PL.GSM3 = 0 + 0 * (PL.UE / 1) +  0 * (PL.UE / 1)^2: 
OTHER_15           .         Постоянная времени ГГП = 6 сек: 
OTHER_16           .         Постоянная времени ГК = 6 сек : 
OTHER_2            .         KedrData.dll версия 3.2.2.14  : 
OTHER_3            .         LasInf.dll версия 3.2.0.13    : 
OTHER_4            .         Драйвер версия 1.2.0.5        : 
OTHER_5            .         Прибор_ КСА-M1                : 
OTHER_6            .         Номер прибора_ 155+р204       : 
OTHER_7            .         Режим_ КСА-М1 + ГГП + Резистивиметр: 
OTHER_8            .         Форма_ 223\2                  : 
OTHER_9            .         Тарировки_                    : 
PROJECT_UPGRADE_TIME .         2021-03-18T21_24_50           : 
TLFamily_CRES      .                                       : 
TLFamily_DEPT      .         Measured Depth                : 
TLFamily_GK        .         Gamma Ray                     : 
TLFamily_GK$       .                                       : 
TLFamily_LM        .         Casing Collar locator         : 
TLFamily_METKA     .                                       : 
TLFamily_MN        .                                       : 
TLFamily_MN$       .                                       : 
TLFamily_PL        .                                       : 
TLFamily_PL_2      .                                       : 
TLFamily_RCOR      .                                       : 
TLFamily_RES       .         Mud Resistivity               : 
TLFamily_SPID      .         Spontaneous Potential         : 
TLFamily_STD       .                                       : 
TLFamily_TIME      .         Time                          : 
TLFamily_TM        .         Temperature                   : 
TLFamily_TM$       .         Temperature                   : 
TLFamily_VGD       .         Gas Volume                    : 
group              .         prim                          : 
~Curve Information
#_______________________________________________________________________________
#
#LOGNAME           .UNIT     LOG_ID                        : DESCRIPTION
#_______________________________________________________________________________
DEPT               .M                                      : 1 Глубина, м -    0.0 см 
CRES               .UE                                     : 9 Проводимость, усл.ед. -  222.0 см 
GK                 .MKR/H                                  : 16 Гамма-активность, мкр./ч -  106.0 см 
GK$                .UE                                     : 13 Гамма-активность, усл.ед. -  106.0 см 
LM                 .                                       : 11 Локатор муфт,  -   16.0 см 
METKA              .                                       : 3 Метки,  -    0.0 см 
MN                 .ATM                                    : 15 Давление, атм. -  160.0 см 
MN$                .UE                                     : 7 Давление, усл.ед. -  160.0 см 
PL                 .UE                                     : 10 Плотность, усл.ед. -  270.0 см 
PL_2               .GSM3                                   : 18 Плотность, г./см3 -  270.0 см 
RCOR               .CM/KM                                  : 5 Коррекция по ролику, см/км -    0.0 см 
RES                .SM                                     : 17 Проводимость,  -  222.0 см 
SPID               .M/H                                    : 2 Скорость, м/час -    0.0 см 
STD                .                                       : 12 Приток,  -  170.0 см 
TIME               .S                                      : 4 Время, сек -    0.0 см 
TM                 .GRD                                    : 14 Температура, °C -  180.0 см 
TM$                .UE                                     : 6 Температура, усл.ед. -  180.0 см 
VGD                .                                       : 8 Влагомер,  -  170.0 см 
~Ascii
# ...
2697.400074 1222       10.43      451        53         0          247.673    12083      14         0          0          4.3003     510        9078       11486.42   46.381     11463      6665      
2697.600074 1223       10.36      448        56         0          247.728    12085      14         0          0          4.3035     545        9076       11487.74   46.37      11460      6665      
2697.800074 1222       10.35      454        66         0          247.734    12085      14         0          0          4.2996     533        9074       11488.99   46.356     11457      6664      
2698.000075 1223       10.7       482        56         0          247.762    12086      14         0          0          4.3028     580        9072       11490.3    46.344     11454      6662      
2698.200075 1220       10.84      472        52         0          247.773    12087      14         0          0          4.2901     530        9070       11491.6    46.334     11451      6662      
2698.400075 1220       10.78      467        50         0          247.801    12088      14         0          0          4.2901     540        9068       11492.89   46.328     11450      6663      
2698.600076 1218       10.5       423        58         0          247.82     12089      14         0          0          4.2822     580        9070       11494.18   46.32      11448      6662      
2698.800076 1220       10.11      423        51         0          247.845    12090      13         0          0          4.2901     522        9070       11495.49   46.316     11447      6661      
2699.000076 1220       9.87       413        44         0          247.843    12090      14         0          0          4.2901     545        9070       11496.8    46.316     11447      6662      
2699.200076 1220       9.68       413        51         0          247.903    12093      14         0          0          4.2901     522        9070       11498.11   46.304     11444      6663      
2699.400077 1221       9.83       450        43         0          247.89     12092      14         0          0          4.2949     580        9070       11499.41   46.294     11441      6661      
2699.600077 1221       10.07      450        43         0          247.938    12094      14         0          0          4.2933     540        9068       11500.71   46.292     11441      6663      
2699.800077 1220       10.5       486        45         0          247.92     12093      15         0          0          4.2909     533        9068       11501.99   46.284     11439      6662      
2700.000078 1218       10.83      486        48         0          247.96     12095      15         0          0          4.279      580        9066       11503.3    46.278     11438      6663      
2700.200078 1219       11.29      527        50         1          247.984    12096      14         0          0          4.2869     580        9066       11505.2    46.271     11436      6662      
2700.400078 1221       11.7       527        43         0          248.007    12097      14         0          0          4.2949     580        9064       11506.51   46.268     11435      6661      
2700.600079 1220       11.71      506        49         0          248.043    12098      13         0          0          4.2901     540        9063       11507.8    46.259     11433      6662      
2700.800079 1220       11.66      506        70         0          248.03     12098      14         0          0          4.2925     510        9061       11509.08   46.255     11432      6660      
2701.000079 1219       11.16      444        61         0          248.053    12099      14         0          0          4.2846     580        9059       11510.39   46.248     11430      6661      
2701.200079 1219       10.45      421        55         0          248.088    12100      14         0          0          4.2853     580        9058       11511.7    46.24      11428      6662      
2701.40008 1219       10         416        50         0          248.118    12102      14         0          0          4.2853     580        9058       11513.01   46.235     11427      6661      
2701.60008 1218       9.86       430        54         0          248.149    12103      13         0          0          4.2806     580        9058       11514.32   46.235     11427      6662      
2701.80008 1219       9.87       430        55         0          248.148    12103      13         0          0          4.2847     533        9055       11515.63   46.227     11425      6662      
2702.000081 1219       10.53      583        49         0          248.175    12104      14         0          0          4.2838     510        9055       11516.95   46.22      11423      6660      
2702.200081 1218       11.95      583        68         0          248.195    12105      14         0          0          4.2806     580        9055       11518.26   46.211     11421      6660      
2702.400081 1217       12.8       602        64         0          248.234    12107      13         0          0          4.2782     580        9054       11519.51   46.207     11420      6661      
2702.600082 1219       13.31      602        48         0          248.242    12107      14         0          0          4.2853     545        9052       11520.82   46.196     11417      6662      
2702.800082 1218       13.17      557        51         0          248.265    12108      14         0          0          4.2806     580        9053       11522.08   46.195     11417      6661      
2703.000082 1218       12.98      557        64         0          248.265    12108      14         0          0          4.2806     580        9053       11523.37   46.185     11415      6662      
2703.200083 1218       13.34      615        48         0          248.312    12110      14         0          0          4.279      557        9052       11524.69   46.184     11414      6661      
2703.400083 1218       13.73      615        45         0          248.336    12111      14         0          0          4.2806     580        9050       11525.96   46.174     11412      6660      
2703.600083 1216       13.15      532        96         0          248.343    12111      14         0          0          4.271      510        9048       11527.25   46.17      11411      6661      
2703.800083 1217       12.68      532        3800       0          248.359    12112      14         0          0          4.2743     568        9046       11528.58   46.165     11410      6660      
2704.000084 1218       10.93      389        1507       0          248.386    12113      14         0          0          4.2806     510        9043       11529.89   46.158     11408      6660      
2704.200084 1217       9.93       389        401        0          248.406    12114      14         0          0          4.2742     580        9044       11531.2    46.154     11407      6659      
2704.400084 1216       9.03       348        87         0          248.412    12114      14         0          0          4.2727     580        9044       11532.51   46.148     11405      6658      
2704.600085 1215       8.53       348        51         0          248.454    12116      14         0          0          4.2676     580        9044       11533.8    46.144     11405      6660      
2704.800085 1216       8.26       348        43         0          248.486    12117      13         0          0          4.2711     510        9043       11535.09   46.146     11405      6661      
2705.000085 1216       8.07       335        62         0          248.491    12118      14         0          0          4.269      580        9042       11536.39   46.138     11403      6660      
2705.200085 1216       7.74       323        84         0          248.524    12119      14         0          0          4.2711     580        9041       11537.7    46.134     11402      6660      
2705.400086 1217       7.68       347        61         0          248.528    12119      14         0          0          4.2758     580        9040       11539.02   46.123     11399      6660      
