~Version
 VERS              .         2.0                           : CWLS LOG ASCII STANDARD - VERSION 2.0
 WRAP              .         NO                            : ONE LINE PER DEPTH STEP
 DLM               .         SPACE                         : DELIMITING CHARACTER(SPACE TAB OR COMMA)
~Well Information
#_______________________________________________________________________________
#
#PARAMETER_NAME    .UNIT     VALUE                         : DESCRIPTION
#_______________________________________________________________________________
STRT               .M        2648.2                        : First reference value
STOP               .M        2758.600166                   : Last reference value
STEP               .M        0.2000003                     : Step increment
NULL               .         -9999                         : Missing value
COMP               .                                       : Company
WELL               .         616                           : Well name
FLD                .                                       : Field
LOC                .                                       : Location
CNTY               .                                       : County
STAT               .                                       : State
CTRY               .                                       : Country
SRVC               .                                       : Service Company
DATE               .                                       : Date
API                .                                       : API number
PROJECT_UPGRADE_TIME .         2021-03-18T21_24_50           : 
group              .         Good                          : 
~Parameter Information Block
#_______________________________________________________________________________
#
#PARAMETER_NAME    .UNIT     VALUE                         : DESCRIPTION
#_______________________________________________________________________________
SET                .         D7020_D                       : 
OTHER              .         Kedr.exe версия 2.1.2.32      : 
OTHER_10           .         TM.GRD = 0.00404*TM$.UE + 0.07: 
OTHER_11           .         MN.ATM = (6.33279e-006*TM.GRD + 0.02401)*(MN$.UE + 2.72*TM.GRD + -2018): 
OTHER_12           .         GK.MKR/H = GK$.UE / 43.5489 + 0: 
OTHER_13           .         RES.SM = 0.00476*CRES.UE - 1.51709: 
OTHER_14           .         PL.GSM3 = 0 + 0 * (PL.UE / 1) +  0 * (PL.UE / 1)^2: 
OTHER_15           .         Постоянная времени ГГП = 6 сек: 
OTHER_16           .         Постоянная времени ГК = 6 сек : 
OTHER_2            .         KedrData.dll версия 3.2.2.14  : 
OTHER_3            .         LasInf.dll версия 3.2.0.13    : 
OTHER_4            .         Драйвер версия 1.2.0.5        : 
OTHER_5            .         Прибор_ КСА-M1                : 
OTHER_6            .         Номер прибора_ 155+р204       : 
OTHER_7            .         Режим_ КСА-М1 + ГГП + Резистивиметр: 
OTHER_8            .         Форма_ 223\2                  : 
OTHER_9            .         Тарировки_                    : 
PROJECT_UPGRADE_TIME .         2021-03-18T21_24_50           : 
TLFamily_CRES      .                                       : 
TLFamily_DEPT      .         Measured Depth                : 
TLFamily_GK        .         Gamma Ray                     : 
TLFamily_GK$       .                                       : 
TLFamily_LM        .         Casing Collar locator         : 
TLFamily_METKA     .                                       : 
TLFamily_MN        .                                       : 
TLFamily_MN$       .                                       : 
TLFamily_PL        .                                       : 
TLFamily_PL_2      .                                       : 
TLFamily_RCOR      .                                       : 
TLFamily_RES       .         Mud Resistivity               : 
TLFamily_SPID      .         Spontaneous Potential         : 
TLFamily_STD       .                                       : 
TLFamily_TIME      .         Time                          : 
TLFamily_TM        .         Temperature                   : 
TLFamily_TM$       .         Temperature                   : 
TLFamily_VGD       .         Gas Volume                    : 
group              .         prim                          : 
~Curve Information
#_______________________________________________________________________________
#
#LOGNAME           .UNIT     LOG_ID                        : DESCRIPTION
#_______________________________________________________________________________
DEPT               .M                                      : 1 Глубина, м -    0.0 см 
CRES               .UE                                     : 9 Проводимость, усл.ед. -  222.0 см 
GK                 .MKR/H                                  : 16 Гамма-активность, мкр./ч -  106.0 см 
GK$                .UE                                     : 13 Гамма-активность, усл.ед. -  106.0 см 
LM                 .                                       : 11 Локатор муфт,  -   16.0 см 
METKA              .                                       : 3 Метки,  -    0.0 см 
MN                 .ATM                                    : 15 Давление, атм. -  160.0 см 
MN$                .UE                                     : 7 Давление, усл.ед. -  160.0 см 
PL                 .UE                                     : 10 Плотность, усл.ед. -  270.0 см 
PL_2               .GSM3                                   : 18 Плотность, г./см3 -  270.0 см 
RCOR               .CM/KM                                  : 5 Коррекция по ролику, см/км -    0.0 см 
RES                .SM                                     : 17 Проводимость,  -  222.0 см 
SPID               .M/H                                    : 2 Скорость, м/час -    0.0 см 
STD                .                                       : 12 Приток,  -  170.0 см 
TIME               .S                                      : 4 Время, сек -    0.0 см 
TM                 .GRD                                    : 14 Температура, °C -  180.0 см 
TM$                .UE                                     : 6 Температура, усл.ед. -  180.0 см 
VGD                .                                       : 8 Влагомер,  -  170.0 см 
~Ascii
# ...
2689.200061 1230       7.96       340        74         0          246.803    12044      14         0          0          4.3377     545        9195       11432.59   46.914     11595      6669      
2689.400062 1231       7.85       332        75         0          246.906    12048      14         0          0          4.3417     580        9192       11433.89   46.902     11592      6670      
2689.600062 1227       7.55       315        54         0          246.92     12049      14         0          0          4.325      580        9189       11435.14   46.88      11587      6668      
2689.800062 1230       7.39       315        43         0          246.965    12051      14         0          0          4.3361     533        9186       11436.46   46.864     11583      6668      
2690.000063 1230       7.47       329        37         0          246.988    12052      14         0          0          4.3377     533        9185       11437.77   46.841     11577      6669      
2690.200063 1229       7.6        350        23         1          246.985    12052      14         0          0          4.3345     580        9182       11439.74   46.828     11574      6671      
2690.400063 1229       8.05       371        105        0          247.003    12053      14         0          0          4.3345     510        9179       11440.99   46.809     11569      6668      
2690.600064 1230       8.31       376        102        0          247.029    12054      13         0          0          4.3377     510        9172       11442.3    46.785     11563      6667      
2690.800064 1229       8.47       376        99         0          247.039    12055      14         0          0          4.3338     580        9166       11443.62   46.767     11559      6666      
2691.000064 1229       8.51       365        88         0          247.073    12056      14         0          0          4.333      510        9162       11444.86   46.752     11555      6668      
2691.200064 1229       8.35       360        88         0          247.095    12057      15         0          0          4.333      580        9157       11446.18   46.738     11551      6669      
2691.400065 1228       8.82       410        57         0          247.085    12057      13         0          0          4.329      580        9153       11447.49   46.72      11547      6667      
2691.600065 1229       9.15       418        69         0          247.116    12058      13         0          0          4.331      580        9150       11448.73   46.704     11543      6668      
2691.800065 1228       9.85       459        70         0          247.147    12059      14         0          0          4.3282     580        9149       11450.04   46.694     11541      6660      
2692.000066 1224       10.18      459        61         0          247.187    12061      13         0          0          4.3091     580        9147       11451.35   46.682     11538      6665      
2692.200066 1223       10.15      439        92         0          247.207    12062      14         0          0          4.3044     510        9146       11452.64   46.68      11537      6666      
2692.400066 1225       10.1       435        101        0          247.198    12062      14         0          0          4.3155     533        9145       11453.94   46.675     11536      6666      
2692.600067 1226       9.97       428        7184       0          247.225    12063      13         0          0          4.3163     580        9144       11455.25   46.665     11533      6666      
2692.800067 1226       9.81       409        2807       0          247.257    12064      15         0          0          4.3187     580        9140       11456.57   46.661     11532      6666      
2693.000067 1227       9.56       405        716        0          247.28     12065      14         0          0          4.3218     580        9136       11457.82   46.651     11530      6666      
2693.200067 1225       9.41       401        150        0          247.29     12065      13         0          0          4.3139     568        9133       11459.13   46.643     11528      6666      
2693.400068 1225       9.28       398        83         0          247.325    12067      14         0          0          4.3139     510        9130       11460.44   46.627     11524      6666      
2693.600068 1227       9.28       414        75         0          247.322    12067      13         0          0          4.3234     580        9124       11461.71   46.616     11521      6666      
2693.800068 1225       9.39       414        130        0          247.344    12068      14         0          0          4.3147     553        9119       11463      46.597     11517      6667      
2694.000069 1225       9.34       396        97         0          247.368    12069      13         0          0          4.3139     580        9111       11464.3    46.578     11512      6667      
2694.200069 1225       9.22       396        131        0          247.391    12070      14         0          0          4.3139     580        9111       11465.6    46.572     11510      6667      
2694.400069 1224       9.14       393        198        0          247.429    12072      13         0          0          4.3085     545        9107       11466.87   46.566     11509      6667      
2694.60007 1225       9.08       393        115        0          247.437    12072      14         0          0          4.3123     580        9104       11468.19   46.547     11504      6666      
2694.80007 1224       9.17       411        52         0          247.455    12073      13         0          0          4.3076     580        9104       11469.5    46.542     11503      6667      
2695.00007 1223       9.31       411        41         0          247.463    12073      14         0          0          4.3044     580        9100       11470.81   46.527     11499      6666      
2695.200071 1223       9.74       453        42         0          247.492    12074      14         0          0          4.3036     560        9097       11472.08   46.526     11499      6665      
2695.400071 1223       10.06      453        45         0          247.504    12075      14         0          0          4.3044     510        9096       11473.43   46.518     11497      6665      
2695.600071 1224       10.43      480        55         0          247.527    12076      15         0          0          4.3091     556        9094       11474.69   46.499     11492      6666      
2695.800071 1224       10.73      480        54         0          247.542    12077      13         0          0          4.3091     580        9093       11476      46.486     11489      6666      
2696.000072 1223       10.85      477        103        0          247.581    12078      13         0          0          4.3044     510        9091       11477.3    46.471     11485      6663      
2696.200072 1223       10.9       477        81         0          247.571    12078      15         0          0          4.3028     580        9087       11478.6    46.441     11478      6663      
2696.400072 1221       10.67      453        46         0          247.615    12080      14         0          0          4.2949     545        9086       11479.87   46.426     11474      6663      
2696.600073 1221       10.54      453        39         0          247.65     12082      15         0          0          4.2949     521        9084       11481.18   46.417     11472      6663      
2696.800073 1222       10.47      453        27         0          247.637    12081      14         0          0          4.2973     580        9083       11482.49   46.407     11469      6664      
2697.000073 1222       10.44      453        22         0          247.66     12082      13         0          0          4.3004     580        9080       11483.74   46.398     11467      6664      
2697.200073 1223       10.44      455        61         0          247.691    12083      15         0          0          4.3044     580        9078       11485.05   46.388     11465      6664      
