~Version
 VERS              .         2.0                           : CWLS LOG ASCII STANDARD - VERSION 2.0
 WRAP              .         NO                            : ONE LINE PER DEPTH STEP
 DLM               .         SPACE                         : DELIMITING CHARACTER(SPACE TAB OR COMMA)
~Well Information
#_______________________________________________________________________________
#
#PARAMETER_NAME    .UNIT     VALUE                         : DESCRIPTION
#_______________________________________________________________________________
STRT               .M        2310.8                        : First reference value
STOP               .M        2792.2                        : Last reference value
STEP               .M        0.2                           : Step increment
NULL               .         -9999                         : Missing value
COMP               .                                       : Company
WELL               .         616                           : Well name
FLD                .                                       : Field
LOC                .                                       : Location
CNTY               .                                       : County
STAT               .                                       : State
CTRY               .                                       : Country
SRVC               .                                       : Service Company
DATE               .                                       : Date
API                .                                       : API number
PROJECT_UPGRADE_TIME .         2021-03-18T21_24_50           : 
group              .         Good                          : 
~Parameter Information Block
#_______________________________________________________________________________
#
#PARAMETER_NAME    .UNIT     VALUE                         : DESCRIPTION
#_______________________________________________________________________________
SET                .         D2660_D                       : 
OTHER              .         Программное обеспечение станции MONITOR-386EX 25/12/99 15_08_10   BGF V50 26/12/00 07_26_01   3.1_SNGF___BGF_N_092085: 
OTHER_10           .         Тарировки_                    : 
OTHER_2            .         Kedr.exe версия 3.3.2.32      : 
OTHER_3            .         KedrData.dll версия 3.3.2.17  : 
OTHER_4            .         Драйвер версия 2.1.0.1        : 
OTHER_5            .         Мнемоники версия 3.3 S        : 
OTHER_6            .         Прибор_ ПС                    : 
OTHER_7            .         Номер прибора_ 348\072        : 
OTHER_8            .         Режим_ ПС                     : 
OTHER_9            .         Форма_ ПС                     : 
PROJECT_UPGRADE_TIME .         2021-03-18T21_24_49           : 
TLFamily_DEPT      .         Measured Depth                : 
TLFamily_METKA     .                                       : 
TLFamily_PS        .         Spontaneous Potential         : 
TLFamily_RCOR      .                                       : 
TLFamily_SPID      .         Spontaneous Potential         : 
TLFamily_TENS      .         Cable Tension                 : 
TLFamily_TIME      .         Time                          : 
group              .         prim                          : 
~Curve Information
#_______________________________________________________________________________
#
#LOGNAME           .UNIT     LOG_ID                        : DESCRIPTION
#_______________________________________________________________________________
DEPT               .M                                      : 1 Глубина, м -    0.0 см 
METKA              .                                       : 3 Метки,  -    0.0 см 
PS                 .mV                                     : 7 ПС, мВ - 1210.0 см 
RCOR               .CM/KM                                  : 5 Коррекция по ролику, см/км -    0.0 см 
SPID               .M/H                                    : 2 Скорость, м/час -    0.0 см 
TENS               .T                                      : 6 Натяжение кабеля, т -    0.0 см 
TIME               .S                                      : 4 Время, сек -    0.0 см 
~Ascii
# ...
2685.2     0          548.85     -360       -2019      0          30049.92  
2685.4     0          548.72     -360       -1925      0          30049.56  
2685.6     0          549.97     -360       -1954      0          30049.21  
2685.8     0          549.16     -360       -1993      0          30048.86  
2686       0          548.62     -360       -2050      0          30048.49  
2686.2     0          548.66     -360       -2048      0          30048.13  
2686.4     0          548.89     -360       -2039      0          30047.78  
2686.6     0          548.57     -360       -1980      0          30047.42  
2686.8     0          548.45     -360       -1980      0          30047.05  
2687       0          548.9      -360       -1980      0          30046.71  
2687.2     0          548.62     -360       -1982      0          30046.37  
2687.4     0          548.5      -360       -1995      0          30046     
2687.6     0          548.71     -360       -2050      0          30045.63  
2687.8     0          549        -360       -2048      0          30045.27  
2688       0          548.1      -360       -2037      0          30044.92  
2688.2     0          548.78     -360       -1980      0          30044.57  
2688.4     0          548.29     -360       -1980      0          30044.22  
2688.6     0          548.84     -360       -1980      0          30043.87  
2688.8     0          548.88     -360       -1980      0          30043.53  
2689       0          549.23     -360       -1981      0          30043.51  
2689.2     0          549.08     -360       -1988      0          30042.78  
2689.4     0          549.09     -360       -2034      0          30042.43  
2689.6     0          549.13     -360       -2049      0          30042.07  
2689.8     1          549.14     -360       -2043      0          30041.72  
2690       0          549.06     -358       -1999      0          30041.34  
2690.2     0          549.61     -358       -1981      0          30040.98  
2690.4     0          548.46     -358       -1985      0          30040.64  
2690.6     0          549.8      -358       -2015      0          30040.25  
2690.8     0          548.34     -358       -2039      0          30039.93  
2691       0          548.6      -358       -1980      0          30039.55  
2691.2     0          549.55     -358       -1980      0          30039.2   
2691.4     0          548.54     -358       -1981      0          30038.84  
2691.6     0          548.39     -358       -1983      0          30038.49  
2691.8     0          547.93     -358       -2003      0          30038.13  
2692       0          548.82     -358       -2050      0          30037.75  
2692.2     0          547.61     -358       -2050      0          30037.4   
2692.4     0          549.04     -358       -2048      0          30037.05  
2692.6     0          549.16     -358       -2039      0          30036.7   
2692.8     0          549.1      -358       -1981      0          30036.36  
2693       0          549.01     -358       -1944      0          30036.01  
2693.2     0          548.58     -358       -2050      0          30035.66  
2693.4     0          548.54     -358       -2048      0          30035.3   
2693.6     0          548.55     -358       -2033      0          30034.93  
2693.8     0          548.32     -358       -1933      0          30034.56  
2694       0          548.45     -358       -1960      0          30034.22  
2694.2     0          548.69     -358       -2042      0          30033.86  
2694.4     0          548.94     -358       -1999      0          30033.51  
2694.6     0          548.8      -358       -1981      0          30033.24  
2694.8     0          549.42     -358       -1986      0          30032.8   
2695       0          549.45     -358       -2019      0          30032.46  
2695.2     0          548.95     -358       -2049      0          30032.07  
2695.4     0          549.72     -358       -2045      0          30031.72  
2695.6     0          550.12     -358       -2020      0          30031.36  
2695.8     0          549.73     -358       -1990      0          30031.02  
2696       0          550.83     -358       -2046      0          30030.67  
2696.2     0          551.37     -358       -2048      0          30030.32  
2696.4     0          551.58     -358       -2038      0          30029.96  
2696.6     0          548.86     -358       -1973      0          30029.61  
2696.8     0          545.75     -358       -1947      0          30029.25  
2697       0          542.92     -358       -2045      0          30028.89  
2697.2     0          539.43     -358       -2013      0          30028.53  
2697.4     0          537.54     -358       -1992      0          30028.18  
2697.6     0          536.74     -358       -2046      0          30027.82  
2697.8     0          537.16     -358       -2020      0          30027.48  
2698       0          539.32     -358       -2001      0          30027.1   
2698.2     0          540.62     -358       -2106      0          30026.74  
2698.4     0          541.52     -358       -2085      0          30026.39  
2698.6     0          541.29     -358       -2036      0          30026.04  
2698.8     0          542.63     -358       -1960      0          30025.7   
2699       0          542.14     -358       -1948      0          30025.37  
2699.2     0          541.05     -358       -2050      0          30025.03  
2699.4     0          541.38     -358       -2050      0          30024.64  
2699.6     0          541.88     -358       -2049      0          30024.29  
2699.8     1          543.35     -358       -2046      0          30023.92  
2700       0          544.99     -314       -1976      0          30022.79  
2700.2     0          544.69     -314       -1954      0          30022.44  
2700.4     0          546.3      -314       -1920      0          30022.06  
2700.6     0          547.25     -314       -1923      0          30021.71  
2700.8     0          545.14     -314       -1943      0          30021.34  
2701       0          545.5      -314       -1970      0          30020.96  
2701.2     0          545.25     -314       -1917      0          30020.6   
2701.4     0          544.68     -314       -1899      0          30020.24  
2701.6     0          544.1      -314       -1866      0          30019.88  
2701.8     0          545.82     -314       -1910      0          30019.5   
2702       0          547.01     -314       -1845      0          30019.12  
2702.2     0          547.48     -314       -1754      0          30018.73  
2702.4     0          546.29     -314       -1913      0          30018.36  
2702.6     0          546.63     -314       -1864      0          30017.96  
2702.8     0          546.09     -314       -1790      0          30017.56  
2703       0          545.82     -314       -1790      0          30017.17  
2703.2     0          547.44     -314       -1792      0          30016.77  
2703.4     0          544.7      -314       -1810      0          30016.38  
2703.6     0          544.24     -314       -1860      0          30016     
2703.8     0          546.25     -314       -1860      0          30015.61  
2704       0          547.4      -314       -1859      0          30015.22  
2704.2     0          547.05     -314       -1850      0          30014.82  
2704.4     0          546.4      -314       -1794      0          30014.43  
2704.6     0          547.18     -314       -1825      0          30014.03  
2704.8     0          545.38     -314       -1844      0          30013.64  
2705       0          544.95     -314       -1790      0          30013.26  
2705.2     0          545.87     -314       -1790      0          30012.87  
2705.4     0          547.64     -314       -1791      0          30012.48  
2705.6     0          546.38     -314       -1797      0          30012.08  
2705.8     0          546.14     -314       -1853      0          30011.68  
