~Version
 VERS              .         2.0                           : CWLS LOG ASCII STANDARD - VERSION 2.0
 WRAP              .         NO                            : ONE LINE PER DEPTH STEP
 DLM               .         SPACE                         : DELIMITING CHARACTER(SPACE TAB OR COMMA)
~Well Information
#_______________________________________________________________________________
#
#PARAMETER_NAME    .UNIT     VALUE                         : DESCRIPTION
#_______________________________________________________________________________
STRT               .M        46                            : First reference value
STOP               .M        2756.6                        : Last reference value
STEP               .M        0.2                           : Step increment
NULL               .         -9999                         : Missing value
COMP               .                                       : Company
WELL               .         616                           : Well name
FLD                .                                       : Field
LOC                .                                       : Location
CNTY               .                                       : County
STAT               .                                       : State
CTRY               .                                       : Country
SRVC               .                                       : Service Company
DATE               .                                       : Date
API                .                                       : API number
PROJECT_UPGRADE_TIME .         2021-03-18T21_24_50           : 
group              .         Good                          : 
~Parameter Information Block
#_______________________________________________________________________________
#
#PARAMETER_NAME    .UNIT     VALUE                         : DESCRIPTION
#_______________________________________________________________________________
SET                .         D4390_D                       : 
OTHER              .         Запись производится в присутствии: 
OTHER_10           .         Максимальная температура      : 
OTHER_100          .         GK.FLT = 0.1*GR.UR/H[-1] + (1-0.1)*GR.UR/H[0]: 
OTHER_11           .         Тип промывочной жидкости      : 
OTHER_12           .         Сопротивление ПЖ (Ом*м) при 20°C: 
OTHER_13           .         Плотность ПЖ(г/см3)           : 
OTHER_14           .         Вязкость ПЖ(с)                : 
OTHER_15           .         Водоотдача ПЖ(см3/30мин)      : 
OTHER_16           .         Уровень ПЖ                    : 
OTHER_17           .         Нефть ПЖ (%)                  : 
OTHER_18           .         Барит ПЖ (%)                  : 
OTHER_19           .         Гематит ПЖ (%)                : 
OTHER_2            .         Заказчик ННСН  ЦДНГ-1         : 
OTHER_20           .         КМЦ ПЖ (%)                    : 
OTHER_21           .         Разгазирование ПЖ (да,нет)    : 
OTHER_22           .         Подъемник                     : 
OTHER_23           .         Лаборатория                   : 
OTHER_24           .         Тип кабеля                    : 
OTHER_25           .         Длина кабеля (м)              : 
OTHER_26           .         Цена последней метки          : 
OTHER_27           .         Цена контрольной метки        : 
OTHER_28           .         Диаметр долота (мм)           : 
OTHER_29           .         Глубина бурения (м)           : 
OTHER_3            .         Площадь                       : 
OTHER_30           .         Искусственный забой (м)       : 
OTHER_31           .         Диаметр колонны (мм)          : 
OTHER_32           .         Толщина колонны (мм)          : 
OTHER_33           .         Башмак колонны (м)            : 
OTHER_34           .         Диаметр НКТ (мм)              : 
OTHER_35           .         Толщина НКТ (мм)              : 
OTHER_36           .         Воронка НКТ (м)               : 
OTHER_37           .         Дата цементожа                : 
OTHER_38           .         Тип, количество(т) и плотность цемента: 
OTHER_39           .         Интервалы перфорации (м)      : 
OTHER_4            .         Категория                     : 
OTHER_40           .         Направление, диаметр (мм)     : 
OTHER_41           .         Направление, глубина (м)      : 
OTHER_42           .         Кондуктор, диаметр (мм)       : 
OTHER_43           .         Кондуктор, глубина (м)        : 
OTHER_44           .         Техническая колонна, диаметр (мм): 
OTHER_45           .         Техническая колонна, глубина (м): 
OTHER_46           .         Эксплуатационная колонна, диаметр (мм): 
OTHER_47           .         Эксплуатационная колонна, глубина (м): 
OTHER_48           .         Программа Кедр-02 версия 3.4  : 
OTHER_49           .         Операционная система Windows NT 5.1 build 2600 Service Pack 2: 
OTHER_5            .         Назначение исследований       : 
OTHER_50           .         Программное обеспечение станции MONITOR-386EX 25/12/99 15_08_10   BGF V54 20/09/05 15_32_17   3.3__BGF_9030071: 
OTHER_51           .         Kedr.exe версия 3.4.2.74      : 
OTHER_52           .         KedrData.dll версия 3.4.2.29  : 
OTHER_53           .         Мнемоники версия 3.18 S       : 
OTHER_54           .         Драйвер версия 2.1.1.4        : 
OTHER_55           .         LasInf.dll 4.3.0.35           : 
OTHER_56           .         Прибор_ КСА-Т4                : 
OTHER_57           .         Номер прибора_ 160            : 
OTHER_58           .         Режим_ КСА-Т4                 : 
OTHER_59           .         Форма_ С.А.Б.                 : 
OTHER_6            .         Альтитуда стола ротора        : 
OTHER_60           .         Тарировки_                    : 
OTHER_61           .         <_techsia_sc_> Дата тарировки температуры 25.05.2010: 
OTHER_62           .         Ручной ввод коэффициентов     : 
OTHER_63           .         TM.DEGC = 0.00402*RTM.E.ACP + -0.994: 
OTHER_64           .         <_techsia_sc_> Дата тарировки давления 25.05.2010: 
OTHER_65           .         Ручной ввод коэффициентов     : 
OTHER_66           .         MN.ATM = (2.27521e-006*TM.DEGC + 0.02078)*(RMN.E.ACP + 6.2*TM.DEGC + -1688): 
OTHER_67           .         <_techsia_sc_> Дата тарировки ГК 25.05.2010: 
OTHER_68           .         Ручной ввод коэффициентов     : 
OTHER_69           .         GR.UR/H = RGR.IMP/MIN / 45.5144: 
OTHER_7            .         Вид исследований 3  6         : 
OTHER_70           .         GK.FLT = 0.1*GR.UR/H[-1] + (1-0.1)*GR.UR/H[0]: 
OTHER_71           .         <_techsia_sc_> Дата тарировки температуры 25.05.2010: 
OTHER_72           .         Ручной ввод коэффициентов     : 
OTHER_73           .         TM.DEGC = 0.00402*RTM.E.ACP + -0.994: 
OTHER_74           .         <_techsia_sc_> Дата тарировки давления 25.05.2010: 
OTHER_75           .         Ручной ввод коэффициентов     : 
OTHER_76           .         MN.ATM = (2.27521e-006*TM.DEGC + 0.02078)*(RMN.E.ACP + 6.2*TM.DEGC + -1688): 
OTHER_77           .         <_techsia_sc_> Дата тарировки ГК 25.05.2010: 
OTHER_78           .         Ручной ввод коэффициентов     : 
OTHER_79           .         GR.UR/H = RGR.IMP/MIN / 45.5144: 
OTHER_8            .         Начало бурения интервала каротажа: 
OTHER_80           .         GK.FLT = 0.1*GR.UR/H[-1] + (1-0.1)*GR.UR/H[0]: 
OTHER_81           .         <_techsia_sc_> Дата тарировки температуры 25.05.2010: 
OTHER_82           .         Ручной ввод коэффициентов     : 
OTHER_83           .         TM.DEGC = 0.00402*RTM.E.ACP + -0.994: 
OTHER_84           .         <_techsia_sc_> Дата тарировки давления 25.05.2010: 
OTHER_85           .         Ручной ввод коэффициентов     : 
OTHER_86           .         MN.ATM = (2.27521e-006*TM.DEGC + 0.02078)*(RMN.E.ACP + 6.2*TM.DEGC + -1688): 
OTHER_87           .         <_techsia_sc_> Дата тарировки ГК 25.05.2010: 
OTHER_88           .         Ручной ввод коэффициентов     : 
OTHER_89           .         GR.UR/H = RGR.IMP/MIN / 45.5144: 
OTHER_9            .         Окончание бурения интервала каротажа: 
OTHER_90           .         GK.FLT = 0.1*GR.UR/H[-1] + (1-0.1)*GR.UR/H[0]: 
OTHER_91           .         <_techsia_sc_> Дата тарировки температуры 25.05.2010: 
OTHER_92           .         Ручной ввод коэффициентов     : 
OTHER_93           .         TM.DEGC = 0.00402*RTM.E.ACP + -0.994: 
OTHER_94           .         <_techsia_sc_> Дата тарировки давления 25.05.2010: 
OTHER_95           .         Ручной ввод коэффициентов     : 
OTHER_96           .         MN.ATM = (2.27521e-006*TM.DEGC + 0.02078)*(RMN.E.ACP + 6.2*TM.DEGC + -1688): 
OTHER_97           .         <_techsia_sc_> Дата тарировки ГК 25.05.2010: 
OTHER_98           .         Ручной ввод коэффициентов     : 
OTHER_99           .         GR.UR/H = RGR.IMP/MIN / 45.5144: 
PROJECT_UPGRADE_TIME .         2021-03-18T21_24_50           : 
TLFamily_CCLC      .                                       : 
TLFamily_DEPT      .         Measured Depth                : 
TLFamily_GK        .         Gamma Ray                     : 
TLFamily_GR        .         Gamma Ray                     : 
TLFamily_METKA     .                                       : 
TLFamily_MN        .                                       : 
TLFamily_RCOR      .                                       : 
TLFamily_RGR       .                                       : 
TLFamily_RMN       .                                       : 
TLFamily_RTEN      .                                       : 
TLFamily_RTM       .                                       : 
TLFamily_SPEE      .         Cable Speed                   : 
TLFamily_TIME      .         Time                          : 
TLFamily_TM        .         Temperature                   : 
group              .         prim                          : 
~Curve Information
#_______________________________________________________________________________
#
#LOGNAME           .UNIT     LOG_ID                        : DESCRIPTION
#_______________________________________________________________________________
DEPT               .M                                      : 1 Глубина, м -    0.0 см 
CCLC               .E.ACP                                  : 9 Локатор муфт,  -   20.0 см 
GK                 .FLT                                    : 14 Гамма-активность фильтрованная, мкр./ч -  110.0 см 
GR                 .UR/H                                   : 13 Гамма-активность, мкр./ч -  110.0 см 
METKA              .CU                                     : 3 Метки,  -    0.0 см 
MN                 .ATM                                    : 12 Давление, атм. -  160.0 см 
RCOR               .CM/KM                                  : 5 Коррекция по ролику, см/км -    0.0 см 
RGR                .IMP/MIN                                : 10 Гамма-активность, усл.ед. -  110.0 см 
RMN                .E.ACP                                  : 8 Давление, усл.ед. -  160.0 см 
RTEN               .T                                      : 6 Натяжение кабеля, т -    0.0 см 
RTM                .E.ACP                                  : 7 Температура, усл.ед. -  170.0 см 
SPEE               .M/H                                    : 2 Скорость, м/час -    0.0 см 
TIME               .S                                      : 4 Время, сек -    0.0 см 
TM                 .DEGC                                   : 11 Температура, °C -  170.0 см 
~Ascii
# ...
222.8      519        2.13       2.13       0          24.08      -92        97         2807       0.03       1799       1678       396.73     6.238     
223        526        2.13       2.13       0          24.157     -92        97         2811       0.03       1799       1677       397.14     6.24      
223.2      649        2.13       2.13       0          24.146     -92        97         2811       0.03       1800       1675       397.58     6.242     
223.4      531        2.13       2.13       0          24.154     -92        97         2811       0.03       1800       1674       398.02     6.242     
223.6      603        2.13       2.13       0          24.198     -92        97         2813       0.03       1800       1673       398.44     6.242     
223.8      542        1.96       1.96       0          24.199     -92        89         2813       0.03       1800       1673       398.88     6.243     
224        562        1.93       1.93       0          24.24      -92        88         2815       0.03       1801       1675       399.29     6.246     
224.2      541        1.93       1.93       0          24.241     -92        88         2815       0.03       1802       1676       399.75     6.249     
224.4      579        1.93       1.93       0          24.261     -92        88         2816       0.03       1803       1677       400.17     6.254     
224.6      511        1.93       1.93       0          24.27      -92        88         2816       0.03       1804       1675       400.59     6.258     
224.8      566        1.93       1.93       0          24.3       -92        88         2818       0.03       1805       1674       401.01     6.26      
225        506        2.22       2.22       0          24.329     -92        101        2819       0.03       1806       1673       401.45     6.266     
225.2      427        2.22       2.22       0          24.348     -92        101        2820       0.03       1807       1672       401.9      6.269     
225.4      447        2.22       2.22       0          24.36      -92        101        2821       0.03       1809       1671       402.32     6.278     
225.6      507        2.22       2.22       0          24.385     -92        101        2822       0.03       1810       1670       402.73     6.283     
225.8      513        2.22       2.22       0          24.413     -92        101        2823       0.03       1811       1669       403.15     6.288     
226        471        2.25       2.25       0          24.4       -92        103        2822       0.03       1813       1671       403.59     6.293     
226.2      535        2.39       2.39       2          24.449     -97        109        2825       0.03       1814       1673       404.13     6.297     
226.4      547        2.39       2.39       0          24.477     -97        109        2826       0.03       1815       1675       404.57     6.302     
226.6      548        2.39       2.39       0          24.477     -97        109        2826       0.03       1816       1675       404.98     6.307     
226.8      568        2.39       2.39       0          24.481     -97        109        2826       0.03       1817       1674       405.44     6.31      
227        626        2.39       2.39       0          24.535     -97        109        2829       0.03       1817       1673       405.86     6.31      
227.2      539        2.35       2.35       0          24.528     -97        107        2828       0.03       1818       1674       406.27     6.314     
227.4      515        2.33       2.33       0          24.541     -97        106        2829       0.03       1818       1674       406.7      6.314     
227.6      506        2.33       2.33       0          24.577     -97        106        2831       0.03       1819       1673       407.14     6.319     
227.8      509        2.33       2.33       0          24.612     -97        106        2832       0.03       1821       1675       407.57     6.325     
228        469        2.33       2.33       0          24.638     -97        106        2834       0.03       1821       1676       407.99     6.326     
228.2      4551       2.33       2.33       0          24.663     -97        106        2835       0.03       1822       1674       408.42     6.331     
228.4      3035       2.37       2.37       0          24.689     -97        108        2836       0.03       1823       1674       408.86     6.336     
228.6      1394       2.37       2.37       0          24.694     -97        108        2836       0.03       1824       1676       409.29     6.338     
228.8      982        2.37       2.37       0          24.728     -97        108        2838       0.03       1825       1676       409.71     6.342     
229        864        2.37       2.37       0          24.728     -97        108        2838       0.03       1826       1675       410.17     6.347     
229.2      651        2.37       2.37       0          24.748     -97        108        2839       0.03       1827       1674       410.59     6.351     
229.4      538        2.36       2.36       0          24.797     -97        108        2841       0.03       1827       1673       411        6.352     
229.6      490        2.22       2.22       0          24.807     -97        101        2842       0.03       1829       1674       411.43     6.357     
229.8      496        2.22       2.22       0          24.804     -97        101        2841       0.03       1831       1675       411.86     6.365     
230        437        2.22       2.22       0          24.853     -97        101        2844       0.03       1832       1676       412.3      6.371     
230.2      507        2.22       2.22       0          24.861     -97        101        2844       0.03       1834       1678       412.71     6.38      
230.4      554        2.22       2.22       0          24.862     -97        101        2844       0.03       1835       1679       413.13     6.385     
230.6      500        2.15       2.15       0          24.885     -97        98         2845       0.03       1837       1680       413.55     6.39      
230.8      509        2          2          0          24.915     -97        91         2846       0.03       1839       1681       413.96     6.398     
231        614        2          2          0          24.935     -97        91         2847       0.03       1840       1682       414.42     6.403     
231.2      680        2          2          0          24.948     -97        91         2848       0.03       1841       1682       414.84     6.408     
231.4      593        2          2          0          24.987     -97        91         2850       0.03       1842       1681       415.25     6.411     
231.6      497        2          2          0          24.984     -97        91         2850       0.03       1843       1679       415.72     6.414     
231.8      472        2.11       2.11       0          25.034     -97        96         2852       0.03       1844       1680       416.13     6.419     
232        405        2.24       2.24       0          25.054     -97        102        2853       0.03       1845       1681       416.55     6.423     
232.2      528        2.24       2.24       0          25.073     -97        102        2854       0.03       1846       1683       416.96     6.427     
232.4      472        2.24       2.24       0          25.076     -97        102        2854       0.03       1846       1686       417.38     6.429     
232.6      336        2.24       2.24       0          25.091     -97        102        2855       0.03       1848       1687       417.8      6.437     
232.8      435        2.24       2.24       0          25.119     -97        102        2856       0.03       1849       1687       418.18     6.439     
233        443        2.29       2.29       0          25.12      -97        104        2856       0.03       1851       1703       418.61     6.447     
