~Version
 VERS              .         2.0                           : CWLS LOG ASCII STANDARD - VERSION 2.0
 WRAP              .         NO                            : ONE LINE PER DEPTH STEP
 DLM               .         SPACE                         : DELIMITING CHARACTER(SPACE TAB OR COMMA)
~Well Information
#_______________________________________________________________________________
#
#PARAMETER_NAME    .UNIT     VALUE                         : DESCRIPTION
#_______________________________________________________________________________
STRT               .M        2658                          : First reference value
STOP               .M        2762                          : Last reference value
STEP               .M        0.2                           : Step increment
NULL               .         -9999                         : Missing value
COMP               .                                       : Company
WELL               .         616                           : Well name
FLD                .                                       : Field
LOC                .                                       : Location
CNTY               .                                       : County
STAT               .                                       : State
CTRY               .                                       : Country
SRVC               .                                       : Service Company
DATE               .                                       : Date
API                .                                       : API number
PROJECT_UPGRADE_TIME .         2021-03-18T21_24_50           : 
group              .         Good                          : 
~Parameter Information Block
#_______________________________________________________________________________
#
#PARAMETER_NAME    .UNIT     VALUE                         : DESCRIPTION
#_______________________________________________________________________________
SET                .         D8103_D                       : 
OTHER              .         Программное обеспечение станции MONITOR-386EX 25/12/99 15_08_10   BGF V52 22/08/01 16_56_30   4_SNGF_BGF_N_011645: 
OTHER_10           .         Тарировки_                    : 
OTHER_11           .         TM.GRD = 0.00412*TM$.UE + -2.13: 
OTHER_12           .         MN.ATM = (5.87652e-006*TM.GRD + 0.01993)*(MN$.UE + -2.72*TM.GRD + -1925): 
OTHER_13           .         GK.MKR/H = GK$.UE / 57.4657   : 
OTHER_2            .         Kedr.exe версия 3.4.2.51      : 
OTHER_3            .         KedrData.dll версия 3.4.2.24  : 
OTHER_4            .         Драйвер версия 2.1.0.2        : 
OTHER_5            .         Мнемоники версия 3.3 S        : 
OTHER_6            .         Прибор_ АКП4-90               : 
OTHER_7            .         Номер прибора_ 53             : 
OTHER_8            .         Режим_ АКП4_90                : 
OTHER_9            .         Форма_ ПК-53ое                : 
PROJECT_UPGRADE_TIME .         2021-03-18T21_24_50           : 
TLFamily_DEPT      .         Measured Depth                : 
TLFamily_GK        .         Gamma Ray                     : 
TLFamily_GK$       .                                       : 
TLFamily_LM        .         Casing Collar locator         : 
TLFamily_METKA     .                                       : 
TLFamily_METKA_1   .                                       : 
TLFamily_MN        .                                       : 
TLFamily_MN$       .                                       : 
TLFamily_RCOR      .                                       : 
TLFamily_SPID      .         Spontaneous Potential         : 
TLFamily_TENS      .         Cable Tension                 : 
TLFamily_TIME      .         Time                          : 
TLFamily_TM        .         Temperature                   : 
TLFamily_TM$       .         Temperature                   : 
group              .         prim                          : 
~Curve Information
#_______________________________________________________________________________
#
#LOGNAME           .UNIT     LOG_ID                        : DESCRIPTION
#_______________________________________________________________________________
DEPT               .M                                      : 1 Глубина, м -    0.0 см 
GK                 .MKR/H                                  : 13 Гамма-активность, мкр./ч -   65.0 см 
GK$                .UE                                     : 10 Гамма-активность, усл.ед. -   65.0 см 
LM                 .                                       : 9 Локатор муфт,  -   30.0 см 
METKA              .                                       : 3 Метки,  -    0.0 см 
METKA_1            .                                       : 14 Маркеры - 65 см 
MN                 .ATM                                    : 12 Давление, атм. -  140.0 см 
MN$                .UE                                     : 8 Давление, усл.ед. -  140.0 см 
RCOR               .CM/KM                                  : 5 Коррекция по ролику, см/км -    0.0 см 
SPID               .M/H                                    : 2 Скорость, м/час -    0.0 см 
TENS               .T                                      : 6 Натяжение кабеля, т -    0.0 см 
TIME               .S                                      : 4 Время, сек -    0.0 см 
TM                 .GRD                                    : 11 Температура, °C -  145.0 см 
TM$                .UE                                     : 7 Температура, усл.ед. -  145.0 см 
~Ascii
# ...
2699.6     7.32       420        131        0          0          247.316    14334      -25        -341       0.8        3535.51    54.974     13860     
2699.8     7.41       426        173        0          0          247.371    14337      -25        -335       0.8        3533.43    54.821     13823     
2700       7.47       429        65         0          0          247.358    14336      -25        -333       0.8        3531.25    54.705     13795     
2700.2     7.47       429        101        0          0          247.371    14337      -25        -335       0.8        3529.15    54.608     13771     
2700.4     7.64       439        204        0          0          247.371    14337      -25        -327       0.82       3527       54.474     13739     
2700.6     7.64       439        121        2          0          247.404    14339      -21        -335       0.8        3524.48    54.349     13708     
2700.8     7.45       428        126        0          0          247.411    14339      -21        -336       0.78       3522.34    54.246     13683     
2701       7.01       403        141        0          0          247.441    14340      -21        -339       0.8        3520.19    54.081     13643     
2701.2     7.32       421        126        0          0          247.471    14342      -21        -341       0.8        3518.12    53.969     13616     
2701.4     7.5        431        181        0          0          247.466    14342      -21        -334       0.8        3516.04    53.85      13587     
2701.6     7.57       435        129        0          0          247.511    14344      -21        -331       0.8        3513.86    53.733     13559     
2701.8     6.97       401        125        0          0          247.531    14345      -21        -335       0.8        3511.75    53.636     13535     
2702       5.98       344        210        0          0          247.531    14345      -21        -332       0.8        3509.61    53.474     13496     
2702.2     5.78       332        582        0          0          247.57     14347      -21        -337       0.8        3507.47    53.371     13471     
2702.4     5.75       330        923        0          0          247.67     14352      -21        -330       0.77       3505.36    53.239     13439     
2702.6     5.94       342        101        0          0          247.68     14353      -21        -332       0.8        3503.18    53.118     13410     
2702.8     7.45       428        82         0          0          247.69     14353      -21        -338       0.8        3501.16    52.997     13380     
2703       9.08       522        77         0          0          247.745    14356      -21        -333       0.8        3499.02    52.909     13359     
2703.2     8.96       515        87         0          0          247.703    14354      -21        -336       0.8        3496.95    52.803     13333     
2703.4     8.3        477        603        0          0          247.73     14355      -21        -338       0.8        3494.77    52.654     13297     
2703.6     7.61       437        700        0          0          247.79     14358      -21        -334       0.78       3492.6     52.572     13277     
2703.8     7.02       404        151        0          0          247.81     14359      -21        -336       0.8        3490.52    52.475     13254     
2704       8.09       465        508        0          0          247.81     14359      -21        -336       0.8        3488.35    52.431     13243     
2704.2     9.15       526        533        0          0          247.849    14361      -21        -340       0.8        3486.26    52.353     13224     
2704.4     8.58       493        983        0          0          247.849    14361      -21        -338       0.8        3484.15    52.265     13203     
2704.6     7.33       421        330        0          0          247.859    14361      -21        -342       0.8        3482       52.114     13166     
2704.8     6.73       387        294        0          0          247.909    14364      -21        -339       0.8        3479.92    51.992     13136     
2705       5.29       304        1040       0          0          247.909    14364      -21        -334       0.8        3477.82    51.887     13111     
2705.2     4.82       277        9222       0          0          247.919    14364      -21        -335       0.8        3475.64    51.805     13091     
2705.4     4.7        270        14741      0          0          247.954    14366      -21        -337       0.8        3473.52    51.718     13070     
2705.6     4.61       265        3000       0          0          247.969    14367      -21        -335       0.8        3471.43    51.629     13048     
2705.8     5.1        293        245        0          0          247.982    14368      -21        -330       0.8        3469.27    51.496     13016     
2706       5.31       305        265        0          0          248.029    14370      -21        -330       0.8        3467.19    51.418     12997     
2706.2     5.67       326        325        0          0          248.059    14372      -21        -329       0.8        3465.11    51.34      12978     
2706.4     6.76       389        411        0          0          248.049    14371      -21        -337       0.8        3462.93    51.273     12962     
2706.6     9.02       519        141        0          0          248.095    14373      -21        -333       0.8        3460.85    51.176     12938     
2706.8     10.28      591        122        0          0          248.109    14374      -21        -332       0.8        3458.68    51.066     12912     
2707       8.5        489        420        0          0          248.128    14375      -21        -336       0.8        3456.6     50.931     12879     
2707.2     7.24       416        125        0          0          248.158    14377      -21        -337       0.8        3454.52    50.812     12850     
2707.4     6.15       353        55         0          0          248.148    14376      -21        -333       0.8        3452.44    50.666     12815     
2707.6     5.85       336        102        0          0          248.158    14377      -21        -336       0.8        3450.29    50.581     12794     
2707.8     5.77       332        234        0          0          248.208    14379      -21        -340       0.8        3448.16    50.499     12774     
2708       5.9        339        315        0          0          248.223    14380      -21        -346       0.8        3446.02    50.396     12749     
2708.2     5.99       344        311        0          0          248.238    14381      -21        -341       0.8        3443.93    50.322     12731     
2708.4     6          345        209        0          0          248.288    14383      -21        -340       0.8        3441.87    50.206     12703     
2708.6     5.97       343        241        0          0          248.298    14384      -21        -341       0.8        3439.71    50.102     12678     
2708.8     5.95       342        368        0          0          248.288    14383      -21        -342       0.8        3437.57    50.05      12665     
2709       5.98       344        152        0          0          248.328    14385      -21        -343       0.8        3435.43    49.965     12644     
2709.2     6.19       356        41         1          0          248.354    14386      -21        -337       0.8        3433.35    49.889     12626     
2709.4     6.09       350        58         0          0          248.328    14385      -21        -331       0.8        3431.27    49.786     12601     
2709.6     6.37       366        200        0          0          248.368    14387      -21        -336       0.8        3429.13    49.673     12573     
2709.8     6.84       393        165        0          0          248.368    14387      -21        -328       0.8        3427.04    49.56      12546     
