~Version
 VERS              .         2.0                           : CWLS LOG ASCII STANDARD - VERSION 2.0
 WRAP              .         NO                            : ONE LINE PER DEPTH STEP
 DLM               .         SPACE                         : DELIMITING CHARACTER(SPACE TAB OR COMMA)
~Well Information
#_______________________________________________________________________________
#
#PARAMETER_NAME    .UNIT     VALUE                         : DESCRIPTION
#_______________________________________________________________________________
STRT               .M        2647.6                        : First reference value
STOP               .M        2755.199839                   : Last reference value
STEP               .M        0.1999997                     : Step increment
NULL               .         -9999                         : Missing value
COMP               .                                       : Company
WELL               .         616                           : Well name
FLD                .                                       : Field
LOC                .                                       : Location
CNTY               .                                       : County
STAT               .                                       : State
CTRY               .                                       : Country
SRVC               .                                       : Service Company
DATE               .                                       : Date
API                .                                       : API number
PROJECT_UPGRADE_TIME .         2021-03-18T21_24_50           : 
group              .         Good                          : 
~Parameter Information Block
#_______________________________________________________________________________
#
#PARAMETER_NAME    .UNIT     VALUE                         : DESCRIPTION
#_______________________________________________________________________________
SET                .         D7024_D                       : 
OTHER              .         Kedr.exe версия 2.1.2.32      : 
OTHER_10           .         TM.GRD = 0.00404*TM$.UE + 0.07: 
OTHER_11           .         MN.ATM = (6.33279e-006*TM.GRD + 0.02401)*(MN$.UE + 2.72*TM.GRD + -2018): 
OTHER_12           .         GK.MKR/H = GK$.UE / 43.5489 + 0: 
OTHER_13           .         RES.SM = 0.00476*CRES.UE - 1.51709: 
OTHER_14           .         PL.GSM3 = 0 + 0 * (PL.UE / 1) +  0 * (PL.UE / 1)^2: 
OTHER_15           .         Постоянная времени ГГП = 6 сек: 
OTHER_16           .         Постоянная времени ГК = 6 сек : 
OTHER_2            .         KedrData.dll версия 3.2.2.14  : 
OTHER_3            .         LasInf.dll версия 3.2.0.13    : 
OTHER_4            .         Драйвер версия 1.2.0.5        : 
OTHER_5            .         Прибор_ КСА-M1                : 
OTHER_6            .         Номер прибора_ 155+р204       : 
OTHER_7            .         Режим_ КСА-М1 + ГГП + Резистивиметр: 
OTHER_8            .         Форма_ 223\2                  : 
OTHER_9            .         Тарировки_                    : 
PROJECT_UPGRADE_TIME .         2021-03-18T21_24_50           : 
TLFamily_CRES      .                                       : 
TLFamily_DEPT      .         Measured Depth                : 
TLFamily_GK        .         Gamma Ray                     : 
TLFamily_GK$       .                                       : 
TLFamily_LM        .         Casing Collar locator         : 
TLFamily_METKA     .                                       : 
TLFamily_MN        .                                       : 
TLFamily_MN$       .                                       : 
TLFamily_PL        .                                       : 
TLFamily_PL_2      .                                       : 
TLFamily_RCOR      .                                       : 
TLFamily_RES       .         Mud Resistivity               : 
TLFamily_SPID      .         Spontaneous Potential         : 
TLFamily_STD       .                                       : 
TLFamily_TIME      .         Time                          : 
TLFamily_TM        .         Temperature                   : 
TLFamily_TM$       .         Temperature                   : 
TLFamily_VGD       .         Gas Volume                    : 
group              .         prim                          : 
~Curve Information
#_______________________________________________________________________________
#
#LOGNAME           .UNIT     LOG_ID                        : DESCRIPTION
#_______________________________________________________________________________
DEPT               .M                                      : 1 Глубина, м -    0.0 см 
CRES               .UE                                     : 9 Проводимость, усл.ед. -  222.0 см 
GK                 .MKR/H                                  : 16 Гамма-активность, мкр./ч -  106.0 см 
GK$                .UE                                     : 13 Гамма-активность, усл.ед. -  106.0 см 
LM                 .                                       : 11 Локатор муфт,  -   16.0 см 
METKA              .                                       : 3 Метки,  -    0.0 см 
MN                 .ATM                                    : 15 Давление, атм. -  160.0 см 
MN$                .UE                                     : 7 Давление, усл.ед. -  160.0 см 
PL                 .UE                                     : 10 Плотность, усл.ед. -  270.0 см 
PL_2               .GSM3                                   : 18 Плотность, г./см3 -  270.0 см 
RCOR               .CM/KM                                  : 5 Коррекция по ролику, см/км -    0.0 см 
RES                .SM                                     : 17 Проводимость,  -  222.0 см 
SPID               .M/H                                    : 2 Скорость, м/час -    0.0 см 
STD                .                                       : 12 Приток,  -  170.0 см 
TIME               .S                                      : 4 Время, сек -    0.0 см 
TM                 .GRD                                    : 14 Температура, °C -  180.0 см 
TM$                .UE                                     : 6 Температура, усл.ед. -  180.0 см 
VGD                .                                       : 8 Влагомер,  -  170.0 см 
~Ascii
# ...
2704.999914 1233       8.4        445        71         0          375.217    17270      14         0          0          4.352      557        10859      16207.55   55.345     13682      6699      
2705.199914 1233       9.31       445        57         0          375.278    17273      14         0          0          4.352      580        10857      16208.85   55.332     13679      6699      
2705.399913 1233       10.94      624        82         0          376.051    17305      14         0          0          4.352      640        10853      16210.11   55.317     13675      6700      
2705.599913 1234       12.59      624        61         0          375.737    17292      14         0          0          4.3568     510        10847      16211.42   55.309     13673      6698      
2705.799913 1236       13.29      604        70         0          374.688    17249      14         0          0          4.3649     580        10845      16212.74   55.302     13671      6701      
2705.999912 1233       13.57      604        47         0          374.225    17230      14         0          0          4.352      545        10844      16214.04   55.297     13670      6700      
2706.199912 1233       12.55      428        46         0          373.896    17216      14         0          0          4.3528     580        10843      16215.33   55.293     13669      6698      
2706.399912 1232       11.23      428        28         0          373.535    17202      14         0          0          4.3472     580        10840      16216.65   55.281     13666      6700      
2706.599911 1233       10.55      428        49         0          373.076    17183      14         0          0          4.3504     580        10838      16217.92   55.263     13662      6699      
2706.799911 1234       10.19      428        43         0          372.529    17161      14         0          0          4.3568     540        10837      16219.22   55.243     13657      6701      
2706.999911 1235       10.2       448        56         0          372.882    17175      14         0          0          4.3615     580        10834      16220.49   55.223     13652      6702      
2707.199911 1235       10.24      448        55         0          371.982    17138      14         0          0          4.3615     522        10827      16221.81   55.208     13648      6701      
2707.39991 1234       9.8        404        63         0          373.812    17214      14         0          0          4.3568     580        10825      16223.08   55.204     13647      6700      
2707.59991 1233       9.55       404        44         0          374.207    17230      14         0          0          4.354      580        10821      16224.35   55.191     13644      6699      
2707.79991 1232       9.91       458        50         0          375.797    17295      14         0          0          4.3472     545        10818      16225.68   55.18      13641      6699      
2707.999909 1233       10.2       458        54         0          375.988    17303      14         0          0          4.352      580        10813      16226.95   55.176     13640      6700      
2708.199909 1229       10.45      467        56         0          376.818    17337      14         0          0          4.3337     580        10812      16228.25   55.176     13640      6700      
2708.399909 1231       10.58      467        66         0          375.657    17289      14         0          0          4.3418     580        10809      16229.51   55.168     13638      6699      
2708.599908 1231       10.22      429        67         0          376.449    17322      14         0          0          4.344      580        10807      16230.84   55.163     13637      6700      
2708.799908 1230       10.1       443        65         0          375.876    17299      14         0          0          4.3393     557        10805      16232.18   55.161     13636      6701      
2708.999908 1229       10.28      456        63         1          376.732    17334      14         0          0          4.3336     510        10807      16233.51   55.151     13634      6700      
2709.199908 1232       10.47      478        65         0          375.743    17293      14         0          0          4.3472     568        10808      16234.78   55.135     13630      6701      
2709.399907 1224       10.71      478        57         0          375.175    17270      14         0          0          4.3092     580        10806      16236.13   55.114     13625      6701      
2709.599907 1221       10.82      474        67         0          374.353    17236      14         0          0          4.2954     550        10806      16237.37   55.099     13621      6701      
2709.799907 1234       10.75      465        78         0          374.167    17229      14         0          0          4.3554     580        10807      16238.67   55.084     13617      6700      
2709.999906 1232       10.7       461        88         0          373.58     17205      14         0          0          4.3472     510        10805      16239.94   55.063     13612      6703      
2710.199906 1231       10.64      461        73         1          374.133    17228      14         0          0          4.3409     570        10800      16241.89   55.046     13608      6701      
2710.399906 1232       10.5       442        62         0          373.106    17186      14         0          0          4.3452     522        10797      16243.22   55.036     13605      6702      
2710.599905 1228       10.33      442        65         0          372.363    17155      14         0          0          4.3295     556        10795      16244.5    55.019     13601      6702      
2710.799905 1230       10.16      430        71         0          373.678    17209      14         0          0          4.3377     580        10792      16245.8    55.002     13597      6700      
2710.999905 1229       10.02      430        90         0          374.695    17251      14         0          0          4.3345     580        10784      16247.11   54.977     13591      6700      
2711.199905 1228       9.77       415        89         0          375.385    17280      14         0          0          4.3282     580        10780      16248.37   54.961     13587      6700      
2711.399904 1230       9.66       416        88         1          376.063    17308      14         0          0          4.3393     510        10779      16249.71   54.951     13584      6698      
2711.599904 1228       9.66       421        73         0          377.48     17366      14         0          0          4.3266     580        10775      16251.05   54.942     13582      6699      
2711.799904 1227       9.85       464        65         0          373.484    17202      14         0          0          4.3255     568        10770      16252.33   54.929     13579      6702      
2711.999903 1226       10.47      485        54         0          373.601    17207      14         0          0          4.3187     522        10766      16253.67   54.921     13577      6700      
2712.199903 1227       10.85      497        79         0          374.392    17239      14         0          0          4.3248     540        10763      16254.98   54.916     13576      6701      
2712.399903 1227       11.13      497        185        0          374.855    17258      14         0          0          4.3234     510        10761      16256.27   54.909     13574      6701      
2712.599903 1228       11.14      478        186        1          375.597    17289      14         0          0          4.3282     580        10756      16257.54   54.903     13572      6701      
2712.799902 1227       11.06      478        207        0          376.062    17308      14         0          0          4.3234     510        10747      16258.83   54.882     13567      6702      
2712.999902 1227       10.78      430        154        0          375.966    17304      14         0          0          4.3234     580        10737      16260.11   54.869     13564      6699      
