~Version
 VERS              .         2.0                           : CWLS LOG ASCII STANDARD - VERSION 2.0
 WRAP              .         NO                            : ONE LINE PER DEPTH STEP
 DLM               .         SPACE                         : DELIMITING CHARACTER(SPACE TAB OR COMMA)
~Well Information
#_______________________________________________________________________________
#
#PARAMETER_NAME    .UNIT     VALUE                         : DESCRIPTION
#_______________________________________________________________________________
STRT               .M        8.21                          : First reference value
STOP               .M        2780.41                       : Last reference value
STEP               .M        0.2                           : Step increment
NULL               .         -9999                         : Missing value
COMP               .                                       : Company
WELL               .         616                           : Well name
FLD                .                                       : Field
LOC                .                                       : Location
CNTY               .                                       : County
STAT               .                                       : State
CTRY               .                                       : Country
SRVC               .                                       : Service Company
DATE               .                                       : Date
API                .                                       : API number
PROJECT_UPGRADE_TIME .         2021-03-18T21_24_50           : 
group              .         Good                          : 
~Parameter Information Block
#_______________________________________________________________________________
#
#PARAMETER_NAME    .UNIT     VALUE                         : DESCRIPTION
#_______________________________________________________________________________
SET                .         ULN_2                         : 
PROJECT_UPGRADE_TIME .         2021-03-18T21_24_50           : 
TLFamily_AK4       .                                       : 
TLFamily_ALFAK     .                                       : 
TLFamily_AMPL      .                                       : 
TLFamily_DEPTH     .         Measured Depth                : 
TLFamily_DK1       .                                       : 
TLFamily_DK2       .                                       : 
TLFamily_DTK       .         Compressional Slowness        : 
TLFamily_QCBL      .                                       : 
TLFamily_T1        .         Travel Time 1                 : 
TLFamily_T2        .         Travel Time 2                 : 
group              .         prim                          : 
~Curve Information
#_______________________________________________________________________________
#
#LOGNAME           .UNIT     LOG_ID                        : DESCRIPTION
#_______________________________________________________________________________
DEPTH              .M                                      : 0 Depth curve 
AK4                .                                       : 2 Амплитуда - Волна по колонне - Канал1 
ALFAK              .дБ/м                                   : 1 Затухание - Волна по колонне 
AMPL               .                                       : 8 Коэффициент усиления ВС 
DK1                .дБ                                     : 3 Кривая ослабления - Волна по колонне - Канал1 
DK2                .дБ                                     : 4 Кривая ослабления - Волна по колонне - Канал2 
DTK                .мкс/м                                  : 5 ДельтаТ - Волна по породе 
QCBL               .                                       : 9 Контакт цемент-колонна 
T1                 .мкс                                    : 6 Время пробега - Волна по породе - Канал1 
T2                 .мкс                                    : 7 Время пробега - Волна по породе - Канал2 
~Ascii
# ...
2577.81    3175.49    17.183     1          18.357     27.006     185.789    2          353.704    446.598   
2578.01    4053.873   19.823     1          16.014     27.003     186.489    2          352.407    445.528   
2578.21    4159.463   21.31      1          15.882     26.428     185.235    2          349.594    439.629   
2578.41    3697.337   22.05      1          17.095     27.954     183.755    2          347.514    434.457   
2578.61    2731.177   24.67      1          19.828     30.976     173.995    2          347.528    429.714   
2578.81    1846.845   24.021     1          23.364     35.374     171.304    2          350.385    433.685   
2579.01    1275.5     25.697     1          26.315     39.164     171.727    2          353.262    439.125   
2579.21    936.092    24.001     1          28.616     40.674     183.285    2          354.611    446.252   
2579.41    796.001    26.509     1          29.039     43.443     225.677    2          353.966    466.894   
2579.61    802.088    29.81      1          28.983     45.046     267.964    2          350.959    486.634   
2579.81    831.841    37.555     1          28.732     48.767     308.487    3          349.157    503.051   
2580.01    867.326    41.642     1          29.291     50.441     302.848    3          348.543    499.554   
2580.21    743.978    41.372     1          29.557     51.818     281.622    3          349.724    488.985   
2580.41    800.03     36.467     1          29.058     51.161     263.754    3          351.563    482.992   
2580.61    830.452    30.015     1          28.747     50.231     243.971    3          351.727    473.36    
2580.81    744.266    22.369     1          30.105     49.368     255.156    3          351.634    479.416   
2581.01    519.534    20.132     1          31.601     48.873     276.412    3          352.266    491.616   
2581.21    486.726    21.273     1          33.36      49.201     309.519    3          354.214    509.996   
2581.41    479.348    25.458     1          34.885     49.964     325.054    3          355.402    517.928   
2581.61    496.157    26.466     1          35.957     49.96      320.113    3          355.382    515.437   
2581.81    409.097    26.739     1          35.897     49.267     319.129    3          354.631    514.194   
2582.01    458.541    28.93      1          34.822     49.287     318.74     3          354.154    513.523   
2582.21    449.473    31.462     1          35.014     50.745     322.314    3          353.704    514.642   
2582.41    399.324    34.554     1          36.168     53.445     321.176    3          357.579    513.82    
2582.61    315.493    31.557     1          38.32      54.099     304.124    3          365.505    513.22    
2582.81    238.056    29.658     1          40.746     55.575     287.891    3          373.156    512.972   
2583.01    197.305    25.871     1          42.199     55.134     270.287    3          376.598    511.74    
2583.21    179.782    27.118     1          42.952     56.51      267.008    3          376.415    509.918   
2583.41    177.909    28.566     1          43.046     57.235     265.388    3          375.329    508.022   
2583.61    165.527    33.487     1          43.695     58.543     264.337    3          374.653    506.821   
2583.81    172.131    34.388     1          43.386     58.685     266.165    3          374.177    507.27    
2584.01    176.973    34.074     1          43.149     58.386     265.097    3          373.975    506.757   
2584.21    196.12     34.379     1          42.132     59.354     263.821    3          374.003    506.146   
2584.41    192.916    37.282     1          41.017     60.362     263.975    3          372.225    504.434   
2584.61    261.363    38.124     1          39.768     60.749     287.377    3          366.417    510.413   
2584.81    290.938    39.242     1          38.921     60.192     324.612    3          360.365    528.846   
2585.01    399.91     42.832     1          38.876     61.39      371.941    3          355.806    547.951   
2585.21    367.38     42.876     1          38.818     61.024     401.724    3          353.766    560.494   
2585.41    323.663    40.875     1          40.402     61.738     415.018    3          353.265    560.773   
2585.61    197.824    37.152     1          42.578     61.932     386.434    3          367.758    560.923   
2585.81    136.091    37.693     1          44.46      63.23      368.79     3          377.835    561.151   
2586.01    136.173    39.712     1          44.402     64.788     352.477    3          389.756    563.962   
2586.21    133.263    43.02      1          43.586     64.559     363.315    3          381.794    561.173   
2586.41    163.197    44.092     1          42.772     64.302     357.463    3          375.178    552.521   
2586.61    176.944    44.16      1          41.237     63.34      360.282    3          365.726    542.942   
2586.81    266.127    42.409     1          39.009     62.488     356.947    3          359.632    537.643   
2587.01    323.058    44.075     1          37.267     63.332     362.224    3          356.681    537.468   
2587.21    427.833    46.473     1          35.563     62.166     363.238    3          352.93     536.714   
2587.41    634.567    50.408     1          32.842     60.227     367.972    3          351.463    535.449   
2587.61    1025.108   50.372     1          28.697     54.26      339.113    3          352.151    521.72    
2587.81    1467.691   47.02      1          24.99      48.416     291.87     3          352.746    498.95    
2588.01    1651.818   39.454     1          23.717     41.766     233.836    3          352.865    470.052   
2588.21    1693.937   33.298     1          23.487     38.459     201.48     2          352.895    453.891   
2588.41    1559.93    29.943     1          24.196     37.574     186.386    2          352.844    446.036   
2588.61    1555.424   27.453     1          24.221     37.947     186.643    2          353.461    446.782   
2588.81    1466.053   26.883     1          24.733     38.174     187.288    2          353.634    447.277   
2589.01    1331.197   23.757     1          25.683     37.562     188.508    2          353.629    447.882   
2589.21    1136.978   21.87      1          27.044     37.979     187.751    2          353.421    447.296   
2589.41    970.794    21.466     1          28.315     39.048     187.026    2          352.788    446.3     
2589.61    896.364    22.162     1          29.014     40.095     187.24     2          353.259    446.878   
2589.81    870.336    24.114     1          29.264     41.321     192.391    2          351.891    447.531   
2590.01    788.208    24.695     1          30.191     42.539     217.551    2          351.845    449.238   
2590.21    770.82     27.325     1          30.383     44.046     247.11     2          351.939    458.513   
2590.41    689.776    28.433     1          31.348     45.517     259.832    2          353.489    463.806   
2590.61    726.808    29.646     1          31.818     45.679     264.308    2          353.596    475.999   
2590.81    632.347    26.816     1          33.155     45.601     273.059    2          353.678    486.054   
2591.01    553.344    26.786     1          34.42      46.899     296.118    2          352.8      499.879   
2591.21    424.369    27.275     1          35.535     49.173     306.184    2          352.577    505.668   
2591.41    406.491    31.122     1          35.875     51.438     304.907    2          351.977    504.43    
2591.61    408.98     35.112     1          35.822     53.332     304.021    2          352.726    504.736   
2591.81    418.638    40.753     1          35.614     54.202     305.744    2          353.316    506.187   
2592.01    454.766    42.022     1          34.962     54.182     308.826    3          353.737    508.149   
2592.21    480.988    40.85      1          34.465     53.147     312.293    3          353.216    509.362   
