~Version
 VERS              .         2.0                           : CWLS LOG ASCII STANDARD - VERSION 2.0
 WRAP              .         NO                            : ONE LINE PER DEPTH STEP
 DLM               .         SPACE                         : DELIMITING CHARACTER(SPACE TAB OR COMMA)
~Well Information
#_______________________________________________________________________________
#
#PARAMETER_NAME    .UNIT     VALUE                         : DESCRIPTION
#_______________________________________________________________________________
STRT               .M        12                            : First reference value
STOP               .M        2758.6                        : Last reference value
STEP               .M        0.2                           : Step increment
NULL               .         -9999                         : Missing value
COMP               .                                       : Company
WELL               .         616                           : Well name
FLD                .                                       : Field
LOC                .                                       : Location
CNTY               .                                       : County
STAT               .                                       : State
CTRY               .                                       : Country
SRVC               .                                       : Service Company
DATE               .                                       : Date
API                .                                       : API number
PROJECT_UPGRADE_TIME .         2021-03-18T21_24_50           : 
group              .         Good                          : 
~Parameter Information Block
#_______________________________________________________________________________
#
#PARAMETER_NAME    .UNIT     VALUE                         : DESCRIPTION
#_______________________________________________________________________________
SET                .         616ULN                        : 
PROJECT_UPGRADE_TIME .         2021-03-18T21_24_49           : 
TLFamily_AK4       .                                       : 
TLFamily_ALFAK     .                                       : 
TLFamily_AMPL      .                                       : 
TLFamily_DEPTH     .         Measured Depth                : 
TLFamily_DK1       .                                       : 
TLFamily_DK2       .                                       : 
TLFamily_DTK       .         Compressional Slowness        : 
TLFamily_QCBL      .                                       : 
TLFamily_T1        .         Travel Time 1                 : 
TLFamily_T2        .         Travel Time 2                 : 
group              .         prim                          : 
~Curve Information
#_______________________________________________________________________________
#
#LOGNAME           .UNIT     LOG_ID                        : DESCRIPTION
#_______________________________________________________________________________
DEPTH              .M                                      : 0 Depth curve 
AK4                .                                       : 2 Амплитуда - Волна по колонне - Канал1 
ALFAK              .дБ/м                                   : 1 Затухание - Волна по колонне 
AMPL               .                                       : 8 Коэффициент усиления ВС 
DK1                .дБ                                     : 3 Кривая ослабления - Волна по колонне - Канал1 
DK2                .дБ                                     : 4 Кривая ослабления - Волна по колонне - Канал2 
DTK                .мкс/м                                  : 5 ДельтаТ - Волна по породе 
QCBL               .                                       : 9 Контакт цемент-колонна 
T1                 .мкс                                    : 6 Время пробега - Волна по породе - Канал1 
T2                 .мкс                                    : 7 Время пробега - Волна по породе - Канал2 
~Ascii
# ...
377        3240.453   18.811     1          11.555     20.707     181.596    2          308.178    398.229   
377.2      3719.165   17.277     1          10.219     18.693     178.907    2          307.97     397.424   
377.4      4139.165   15.317     1          9.207      16.769     177.612    2          308.036    396.843   
377.6      4482.491   13.619     1          8.433      15.242     176.762    2          308.087    396.468   
377.8      4698.09    12.22      1          7.991      14.101     176.697    2          308.141    396.49    
378        4820.62    11.187     1          7.753      13.347     176.517    2          308.188    396.447   
378.2      4859.363   10.312     1          7.678      12.834     176.501    2          308.254    396.505   
378.4      4842.695   9.758      1          7.708      12.587     176.626    2          308.28     396.593   
378.6      4788.275   9.391      1          7.806      12.502     177.127    2          308.279    396.843   
378.8      4716.938   9.101      1          7.939      12.489     177.583    2          308.238    397.031   
379        4627.962   8.852      1          8.106      12.532     178.162    2          308.183    397.265   
379.2      4531.449   8.698      1          8.29       12.64      178.341    2          308.117    397.288   
379.4      4431.979   8.674      1          8.483      12.82      178.506    2          307.949    397.202   
379.6      4338.406   8.757      1          8.667      13.045     178.275    2          307.82     396.959   
379.8      4267.195   9.01       1          8.808      13.313     178.074    2          307.725    396.763   
380        4228.632   9.333      1          8.885      13.552     177.535    2          307.728    396.496   
380.2      4210.923   9.61       1          8.921      13.726     177.614    2          307.6      396.408   
380.4      4200.095   9.673      1          8.944      13.78      177.829    2          307.584    396.499   
380.6      4179.569   9.612      1          8.987      13.793     178.205    2          307.569    396.673   
380.8      4141.743   9.471      1          9.068      13.803     178.384    2          307.538    396.731   
381        4079.794   9.376      1          9.2        13.888     178.729    2          307.424    396.789   
381.2      4004.186   9.343      1          9.363      14.035     178.86     2          307.335    396.766   
381.4      3923.49    9.383      1          9.54       14.231     179.087    2          307.222    396.766   
381.6      3840.36    9.412      1          9.726      14.432     179.476    2          306.95     396.688   
381.8      3761.266   9.482      1          9.907      14.648     180.104    2          306.656    396.709   
382        3685.757   9.545      1          10.083     14.856     180.473    2          306.399    396.637   
382.2      3634.598   9.711      1          10.203     15.059     180.572    2          306.25     396.537   
382.4      3612.353   10.015     1          10.256     15.263     180.2      2          306.251    396.352   
382.6      3629.572   10.421     1          10.215     15.426     179.748    2          306.387    396.262   
382.8      3663.913   10.739     1          10.134     15.504     179.267    2          306.564    396.199   
383        3712.495   10.84      1          10.019     15.438     179.248    2          306.695    396.32    
383.2      3751.542   10.825     1          9.926      15.338     179.299    2          306.896    396.546   
383.4      3781.509   10.739     1          9.855      15.225     179.393    2          307.065    396.762   
383.6      3787.753   10.658     1          9.841      15.17      179.227    2          307.239    396.853   
383.8      3776.22    10.597     1          9.869      15.168     179.067    2          307.314    396.848   
384        3724.591   10.534     1          9.994      15.261     179.054    2          307.3      396.828   
384.2      3638.671   10.362     1          10.205     15.386     178.99     2          307.204    396.7     
384.4      3526.795   10.093     1          10.48      15.527     178.956    2          307.035    396.514   
384.6      3436.227   10.029     1          10.702     15.717     178.511    2          306.962    396.218   
384.8      3365.762   10.146     1          10.875     15.948     177.821    2          306.966    395.878   
385        3308.377   10.554     1          11.026     16.303     176.553    2          307.06     395.337   
385.2      3204.089   10.615     1          11.337     16.645     175.569    2          307.045    394.831   
385.4      3020.137   10.382     1          11.942     17.133     174.931    2          306.932    394.399   
385.6      2723.24    9.439      1          12.996     17.715     175.016    2          306.689    394.197   
385.8      2346.785   8.534      1          14.451     18.718     175.569    2          306.289    394.074   
386        1938.122   8.639      1          16.041     20.361     177.187    2          305.868    393.521   
386.2      1565.099   10.318     1          17.756     22.684     180.716    2          305.709    392.824   
386.4      1270.321   12.529     1          19.296     25.323     186.178    2          306.035    392.387   
386.6      1079.207   15.427     1          20.536     27.78      190.535    2          306.645    392.623   
386.8      974.432    17.831     1          21.274     29.72      192.579    2          307.563    393.192   
387        929.613    18.911     1          21.785     30.771     191.721    2          308.284    394.425   
387.2      985.918    19.421     1          21.588     31.061     189.662    2          308.6      396.014   
387.4      1136.609   20.358     1          20.761     30.708     187.064    2          308.217    397.825   
387.6      1372.219   21.459     1          19.296     30.413     184.473    2          307.568    398.434   
387.8      1635.765   22.765     1          17.787     29.812     183.236    2          306.778    398.396   
388        1936.178   24.117     1          16.153     28.854     182.753    2          306.208    397.586   
388.2      2205.941   23.587     1          14.767     27.204     181.701    2          305.879    396.73    
388.4      2422.396   21.708     1          13.776     25.273     179.236    2          305.86     395.479   
388.6      2571.337   19.138     1          13.241     23.065     177.739    2          305.867    394.737   
388.8      2715.908   16.671     1          12.758     21.093     176.827    2          305.893    394.307   
389        2855.089   14.384     1          12.325     19.517     176.953    2          305.931    394.408   
389.2      3000.281   13.373     1          11.896     18.583     176.691    2          305.998    394.344   
389.4      3132.869   12.837     1          11.515     17.933     176.481    2          306.046    394.287   
389.6      3241.032   12.343     1          11.209     17.38      176.61     2          305.961    394.266   
389.8      3300.459   11.752     1          11.042     16.919     177.361    2          305.713    394.395   
390        3302.413   11.119     1          11.037     16.597     178.62     2          305.344    394.655   
390.2      3238.853   10.564     1          11.214     16.496     179.861    2          304.964    394.894   
390.4      3132.791   10.127     1          11.513     16.576     180.821    2          304.615    395.026   
390.6      3010.819   9.827      1          11.86      16.773     181.499    2          304.392    395.142   
390.8      2917.687   9.727      1          12.127     16.991     181.906    2          304.297    395.251   
391        2877.296   9.827      1          12.243     17.156     181.907    2          304.4      395.354   
391.2      2898.105   10.217     1          12.181     17.289     181.744    2          304.58     395.452   
391.4      2968.151   10.699     1          11.978     17.327     181.216    2          304.856    395.464   
