~Version
 VERS              .         2.0                           : CWLS LOG ASCII STANDARD - VERSION 2.0
 WRAP              .         NO                            : ONE LINE PER DEPTH STEP
 DLM               .         SPACE                         : DELIMITING CHARACTER(SPACE TAB OR COMMA)
~Well Information
#_______________________________________________________________________________
#
#PARAMETER_NAME    .UNIT     VALUE                         : DESCRIPTION
#_______________________________________________________________________________
STRT               .M        138.6                         : First reference value
STOP               .M        217                           : Last reference value
STEP               .M        0.2                           : Step increment
NULL               .         -9999                         : Missing value
COMP               .                                       : Company
WELL               .         616                           : Well name
FLD                .                                       : Field
LOC                .                                       : Location
CNTY               .                                       : County
STAT               .                                       : State
CTRY               .                                       : Country
SRVC               .                                       : Service Company
DATE               .                                       : Date
API                .                                       : API number
PROJECT_UPGRADE_TIME .         2021-03-18T21_24_50           : 
group              .         Good                          : 
~Parameter Information Block
#_______________________________________________________________________________
#
#PARAMETER_NAME    .UNIT     VALUE                         : DESCRIPTION
#_______________________________________________________________________________
SET                .         D1349_D                       : 
OTHER              .         Программное обеспечение станции MONITOR-386EX 25/12/99 15_08_10   BGF V52 22/08/01 16_56_30   3.1_SNGF__BGF_								111238: 
OTHER_10           .         Тарировки_                    : 
OTHER_11           .         <_techsia_sc_> Постоянная времени фильтра  0.5 сек, kf=0.181269: 
OTHER_12           .         TM.GRD = 0.00428968*TM$.UE + -0.3284: 
OTHER_13           .         GK.MKR/H = GK$.UE / 40.16     : 
OTHER_14           .         NKT. = NKT$.UE / 1            : 
OTHER_2            .         Kedr.exe версия 3.3.2.43      : 
OTHER_3            .         KedrData.dll версия 3.3.2.22  : 
OTHER_4            .         Драйвер версия 2.1.1.3        : 
OTHER_5            .         Мнемоники версия 3.3 S        : 
OTHER_6            .         Прибор_ РК4-38                : 
OTHER_7            .         Номер прибора_ 35с            : 
OTHER_8            .         Режим_ РК4-38                 : 
OTHER_9            .         Форма_ 3                      : 
PROJECT_UPGRADE_TIME .         2021-03-18T21_24_49           : 
TLFamily_DEPT      .         Measured Depth                : 
TLFamily_GK        .         Gamma Ray                     : 
TLFamily_GK$       .                                       : 
TLFamily_LM        .         Casing Collar locator         : 
TLFamily_METKA     .                                       : 
TLFamily_NKT       .         Neutron Far                   : 
TLFamily_NKT$      .         Neutron Far                   : 
TLFamily_RCOR      .                                       : 
TLFamily_SPID      .         Spontaneous Potential         : 
TLFamily_TENS      .         Cable Tension                 : 
TLFamily_TIME      .         Time                          : 
TLFamily_TM        .         Temperature                   : 
TLFamily_TM$       .         Temperature                   : 
group              .         prim                          : 
~Curve Information
#_______________________________________________________________________________
#
#LOGNAME           .UNIT     LOG_ID                        : DESCRIPTION
#_______________________________________________________________________________
DEPT               .M                                      : 1 Глубина, м -    0.0 см 
GK                 .MKR/H                                  : 12 Гамма-активность, мкр./ч -   23.0 см 
GK$                .UE                                     : 10 Гамма-активность, усл.ед. -   23.0 см 
LM                 .                                       : 8 Локатор муфт,  -  180.0 см 
METKA              .                                       : 3 Метки,  -    0.0 см 
NKT                .                                       : 13 НКТ, прив. -  160.0 см 
NKT$               .UE                                     : 9 НКТ, усл.ед. -  160.0 см 
RCOR               .CM/KM                                  : 5 Коррекция по ролику, см/км -    0.0 см 
SPID               .M/H                                    : 2 Скорость, м/час -    0.0 см 
TENS               .T                                      : 6 Натяжение кабеля, т -    0.0 см 
TIME               .S                                      : 4 Время, сек -    0.0 см 
TM                 .GRD                                    : 11 Температура, °C -  193.0 см 
TM$                .UE                                     : 7 Температура, усл.ед. -  193.0 см 
~Ascii
138.6      -9999      -9999      -9999      -9999      -9999      -9999      -9999      -9999      -9999      -9999      -9999      -9999     
138.8      -9999      -9999      -9999      0          -9999      -9999      7013       -316       0          1673.04    -9999      -9999     
139        -9999      -9999      -9999      0          -9999      -9999      7013       -319       0          1670.68    -9999      -9999     
139.2      3.77       155        -9999      0          -9999      -9999      7013       -314       0          1668.56    -9999      -9999     
139.4      3.57       142        -9999      0          -9999      -9999      7013       -318       0          1666.3     -9999      -9999     
139.6      3.66       144        -9999      0          -9999      -9999      7013       -318       0          1663.98    -9999      -9999     
139.8      3.87       157        -9999      0          -9999      -9999      7013       -320       0          1661.77    -9999      -9999     
140        3.73       157        -9999      2          -9999      -9999      7013       -319       0          1659.46    -9999      -9999     
140.2      3.42       152        -9999      0          -9999      -9999      7013       -319       0          1657.48    -9999      -9999     
140.4      3.15       135        -9999      0          0          0          7013       -318       0          1656.63    -9999      -9999     
140.6      3.05       118        203        0          0          0          7013       -316       0          1654.32    -9999      -9999     
140.8      3.4        118        258        0          0          0          7013       -310       0          1652.01    5.533      1366      
141        3.68       141        295        0          0          0          7013       -318       0          1649.77    5.503      1359      
141.2      3.52       154        175        0          0          0          7013       -318       0          1647.48    5.48       1354      
141.4      3.38       135        105        0          0          0          7013       -316       0          1645.17    5.463      1350      
141.6      3.41       136        77         0          0          0          7013       -312       0          1642.97    5.433      1343      
141.8      3.49       136        137        0          0          0          7013       -318       0          1640.73    5.347      1323      
142        3.69       146        160        0          0          0          7013       -324       0          1638.42    5.389      1333      
142.2      3.78       154        214        0          0          0          7013       -316       0          1636.1     5.387      1332      
142.4      3.66       147        76         0          0          0          7013       -321       0          1633.99    5.317      1316      
142.6      3.67       145        91         0          0          0          7013       -313       0          1631.68    5.302      1312      
142.8      3.87       150        91         0          0          0          7013       -321       0          1629.36    5.3        1312      
143        3.99       155        74         0          0          0          7013       -310       0          1627.2     5.321      1317      
143.2      4.03       161        102        0          0          0          7013       -315       0          1624.93    5.27       1305      
143.4      4.1        161        143        0          0          0          7013       -312       0          1622.62    5.265      1304      
143.6      4.18       168        172        0          0          0          7013       -304       0          1620.45    5.237      1297      
143.8      4.06       172        335        0          0          0          7013       -308       0          1618.15    5.227      1295      
144        3.81       151        149        0          0          0          7013       -319       0          1615.73    5.192      1287      
144.2      3.95       155        65         0          0          0          7013       -319       0          1613.52    5.162      1280      
144.4      4.15       168        76         0          0          0          7013       -317       0          1611.3     5.128      1272      
144.6      4.06       165        137        0          0          0          7013       -324       0          1609.04    5.128      1272      
144.8      3.92       160        198        0          0          0          7013       -321       0          1606.77    5.109      1268      
145        3.67       160        1225       0          0          0          7013       -319       0          1604.56    5.098      1265      
145.2      3.51       146        7766       0          0          0          7013       -317       0          1602.17    5.089      1263      
145.4      3.27       143        7962       0          0          0          7013       -317       0          1599.83    5.029      1249      
145.6      2.96       129        138        0          0          0          7013       -317       0          1597.73    5.014      1246      
145.8      2.82       112        125        0          0          0          7013       -313       0          1595.45    5.01       1245      
146        2.89       114        147        0          0          0          7013       -305       0          1593.19    4.963      1234      
146.2      2.95       120        138        0          0          0          7013       -304       0          1590.97    4.991      1240      
146.4      2.88       115        67         0          0          0          7013       -322       0          1588.56    4.929      1226      
146.6      2.92       118        78         0          0          0          7013       -313       0          1586.24    4.914      1222      
146.8      2.87       115        234        0          0          0          7013       -300       0          1584.14    4.894      1217      
147        2.89       113        576        0          0          0          7013       -317       0          1581.87    4.894      1217      
147.2      3.12       113        200        0          0          0          7013       -327       0          1579.61    4.894      1217      
147.4      3.17       128        338        0          0          0          7013       -315       0          1577.34    4.824      1201      
147.6      3.09       128        165        0          0          0          7013       -312       0          1575.07    4.855      1208      
147.8      2.96       124        192        0          0          0          7013       -316       0          1572.76    4.849      1207      
148        2.75       117        141        0          0          0          7013       -310       0          1570.47    4.816      1199      
148.2      2.53       101        92         0          0          0          7013       -317       0          1568.28    4.805      1197      
148.4      2.6        100        118        0          0          0          7013       -322       0          1565.92    4.798      1195      
148.6      2.82       113        110        0          0          0          7013       -322       0          1563.61    4.768      1188      
148.8      2.81       116        154        0          0          0          7013       -317       0          1561.39    4.763      1187      
149        2.55       101        122        0          0          0          7013       -324       0          1559.08    4.742      1182      
149.2      2.69       106        144        0          0          0          7013       -311       0          1556.81    4.727      1179      
149.4      2.73       110        169        0          0          0          7013       -311       0          1554.55    4.725      1178      
149.6      2.52       113        153        0          0          0          7013       -320       0          1552.22    4.673      1166      
