~Version
 VERS              .         2.0                           : CWLS LOG ASCII STANDARD - VERSION 2.0
 WRAP              .         NO                            : ONE LINE PER DEPTH STEP
 DLM               .         SPACE                         : DELIMITING CHARACTER(SPACE TAB OR COMMA)
~Well Information
#_______________________________________________________________________________
#
#PARAMETER_NAME    .UNIT     VALUE                         : DESCRIPTION
#_______________________________________________________________________________
STRT               .M        2696.8                        : First reference value
STOP               .M        2752.2                        : Last reference value
STEP               .M        0.1999996                     : Step increment
NULL               .         -9999                         : Missing value
COMP               .                                       : Company
WELL               .         616                           : Well name
FLD                .                                       : Field
LOC                .                                       : Location
CNTY               .                                       : County
STAT               .                                       : State
CTRY               .                                       : Country
SRVC               .                                       : Service Company
DATE               .                                       : Date
API                .                                       : API number
PROJECT_UPGRADE_TIME .         2021-03-18T21_24_50           : 
group              .         Good                          : 
~Parameter Information Block
#_______________________________________________________________________________
#
#PARAMETER_NAME    .UNIT     VALUE                         : DESCRIPTION
#_______________________________________________________________________________
SET                .         D1808_D                       : 
OTHER              .         Программное обеспечение станции MONITOR-386EX 25/12/99 15_08_10   BGF V52 22/08/01 16_56_30   3.1_SNGF___BGF_N_092049: 
OTHER_10           .         Тарировки_                    : 
OTHER_11           .         RGD.M3/SUT = 0.822396 * RGD.UE + 26.7014: 
OTHER_2            .         Kedr.exe версия 3.4.2.51      : 
OTHER_3            .         KedrData.dll версия 3.4.2.24  : 
OTHER_4            .         Драйвер версия 2.1.0.2        : 
OTHER_5            .         Мнемоники версия 3.3 S        : 
OTHER_6            .         Прибор_ Гранат                : 
OTHER_7            .         Номер прибора_ 1229           : 
OTHER_8            .         Режим_ КСА_Гранат             : 
OTHER_9            .         Форма_ КВА                    : 
PROJECT_UPGRADE_TIME .         2021-03-18T21_24_49           : 
TLFamily_DEPT      .         Measured Depth                : 
TLFamily_METKA     .                                       : 
TLFamily_RCOR      .                                       : 
TLFamily_RGD       .                                       : 
TLFamily_RGD_2     .                                       : 
TLFamily_SPID      .         Spontaneous Potential         : 
TLFamily_TENS      .         Cable Tension                 : 
TLFamily_TIME      .         Time                          : 
group              .         prim                          : 
~Curve Information
#_______________________________________________________________________________
#
#LOGNAME           .UNIT     LOG_ID                        : DESCRIPTION
#_______________________________________________________________________________
DEPT               .M                                      : 1 Глубина, м -    0.0 см 
METKA              .                                       : 3 Метки,  -    0.0 см 
RCOR               .CM/KM                                  : 5 Коррекция по ролику, см/км -    0.0 см 
RGD                .UE                                     : 7 Расход, имп/мин -  232.0 см 
RGD_2              .M3/SUT                                 : 8 Расход, м3/сут -  232.0 см 
SPID               .M/H                                    : 2 Скорость, м/час -    0.0 см 
TENS               .T                                      : 6 Натяжение кабеля, т -    0.0 см 
TIME               .S                                      : 4 Время, сек -    0.0 см 
~Ascii
# ...
2715       0          -622       425        376.31     -193       0.19       5186.81   
2715.2     0          -622       424        375.39     -221       0.17       5183.31   
2715.4     0          -622       430        379.97     -194       0.19       5179.83   
2715.6     0          -622       443        390.72     -204       0.19       5176.23   
2715.8     0          -622       445        392.37     -197       0.19       5172.64   
2716       0          -622       436        385.63     -195       0.19       5169.14   
2716.2     0          -622       439        387.66     -199       0.19       5165.55   
2716.4     0          -622       433        383.08     -183       0.19       5162.05   
2716.6     0          -622       428        378.89     -211       0.19       5158.56   
2716.8     0          -622       429        379.12     -215       0.21       5154.97   
2717       0          -622       422        373.44     -193       0.19       5151.38   
2717.2     0          -622       429        379.44     -211       0.19       5147.88   
2717.4     0          -622       429        379.52     -195       0.19       5144.38   
2717.6     0          -622       420        372.07     -194       0.19       5140.89   
2717.8     0          -622       423        374.92     -214       0.19       5137.09   
2718       0          -622       446        393.3      -179       0.19       5133.59   
2718.2     0          -622       435        384.18     -216       0.19       5130.11   
2718.4     0          -622       433        383.12     -199       0.19       5126.61   
2718.6     0          -622       430        380.6      -200       0.19       5123.02   
2718.8     0          -622       413        366.22     -220       0.19       5119.42   
2719       0          -622       386        343.75     -195       0.19       5115.94   
2719.2     0          -622       386        344.28     -193       0.19       5112.44   
2719.4     0          -622       386        343.82     -205       0.19       5108.73   
2719.6     0          -622       390        347.6      -194       0.19       5105.25   
2719.8     0          -622       407        361.82     -218       0.19       5101.75   
2720       2          -615       403        357.85     -194       0.19       5096.86   
2720.2     0          -615       411        364.93     -199       0.19       5093.38   
2720.4     0          -615       420        371.8      -218       0.19       5089.78   
2720.6     0          -615       406        360.33     -201       0.19       5086.28   
2720.8     0          -615       403        357.98     -184       0.17       5082.78   
2721       0          -615       407        361.36     -210       0.19       5079.19   
2721.2     0          -615       395        351.69     -205       0.19       5075.59   
2721.4     0          -615       387        344.82     -222       0.19       5072      
2721.6     0          -615       396        352.49     -192       0.17       5068.52   
2721.8     0          -615       394        350.4      -211       0.19       5065.02   
2722       0          -615       395        351.49     -193       0.19       5061.42   
2722.2     0          -615       399        354.84     -199       0.19       5057.92   
2722.4     0          -615       393        349.88     -192       0.17       5054.44   
2722.6     0          -615       389        346.92     -180       0.19       5050.73   
2722.8     0          -615       398        354.06     -211       0.17       5047.14   
2723       0          -615       404        359.28     -206       0.19       5043.66   
2723.2     0          -615       395        351.23     -188       0.19       5040.16   
2723.4     0          -615       407        361.05     -220       0.19       5036.56   
2723.6     0          -615       428        378.54     -201       0.19       5033.06   
2723.8     0          -615       431        380.94     -197       0.19       5029.58   
2724       0          -615       426        377.27     -191       0.19       5026.08   
2724.2     0          -615       422        373.94     -205       0.19       5022.39   
2724.4     0          -615       425        376.39     -217       0.19       5018.89   
2724.6     0          -615       415        368.09     -186       0.19       5015.41   
2724.8     0          -615       426        377.37     -211       0.19       5011.81   
2725       0          -615       446        393.51     -195       0.17       5008.31   
2725.2     0          -615       456        401.54     -201       0.19       5004.81   
2725.4     0          -615       470        413.07     -212       0.19       5001.33   
2725.6     0          -615       461        405.6      -194       0.19       4997.83   
2725.8     0          -615       465        409.3      -215       0.19       4994.03   
2726       0          -615       472        415.15     -203       0.19       4990.44   
2726.2     0          -615       452        398.14     -200       0.19       4986.95   
2726.4     0          -615       448        395.41     -196       0.19       4983.45   
2726.6     0          -615       436        384.99     -205       0.19       4979.86   
2726.8     0          -615       429        379.87     -218       0.19       4976.47   
2727       0          -615       431        381.15     -180       0.19       4972.88   
2727.2     0          -615       421        372.91     -210       0.19       4969.38   
2727.4     0          -615       406        360.5      -193       0.17       4965.69   
2727.6     0          -615       409        363.36     -197       0.19       4962.19   
2727.8     0          -615       390        347.21     -196       0.17       4958.69   
2728       0          -615       390        347.77     -203       0.19       4955.2    
2728.2     0          -615       400        355.51     -214       0.19       4951.61   
2728.4     0          -615       399        355.05     -193       0.19       4948.22   
2728.6     0          -615       390        347.06     -192       0.19       4944.72   
2728.8     0          -615       386        344.33     -189       0.19       4941.13   
2729       0          -615       376        336.29     -194       0.19       4937.33   
2729.2     0          -615       360        322.38     -198       0.19       4933.84   
2729.4     0          -615       341        307.08     -206       0.19       4930.34   
2729.6     0          -615       339        305.59     -211       0.19       4926.75   
2729.8     0          -615       335        302.5      -195       0.19       4923.25   
2730       2          -615       347        311.68     -196       0.19       4919.91   
2730.2     0          -607       349        314.07     -206       0.19       4914.88   
2730.4     0          -607       347        311.92     -192       0.19       4911.38   
2730.6     0          -607       336        303.05     -215       0.19       4907.69   
2730.8     0          -607       323        292.54     -203       0.19       4904.19   
2731       0          -607       287        262.43     -218       0.19       4900.69   
2731.2     0          -607       210        199.79     -194       0.19       4897.2    
2731.4     0          -607       110        117.03     -196       0.19       4893.7    
2731.6     0          -607       90         100.45     -203       0.19       4890.2    
2731.8     0          -607       88         99.38      -198       0.19       4886.72   
2732       0          -607       95         104.81     -205       0.17       4883.22   
2732.2     0          -607       105        113.38     -193       0.19       4879.42   
2732.4     0          -607       91         101.74     -196       0.19       4875.94   
2732.6     0          -607       96         105.7      -203       0.17       4872.44   
2732.8     0          -607       92         102.42     -218       0.17       4868.95   
2733       0          -607       91         101.88     -200       0.19       4865.45   
