~Version
 VERS              .         2.0                           : CWLS LOG ASCII STANDARD - VERSION 2.0
 WRAP              .         NO                            : ONE LINE PER DEPTH STEP
 DLM               .         SPACE                         : DELIMITING CHARACTER(SPACE TAB OR COMMA)
~Well Information
#_______________________________________________________________________________
#
#PARAMETER_NAME    .UNIT     VALUE                         : DESCRIPTION
#_______________________________________________________________________________
STRT               .M        5.8                           : First reference value
STOP               .M        2774.6                        : Last reference value
STEP               .M        0.2                           : Step increment
NULL               .         -9999                         : Missing value
COMP               .                                       : Company
WELL               .         616                           : Well name
FLD                .                                       : Field
LOC                .                                       : Location
CNTY               .                                       : County
STAT               .                                       : State
CTRY               .                                       : Country
SRVC               .                                       : Service Company
DATE               .                                       : Date
API                .                                       : API number
PROJECT_UPGRADE_TIME .         2021-03-18T21_24_50           : 
group              .         Good                          : 
~Parameter Information Block
#_______________________________________________________________________________
#
#PARAMETER_NAME    .UNIT     VALUE                         : DESCRIPTION
#_______________________________________________________________________________
SET                .         D1747_D                       : 
OTHER              .         Программное обеспечение станции MONITOR-386EX 25/12/99 15_08_10   BGF V52 22/08/01 16_56_30   3.1_SNGF___BGF_N_111239: 
OTHER_10           .         Тарировки_                    : 
OTHER_11           .         <_techsia_sc_> Постоянная времени фильтра ГК  3.0 сек, kf=0.016529: 
OTHER_12           .         <_techsia_sc_> Постоянная времени фильтра ННК  3.0 сек, kf=0.016529: 
OTHER_13           .         GK.MKR/H = GK$.IMP/476        : 
OTHER_14           .         WSAT.PERC = -12.5 + 78.0 * (NKT2$.IMP / NKT1$.IMP) * 1731/33716: 
OTHER_15           .         NKT2.PRIV = NKT2$.IMP/33716   : 
OTHER_16           .         NKT1.PRIV = NKT1$.IMP/1731    : 
OTHER_2            .         Kedr.exe версия 3.3.2.32      : 
OTHER_3            .         KedrData.dll версия 3.3.2.17  : 
OTHER_4            .         Драйвер версия 2.1.1.9        : 
OTHER_5            .         Мнемоники версия 3.2 S        : 
OTHER_6            .         Прибор_ СРК-73Ц-1N            : 
OTHER_7            .         Номер прибора_ 906            : 
OTHER_8            .         Режим_ с локатором            : 
OTHER_9            .         Форма_ 623-1                  : 
PROJECT_UPGRADE_TIME .         2021-03-18T21_24_49           : 
TLFamily_DEPT      .         Measured Depth                : 
TLFamily_GK        .         Gamma Ray                     : 
TLFamily_GK$       .                                       : 
TLFamily_LM        .         Casing Collar locator         : 
TLFamily_METKA     .                                       : 
TLFamily_NKT1      .         Neutron Far                   : 
TLFamily_NKT1$     .         Neutron Far                   : 
TLFamily_NKT2      .         Neutron Near                  : 
TLFamily_NKT2$     .         Neutron Near                  : 
TLFamily_RCOR      .                                       : 
TLFamily_SPID      .         Spontaneous Potential         : 
TLFamily_TENS      .         Cable Tension                 : 
TLFamily_TIME      .         Time                          : 
TLFamily_WSAT      .         Neutron Porosity              : 
group              .         prim                          : 
~Curve Information
#_______________________________________________________________________________
#
#LOGNAME           .UNIT     LOG_ID                        : DESCRIPTION
#_______________________________________________________________________________
DEPT               .M                                      : 1 Глубина, м -    0.0 см 
GK                 .MKR/H                                  : 11 Гамма-активность, мкр./ч -   97.0 см 
GK$                .IMP                                    : 9 Гамма-активность, имп/мин -   97.0 см 
LM                 .                                       : 10 Локатор муфт,  -   27.0 см 
METKA              .                                       : 3 Метки,  -    0.0 см 
NKT1               .PRIV                                   : 14 Большой зонд приведенный,  -  278.0 см 
NKT1$              .IMP                                    : 8 Большой зонд, имп/мин -  278.0 см 
NKT2               .PRIV                                   : 13 Малый зонд приведенный,  -  289.0 см 
NKT2$              .IMP                                    : 7 Малый зонд, имп/мин -  289.0 см 
RCOR               .CM/KM                                  : 5 Коррекция по ролику, см/км -    0.0 см 
SPID               .M/H                                    : 2 Скорость, м/час -    0.0 см 
TENS               .T                                      : 6 Натяжение кабеля, т -    0.0 см 
TIME               .S                                      : 4 Время, сек -    0.0 см 
WSAT               .PERC                                   : 12 Водонасыщенная пористость, % -  284.0 см 
~Ascii
# ...
1846.6     6.56       3122       29         0          1.58       2731.61    1.06       35813.78   -496       -640       0          20119.59   45.91     
1846.8     6.11       2909       31         0          1.56       2706.58    1.07       35945.41   -496       -584       0          20118.49   44.73     
1847       5.86       2788       64         0          1.62       2798.41    1.08       36264.46   -496       -636       0          20117.34   43.69     
1847.2     6.04       2877       36         0          1.78       3074.44    1.12       37872.68   -496       -640       0          20116.16   45.85     
1847.4     5.83       2773       33         0          1.93       3332.32    1.16       39141.84   -496       -592       0          20114.98   45.16     
1847.6     5.46       2601       15         0          1.9        3284.1     1.18       39763.21   -496       -597       0          20113.83   43.78     
1847.8     6.32       3011       32         0          1.91       3301.03    1.15       38904.69   -496       -640       0          20112.68   43.4      
1848       6.49       3089       51         0          1.95       3373.01    1.13       38192.47   -496       -614       0          20111.53   41.65     
1848.2     6.88       3273       47         0          1.85       3204.43    1.15       38709.45   -496       -640       0          20110.37   43.27     
1848.4     6.9        3283       38         0          1.86       3216.48    1.15       38852.25   -496       -608       0          20109.27   41.95     
1848.6     7.33       3488       57         0          1.77       3071.35    1.16       39184.48   -496       -581       0          20108.02   42.78     
1848.8     7.23       3440       11         0          1.85       3198.99    1.16       39103.25   -496       -639       0          20106.91   44.35     
1849       6.8        3236       67         0          1.9        3285.9     1.17       39313.22   -496       -640       0          20105.76   42.23     
1849.2     6.73       3204       40         0          1.84       3187.71    1.18       39709.85   -496       -582       0          20104.56   43.47     
1849.4     6.43       3060       28         0          1.93       3342.31    1.17       39598.04   -496       -640       0          20103.41   43.85     
1849.6     6.61       3148       61         0          1.94       3361.63    1.17       39434.95   -496       -638       0          20102.31   42.75     
1849.8     6.64       3160       33         1          1.92       3329.32    1.18       39747.03   -496       -637       0          20101.1    44.81     
1850       7.06       3360       22         0          1.98       3425.72    1.16       39142.26   -496       -583       0          20100      42.63     
1850.2     6.78       3229       32         0          1.91       3311.97    1.15       38793.24   -496       -636       0          20098.85   43.26     
1850.4     6.61       3148       29         0          1.82       3148.34    1.13       38133.17   -496       -621       0          20097.65   43.65     
1850.6     6.49       3087       12         0          1.78       3074.32    1.11       37341.64   -496       -640       0          20096.45   39.83     
1850.8     6.17       2938       61         0          1.73       2996.69    1.1        37201.9    -496       -640       0          20095.3    39.93     
1851       6.2        2953       32         0          1.65       2860.83    1.1        37162.61   -496       -640       0          20094.14   41.76     
1851.2     6.3        2998       20         0          1.53       2648.75    1.09       36764.38   -496       -614       0          20093.04   40.63     
1851.4     6.39       3043       34         0          1.45       2515.84    1.05       35318.18   -496       -640       0          20091.92   43.25     
1851.6     6.67       3176       47         0          1.42       2462.19    1.01       34011.93   -496       -628       0          20090.74   39.4      
1851.8     6.83       3251       23         0          1.32       2285.17    1          33685.28   -496       -640       0          20089.54   41.74     
1852       6.46       3076       52         0          1.38       2394.35    0.97       32809.09   -496       -639       0          20088.44   44.92     
1852.2     6.67       3174       47         0          1.34       2314.71    0.95       32043.07   -496       -640       0          20087.23   44.05     
1852.4     6.49       3091       50         0          1.38       2385.78    0.94       31626.46   -496       -580       0          20086.08   41.1      
1852.6     6.66       3172       50         0          1.26       2173.09    0.94       31854.86   -496       -640       0          20084.91   42.36     
1852.8     6.63       3155       34         0          1.29       2226.06    0.94       31564.25   -496       -640       0          20083.75   44.99     
1853       6.93       3299       32         0          1.24       2154.58    0.95       31978.64   -496       -583       0          20082.63   45.17     
1853.2     6.67       3173       80         0          1.27       2195.98    0.96       32364.17   -496       -635       0          20081.48   46.01     
1853.4     6.11       2909       86         0          1.36       2349.06    0.97       32709.73   -496       -640       0          20080.32   44.5      
1853.6     6.1        2902       38         0          1.27       2189.86    0.98       33081.1    -496       -640       0          20079.12   43.88     
1853.8     6.01       2859       281        0          1.26       2174.89    0.96       32239.61   -496       -590       0          20078.01   41.62     
1854       5.58       2657       2142       0          1.17       2025.96    0.94       31727.37   -496       -640       0          20076.86   40.7      
1854.2     6.18       2940       2257       0          1.16       2004.31    0.91       30767.89   -496       -621       0          20075.71   43.81     
1854.4     6.39       3042       52         0          1.06       1839.12    0.94       31591.49   -496       -584       0          20074.56   43.78     
1854.6     6.22       2962       57         0          1.03       1778.66    0.92       31177.8    -496       -640       0          20073.35   40.26     
1854.8     6.53       3107       46         0          1.08       1865.89    0.92       31058.14   -496       -634       0          20072.2    40.71     
1855       6.35       3025       27         0          1.18       2046.56    0.91       30548.25   -496       -640       0          20071.05   41.68     
1855.2     6.19       2947       6          0          1.21       2087.28    0.91       30743.18   -496       -640       0          20069.85   45.63     
1855.4     6.19       2947       37         0          1.26       2179.36    0.91       30769.92   -496       -582       0          20068.7    43.73     
1855.6     6.41       3053       31         0          1.29       2231.47    0.91       30570.63   -496       -640       0          20067.6    42.81     
1855.8     6.24       2971       56         0          1.27       2201.57    0.89       30068.68   -496       -640       0          20066.45   42.86     
1856       5.83       2774       32         0          1.26       2172.57    0.9        30472.75   -496       -583       0          20065.29   41.44     
1856.2     5.72       2722       35         0          1.21       2089.42    0.91       30667.52   -496       -637       0          20064.14   42.72     
1856.4     5.78       2752       64         0          1.16       2005.29    0.9        30316.58   -496       -635       0          20062.99   40.7      
1856.6     6.11       2908       54         0          1.22       2114.16    0.9        30201.18   -496       -588       0          20061.79   41.21     
1856.8     5.93       2825       55         0          1.1        1910.58    0.88       29748.58   -496       -640       0          20060.64   39.47     
