~Version
 VERS              .         2.0                           : CWLS LOG ASCII STANDARD - VERSION 2.0
 WRAP              .         NO                            : ONE LINE PER DEPTH STEP
 DLM               .         SPACE                         : DELIMITING CHARACTER(SPACE TAB OR COMMA)
~Well Information
#_______________________________________________________________________________
#
#PARAMETER_NAME    .UNIT     VALUE                         : DESCRIPTION
#_______________________________________________________________________________
STRT               .M        2700.4                        : First reference value
STOP               .M        2799                          : Last reference value
STEP               .M        0.2000002                     : Step increment
NULL               .         -9999                         : Missing value
COMP               .                                       : Company
WELL               .         616                           : Well name
FLD                .                                       : Field
LOC                .                                       : Location
CNTY               .                                       : County
STAT               .                                       : State
CTRY               .                                       : Country
SRVC               .                                       : Service Company
DATE               .                                       : Date
API                .                                       : API number
PROJECT_UPGRADE_TIME .         2021-03-18T21_24_50           : 
group              .         Good                          : 
~Parameter Information Block
#_______________________________________________________________________________
#
#PARAMETER_NAME    .UNIT     VALUE                         : DESCRIPTION
#_______________________________________________________________________________
SET                .         D2658_D                       : 
OTHER              .         Программное обеспечение станции MONITOR-386EX 25/12/99 15_08_10   BGF V50 26/12/00 07_26_01   3.1_SNGF___BGF_N_092085: 
OTHER_10           .         Тарировки_                    : 
OTHER_11           .         <_techsia_sc_> Постоянная времени фильтра ПС  0.5 сек, kf=0.139292: 
OTHER_2            .         Kedr.exe версия 3.3.2.32      : 
OTHER_3            .         KedrData.dll версия 3.3.2.17  : 
OTHER_4            .         Драйвер версия 2.1.0.7        : 
OTHER_5            .         Мнемоники версия 3.3 S        : 
OTHER_6            .         Прибор_ К1a-723м              : 
OTHER_7            .         Номер прибора_ 348/72         : 
OTHER_8            .         Режим_ K1A-723M               : 
OTHER_9            .         Форма_ БКЗ                    : 
PROJECT_UPGRADE_TIME .         2021-03-18T21_24_49           : 
TLFamily_BK        .         Lateral Log Resistivity       : 
TLFamily_DEPT      .         Measured Depth                : 
TLFamily_GZ1       .         Extra Shallow Resistivity     : 
TLFamily_GZ2       .         Shallow Resistivity           : 
TLFamily_GZ3       .         Medium Resistivity            : 
TLFamily_GZ4       .         Deep Resistivity              : 
TLFamily_GZ5       .         Extra Deep Resistivity        : 
TLFamily_GZ6       .         Medium Resistivity Inverted   : 
TLFamily_IBK       .                                       : 
TLFamily_IK        .         Conductivity                  : 
TLFamily_IPR       .                                       : 
TLFamily_METKA     .                                       : 
TLFamily_PS        .         Spontaneous Potential         : 
TLFamily_PZ        .         Potential Resistivity         : 
TLFamily_RCOR      .                                       : 
TLFamily_RES       .         Mud Resistivity               : 
TLFamily_SPID      .         Spontaneous Potential         : 
TLFamily_TENS      .         Cable Tension                 : 
TLFamily_TIME      .         Time                          : 
TLFamily_UBK       .         Uranium Concentration         : 
group              .         prim                          : 
~Curve Information
#_______________________________________________________________________________
#
#LOGNAME           .UNIT     LOG_ID                        : DESCRIPTION
#_______________________________________________________________________________
DEPT               .M                                      : 1 Глубина, м -    0.0 см 
BK                 .OHMM                                   : 20 БК, Ом*м - 1768.0 см 
GZ1                .OHMM                                   : 12 A0.4M0.1N, Ом*м - 1295.0 см 
GZ2                .OHMM                                   : 11 A1.0M0.1N, Ом*м - 1355.0 см 
GZ3                .OHMM                                   : 9 A2.0M0.5N, Ом*м - 1475.0 см 
GZ4                .OHMM                                   : 8 A4.0M0.5N, Ом*м - 1025.0 см 
GZ5                .OHMM                                   : 7 A8.0M1.0N, Ом*м - 1450.0 см 
GZ6                .OHMM                                   : 10 N0.5M2.0A, Ом*м - 1025.0 см 
IBK                .A                                      : 18 Ток БК, А - 1768.0 см 
IK                 .MSM/M                                  : 14 ИК, мСм/м - 1961.0 см 
IPR                .MA                                     : 17 Ток прибора, мA -    0.0 см 
METKA              .                                       : 3 Метки,  -    0.0 см 
PS                 .mV                                     : 16 ПС, мВ - 1210.0 см 
PZ                 .OHMM                                   : 13 N11M0.5A, Ом*м - 1225.0 см 
RCOR               .CM/KM                                  : 5 Коррекция по ролику, см/км -    0.0 см 
RES                .OHMM                                   : 15 Резистивиметр, Ом*м -  600.0 см 
SPID               .M/H                                    : 2 Скорость, м/час -    0.0 см 
TENS               .T                                      : 6 Натяжение кабеля, т -    0.0 см 
TIME               .S                                      : 4 Время, сек -    0.0 см 
UBK                .V                                      : 19 Напр. БК, В - 1768.0 см 
~Ascii
# ...
2781.8     7.55       8.7        9          8          7.9        7.7        6.5        0.026      117.3      -9999      -9999      582.84     10         -9999      2.76       -9999      -9999      -9999      0.819     
2782       8.94       8.9        9.4        8.3        7.9        7.9        6.9        0.022      115        -9999      -9999      581.88     10.1       -9999      2.759      -9999      -9999      -9999      0.838     
2782.2     6.83       10.2       9.7        8.4        7.8        8.3        7.1        0.03       114.8      -9999      -9999      582.25     10.1       -9999      2.761      -9999      -9999      -9999      0.857     
2782.4     6.62       9.3        8.8        8.3        7.5        8.7        7.4        0.03       114.3      -9999      -9999      583.3      11.8       -9999      2.761      -9999      -9999      -9999      0.848     
2782.6     7.67       9          8.9        8.3        7.8        9          8.3        0.026      113.7      -9999      -9999      583.02     12.2       -9999      2.762      -9999      -9999      -9999      0.842     
2782.8     7.09       8.7        8.7        8.6        8.6        10.8       10         0.028      112        -9999      -9999      582.6      11.2       -9999      2.762      -9999      -9999      -9999      0.839     
2783       7.64       8.2        8.1        9.9        11.6       12.8       14         0.026      110.5      -9999      -9999      580.79     11.9       -9999      2.763      -9999      -9999      -9999      0.843     
2783.2     16.25      10.4       10.4       13         14.1       13.5       15.9       0.012      108.7      -9999      -9999      579.75     11.7       -9999      2.759      -9999      -9999      -9999      0.851     
2783.4     11.57      16.1       15.4       14.6       15.2       13.6       15.9       0.018      105.9      -9999      -9999      580.34     11         -9999      2.761      -9999      -9999      -9999      0.881     
2783.6     7.35       14.4       10.9       12.6       15.4       13.1       15.3       0.029      105.9      -9999      -9999      581.14     11.3       -9999      2.759      -9999      -9999      -9999      0.889     
2783.8     7.28       13.6       9.6        9          14         11.3       13.5       0.029      111.3      -9999      -9999      578.9      12.1       -9999      2.758      -9999      -9999      -9999      0.889     
2784       6.39       10.1       8.4        7          10.9       8.7        10.5       0.033      116.1      -9999      -9999      577.14     12.3       -9999      2.755      -9999      -9999      -9999      0.895     
2784.2     6.85       8.7        8.5        6.1        8.4        7.5        9.1        0.031      117.3      -9999      -9999      572.03     12.3       -9999      2.75       -9999      -9999      -9999      0.889     
2784.4     14.01      8.5        10.5       6.2        8.3        6.9        9.1        0.015      116.5      -9999      -9999      566.67     11.3       -9999      2.761      -9999      -9999      -9999      0.873     
2784.6     14.35      13         12.8       6.5        8.3        6.8        9.1        0.014      114.5      -9999      -9999      571.16     10.2       -9999      2.759      -9999      -9999      -9999      0.844     
2784.8     6.88       15.8       11.4       6.5        8.3        6.6        9          0.029      115.1      -9999      -9999      576.42     10         -9999      2.76       -9999      -9999      -9999      0.837     
2785       7.65       11.9       9.6        6.4        8.3        6.3        9          0.026      116.4      -9999      -9999      575.84     9.8        -9999      2.759      -9999      -9999      -9999      0.841     
2785.2     7.84       10.8       10.6       6.7        8.3        6.3        9.1        0.026      117.7      -9999      -9999      574.65     9.9        -9999      2.76       -9999      -9999      -9999      0.848     
2785.4     6.67       9.8        10.4       7.3        8.3        6.6        9.1        0.031      118.5      -9999      -9999      576.02     10         -9999      2.764      -9999      -9999      -9999      0.859     
2785.6     6.74       8.7        9.7        8.4        8.4        6.9        9          0.03       118.9      -9999      -9999      579.12     10.1       -9999      -9999      -9999      -9999      -9999      0.84      
2785.8     6.87       8.3        8.7        9          8.4        7.3        9.1        0.028      119.7      -9999      -9999      581.8      10         -9999      -9999      -9999      -9999      -9999      0.812     
2786       7.31       8.4        9.5        9.6        8.4        7.7        9.1        0.026      120        -9999      -9999      582.15     10.4       -9999      -9999      -9999      -9999      -9999      0.801     
2786.2     8.27       8.7        9.2        9.8        8.3        7.9        9          0.023      118.9      -9999      -9999      582.87     10.8       -9999      -9999      -9999      -9999      -9999      0.798     
2786.4     8.77       9.5        9.6        9.8        8.3        7.8        9.2        0.021      119        -9999      -9999      582.09     10.9       -9999      -9999      -9999      -9999      -9999      0.788     
2786.6     9.06       9.7        9.9        9.1        8.4        7.3        9.1        0.021      118.2      -9999      -9999      582.73     10.9       -9999      -9999      -9999      -9999      -9999      0.795     
2786.8     6.92       9.3        9          8.3        8.4        6.9        9.1        0.028      117.6      -9999      -9999      583.47     11         -9999      -9999      -9999      -9999      -9999      0.805     
2787       6.63       9.3        8.4        7.6        8.4        6.5        9.1        0.03       118.7      -9999      -9999      583.26     11         -9999      -9999      -9999      -9999      -9999      0.826     
2787.2     6.84       9.3        8.4        7.3        8.4        6.6        9.2        0.029      117.8      -9999      -9999      583.2      11         -9999      -9999      -9999      -9999      -9999      0.836     
2787.4     6.58       9.2        8.8        7.1        8.3        6.7        9          0.03       116.3      -9999      -9999      582.84     11         -9999      -9999      -9999      -9999      -9999      0.838     
2787.6     6.84       9.2        9          6.9        8.3        6.9        9.1        0.029      114.1      -9999      -9999      583.12     11         -9999      -9999      -9999      -9999      -9999      0.841     
2787.8     7.88       9.3        8.9        6.7        8.4        7.4        9.1        0.026      109.2      -9999      -9999      583.48     11         -9999      -9999      -9999      -9999      -9999      0.862     
2788       8.86       9.3        8.9        7          8.4        7.8        9.1        0.024      104.6      -9999      -9999      582.82     11         -9999      -9999      -9999      -9999      -9999      0.887     
2788.2     11.36      9.3        8.8        7.7        8.4        8.2        9.1        0.019      99.5       -9999      -9999      583.35     11         -9999      -9999      -9999      -9999      -9999      0.909     
2788.4     7.66       9.3        8.9        8.5        8.4        8.3        9          0.028      94.8       -9999      -9999      582.65     11         -9999      -9999      -9999      -9999      -9999      0.911     
2788.6     7.3        9.3        8.9        8.9        8.4        8.4        9.1        0.03       93.6       -9999      -9999      583.34     11         -9999      -9999      -9999      -9999      -9999      0.918     
2788.8     8.07       9.3        8.9        9.1        8.4        8.4        9          0.027      94.4       -9999      -9999      583.46     11         -9999      -9999      -9999      -9999      -9999      0.919     
2789       15.31      9.3        9          9          8.4        8.4        9.2        0.014      94         -9999      -9999      584.02     11         -9999      -9999      -9999      -9999      -9999      0.917     
