~Version
 VERS              .         2.0                           : CWLS LOG ASCII STANDARD - VERSION 2.0
 WRAP              .         NO                            : ONE LINE PER DEPTH STEP
 DLM               .         SPACE                         : DELIMITING CHARACTER(SPACE TAB OR COMMA)
~Well Information
#_______________________________________________________________________________
#
#PARAMETER_NAME    .UNIT     VALUE                         : DESCRIPTION
#_______________________________________________________________________________
STRT               .M        5.8                           : First reference value
STOP               .M        2774.6                        : Last reference value
STEP               .M        0.2                           : Step increment
NULL               .         -9999                         : Missing value
COMP               .                                       : Company
WELL               .         616                           : Well name
FLD                .                                       : Field
LOC                .                                       : Location
CNTY               .                                       : County
STAT               .                                       : State
CTRY               .                                       : Country
SRVC               .                                       : Service Company
DATE               .                                       : Date
API                .                                       : API number
PROJECT_UPGRADE_TIME .         2021-03-18T21_24_50           : 
group              .         Good                          : 
~Parameter Information Block
#_______________________________________________________________________________
#
#PARAMETER_NAME    .UNIT     VALUE                         : DESCRIPTION
#_______________________________________________________________________________
SET                .         D1747_D                       : 
OTHER              .         Программное обеспечение станции MONITOR-386EX 25/12/99 15_08_10   BGF V52 22/08/01 16_56_30   3.1_SNGF___BGF_N_111239: 
OTHER_10           .         Тарировки_                    : 
OTHER_11           .         <_techsia_sc_> Постоянная времени фильтра ГК  3.0 сек, kf=0.016529: 
OTHER_12           .         <_techsia_sc_> Постоянная времени фильтра ННК  3.0 сек, kf=0.016529: 
OTHER_13           .         GK.MKR/H = GK$.IMP/476        : 
OTHER_14           .         WSAT.PERC = -12.5 + 78.0 * (NKT2$.IMP / NKT1$.IMP) * 1731/33716: 
OTHER_15           .         NKT2.PRIV = NKT2$.IMP/33716   : 
OTHER_16           .         NKT1.PRIV = NKT1$.IMP/1731    : 
OTHER_2            .         Kedr.exe версия 3.3.2.32      : 
OTHER_3            .         KedrData.dll версия 3.3.2.17  : 
OTHER_4            .         Драйвер версия 2.1.1.9        : 
OTHER_5            .         Мнемоники версия 3.2 S        : 
OTHER_6            .         Прибор_ СРК-73Ц-1N            : 
OTHER_7            .         Номер прибора_ 906            : 
OTHER_8            .         Режим_ с локатором            : 
OTHER_9            .         Форма_ 623-1                  : 
PROJECT_UPGRADE_TIME .         2021-03-18T21_24_49           : 
TLFamily_DEPT      .         Measured Depth                : 
TLFamily_GK        .         Gamma Ray                     : 
TLFamily_GK$       .                                       : 
TLFamily_LM        .         Casing Collar locator         : 
TLFamily_METKA     .                                       : 
TLFamily_NKT1      .         Neutron Far                   : 
TLFamily_NKT1$     .         Neutron Far                   : 
TLFamily_NKT2      .         Neutron Near                  : 
TLFamily_NKT2$     .         Neutron Near                  : 
TLFamily_RCOR      .                                       : 
TLFamily_SPID      .         Spontaneous Potential         : 
TLFamily_TENS      .         Cable Tension                 : 
TLFamily_TIME      .         Time                          : 
TLFamily_WSAT      .         Neutron Porosity              : 
group              .         prim                          : 
~Curve Information
#_______________________________________________________________________________
#
#LOGNAME           .UNIT     LOG_ID                        : DESCRIPTION
#_______________________________________________________________________________
DEPT               .M                                      : 1 Глубина, м -    0.0 см 
GK                 .MKR/H                                  : 11 Гамма-активность, мкр./ч -   97.0 см 
GK$                .IMP                                    : 9 Гамма-активность, имп/мин -   97.0 см 
LM                 .                                       : 10 Локатор муфт,  -   27.0 см 
METKA              .                                       : 3 Метки,  -    0.0 см 
NKT1               .PRIV                                   : 14 Большой зонд приведенный,  -  278.0 см 
NKT1$              .IMP                                    : 8 Большой зонд, имп/мин -  278.0 см 
NKT2               .PRIV                                   : 13 Малый зонд приведенный,  -  289.0 см 
NKT2$              .IMP                                    : 7 Малый зонд, имп/мин -  289.0 см 
RCOR               .CM/KM                                  : 5 Коррекция по ролику, см/км -    0.0 см 
SPID               .M/H                                    : 2 Скорость, м/час -    0.0 см 
TENS               .T                                      : 6 Натяжение кабеля, т -    0.0 см 
TIME               .S                                      : 4 Время, сек -    0.0 см 
WSAT               .PERC                                   : 12 Водонасыщенная пористость, % -  284.0 см 
~Ascii
# ...
2023.4     6.39       3040       35         0          1.84       3176.46    1.16       39177.24   -491       -580       0          19079.02   43.78     
2023.6     6.22       2959       31         0          1.94       3351.98    1.16       39262.45   -491       -613       0          19077.81   44.95     
2023.8     5.68       2704       40         0          1.96       3390.37    1.17       39457.69   -491       -601       0          19076.63   39.63     
2024       5.57       2652       65         0          1.94       3351.74    1.16       39209.62   -491       -640       0          19075.41   45.48     
2024.2     6.07       2888       15         0          1.96       3388.07    1.17       39528.05   -491       -581       0          19074.21   41.98     
2024.4     6.01       2860       26         0          1.94       3360.2     1.18       39713.67   -491       -639       0          19073.06   43.04     
2024.6     6.24       2968       31         0          1.93       3343.24    1.19       40146.05   -491       -638       0          19071.85   42.58     
2024.8     6.61       3144       44         0          1.89       3275.66    1.18       39786.49   -491       -637       0          19070.7    42.18     
2025       6.96       3313       19         0          1.96       3399.93    1.16       39130.88   -491       -637       0          19069.55   42.54     
2025.2     6.6        3142       14         0          2.08       3592.25    1.17       39498.97   -491       -633       0          19068.35   38.81     
2025.4     7.2        3428       20         0          1.92       3328.99    1.17       39358.48   -491       -627       0          19067.17   38.72     
2025.6     7.46       3551       30         0          1.91       3298.65    1.17       39405.44   -491       -640       0          19066      42.94     
2025.8     6.81       3241       39         0          1.85       3202.6     1.14       38469.87   -491       -605       0          19064.79   39.4      
2026       6.31       3005       46         0          1.78       3075.36    1.14       38366.43   -491       -639       0          19063.59   42.65     
2026.2     5.94       2827       28         0          1.82       3149       1.15       38846.88   -491       -639       0          19062.44   43.08     
2026.4     6.42       3055       16         0          1.83       3165.51    1.17       39382.8    -491       -580       0          19061.24   44.21     
2026.6     6.24       2971       16         0          1.83       3166.2     1.15       38793.54   -491       -640       0          19060.04   44.35     
2026.8     5.57       2650       30         0          1.83       3168.26    1.17       39429.26   -491       -587       0          19058.83   44.74     
2027       5.59       2663       37         0          1.94       3360.68    1.18       39908.71   -491       -588       0          19057.67   42.5      
2027.2     5.14       2446       27         0          1.98       3423.51    1.2        40318.59   -491       -640       0          19056.52   46.92     
2027.4     5.12       2436       48         0          2.18       3772.8     1.23       41363.85   -491       -603       0          19055.32   42.98     
2027.6     5.07       2413       49         0          2.4        4146.26    1.26       42345.78   -491       -580       0          19054.19   36.88     
2027.8     5.06       2410       7          0          2.68       4643.54    1.29       43439.23   -491       -581       0          19052.97   35.43     
2028       4.81       2289       20         0          3.11       5379.08    1.35       45527.52   -491       -581       0          19051.71   32.66     
2028.2     4.49       2138       48         0          3.66       6337.26    1.44       48691.2    -491       -580       0          19050.56   28.64     
2028.4     4.27       2034       34         0          4.35       7523.57    1.55       52305.41   -491       -640       0          19049.36   23.69     
2028.6     3.94       1875       41         0          4.78       8268.99    1.63       54788.69   -491       -587       0          19048.21   20.12     
2028.8     4.13       1967       53         0          4.84       8386.3     1.6        53937.49   -491       -590       0          19047.01   17.97     
2029       4.3        2049       36         0          4.3        7443.49    1.53       51675.79   -491       -594       0          19045.86   20.69     
2029.2     4.79       2281       31         0          3.56       6170.17    1.44       48536.89   -491       -608       0          19044.65   24.76     
2029.4     5.12       2437       35         0          2.79       4837.15    1.32       44413.17   -491       -619       0          19043.5    29.95     
2029.6     5.77       2745       29         0          2.16       3739.26    1.18       39869.34   -491       -640       0          19042.3    36.44     
2029.8     6.09       2897       41         1          1.88       3248.97    1.13       38146.46   -491       -511       0          19041.15   41.5      
2030       6.5        3092       29         0          1.74       3020.23    1.14       38453.3    -489       -586       0          19039.8    45.66     
2030.2     6.33       3014       296        0          1.81       3125.3     1.14       38287.62   -489       -632       0          19038.65   45.34     
2030.4     6.61       3144       934        0          1.85       3201.48    1.12       37650.64   -489       -623       0          19037.45   45.67     
2030.6     7.31       3479       2321       0          1.67       2884.29    1.12       37642.6    -489       -597       0          19036.29   46.06     
2030.8     7.35       3497       41         0          1.87       3239.81    1.12       37648.28   -489       -615       0          19035.09   44.97     
2031       7.17       3414       40         0          1.91       3311.13    1.1        37230.02   -489       -581       0          19033.91   41.22     
2031.2     7.35       3497       33         0          1.82       3156.32    1.11       37556.52   -489       -582       0          19032.69   43.74     
2031.4     6.97       3315       33         0          1.77       3072.4     1.12       37736.36   -489       -638       0          19031.54   44.93     
2031.6     7.01       3336       53         0          1.74       3004.03    1.11       37575.69   -489       -637       0          19030.33   41.19     
2031.8     6.84       3256       9          0          1.7        2941.07    1.14       38413.5    -489       -584       0          19029.18   44.06     
2032       7.02       3339       38         0          1.75       3030.59    1.14       38498.63   -489       -630       0          19027.98   48.11     
2032.2     7.15       3405       37         0          1.68       2905.17    1.13       38036.72   -489       -594       0          19026.82   49.52     
2032.4     7.27       3460       57         0          1.7        2949.04    1.11       37267.24   -489       -580       0          19025.62   45.83     
2032.6     7.69       3662       29         0          1.7        2948.54    1.1        37053.08   -489       -597       0          19024.42   43.82     
2032.8     7.77       3700       49         0          1.7        2937.15    1.1        36919.98   -489       -581       0          19023.21   44.84     
2033       8.32       3960       25         0          1.78       3077.38    1.08       36444.22   -489       -581       0          19022.06   41.49     
2033.2     8.42       4010       19         0          1.66       2878.88    1.09       36588.43   -489       -638       0          19020.91   44.65     
2033.4     8.14       3876       48         0          1.71       2952.68    1.08       36467.72   -489       -637       0          19019.71   45.36     
2033.6     7.61       3624       34         0          1.75       3034.26    1.1        37212.82   -489       -583       0          19018.56   47.46     
