~Version
 VERS              .         2.0                           : CWLS LOG ASCII STANDARD - VERSION 2.0
 WRAP              .         NO                            : ONE LINE PER DEPTH STEP
 DLM               .         SPACE                         : DELIMITING CHARACTER(SPACE TAB OR COMMA)
~Well Information
#_______________________________________________________________________________
#
#PARAMETER_NAME    .UNIT     VALUE                         : DESCRIPTION
#_______________________________________________________________________________
STRT               .M        8.21                          : First reference value
STOP               .M        2780.41                       : Last reference value
STEP               .M        0.2                           : Step increment
NULL               .         -9999                         : Missing value
COMP               .                                       : Company
WELL               .         616                           : Well name
FLD                .                                       : Field
LOC                .                                       : Location
CNTY               .                                       : County
STAT               .                                       : State
CTRY               .                                       : Country
SRVC               .                                       : Service Company
DATE               .                                       : Date
API                .                                       : API number
PROJECT_UPGRADE_TIME .         2021-03-18T21_24_50           : 
group              .         Good                          : 
~Parameter Information Block
#_______________________________________________________________________________
#
#PARAMETER_NAME    .UNIT     VALUE                         : DESCRIPTION
#_______________________________________________________________________________
SET                .         ULN_2                         : 
PROJECT_UPGRADE_TIME .         2021-03-18T21_24_50           : 
TLFamily_AK4       .                                       : 
TLFamily_ALFAK     .                                       : 
TLFamily_AMPL      .                                       : 
TLFamily_DEPTH     .         Measured Depth                : 
TLFamily_DK1       .                                       : 
TLFamily_DK2       .                                       : 
TLFamily_DTK       .         Compressional Slowness        : 
TLFamily_QCBL      .                                       : 
TLFamily_T1        .         Travel Time 1                 : 
TLFamily_T2        .         Travel Time 2                 : 
group              .         prim                          : 
~Curve Information
#_______________________________________________________________________________
#
#LOGNAME           .UNIT     LOG_ID                        : DESCRIPTION
#_______________________________________________________________________________
DEPTH              .M                                      : 0 Depth curve 
AK4                .                                       : 2 Амплитуда - Волна по колонне - Канал1 
ALFAK              .дБ/м                                   : 1 Затухание - Волна по колонне 
AMPL               .                                       : 8 Коэффициент усиления ВС 
DK1                .дБ                                     : 3 Кривая ослабления - Волна по колонне - Канал1 
DK2                .дБ                                     : 4 Кривая ослабления - Волна по колонне - Канал2 
DTK                .мкс/м                                  : 5 ДельтаТ - Волна по породе 
QCBL               .                                       : 9 Контакт цемент-колонна 
T1                 .мкс                                    : 6 Время пробега - Волна по породе - Канал1 
T2                 .мкс                                    : 7 Время пробега - Волна по породе - Канал2 
~Ascii
# ...
2402.61    1884.311   29.023     1          22.579     37.091     186.799    2          356.61     450.009   
2402.81    2038.061   28.618     1          21.874     36.183     185.421    2          356.802    449.415   
2403.01    2052.75    27.012     1          21.87      35.323     185.475    2          357.993    448.919   
2403.21    2256.693   26.627     1          22.141     34.401     187.11     2          357.44     451.609   
2403.41    2206.469   23.44      1          22.353     33.019     190.652    2          356.01     452.047   
2403.61    2298.635   24.154     1          21.977     33.057     190.574    2          355.268    452.979   
2403.81    2312.724   21.456     1          22.379     33.252     188.861    2          356.047    450.624   
2404.01    2506.412   20.251     1          22.351     33.84      182.767    2          357.007    451.342   
2404.21    2565.368   20.041     1          22.047     33.426     186.214    2          355.274    451.333   
2404.41    2405.398   20.207     1          21.144     32.465     190.049    2          353.896    451.725   
2404.61    2318.124   20.748     1          20.739     31.113     197.904    2          353.438    452.389   
2404.81    2319.949   21.036     1          20.732     31.25      193.288    2          354.039    450.682   
2405.01    2365.16    22.94      1          20.566     32.036     190.874    2          353.987    449.423   
2405.21    2348.557   25.844     1          20.629     33.551     184.756    2          354.526    446.903   
2405.41    2343.433   25.908     1          20.648     33.602     185.789    2          354.45     447.344   
2405.61    2293.529   25.661     1          20.833     33.663     185.577    2          354.637    447.425   
2405.81    2249.118   25.538     1          21.009     33.778     186.188    2          354.765    447.858   
2406.01    2135.543   24.791     1          21.462     33.857     186.245    2          354.952    448.074   
2406.21    2013.009   24.246     1          21.976     34.099     185.034    2          355.481    447.997   
2406.41    1803.501   22.84      1          22.999     34.418     186.362    2          355.478    448.659   
2406.61    1524.667   22.182     1          24.551     35.642     186.239    2          355.986    449.105   
2406.81    1248.492   21.946     1          26.2       37.173     187.47     2          355.999    449.733   
2407.01    1112.217   23.304     1          27.129     38.78      187.819    2          356.739    450.648   
2407.21    1160.398   24.567     1          26.795     39.079     188.17     2          357.441    451.525   
2407.41    1322.091   25.85      1          25.719     38.643     189.539    2          357.479    452.248   
2407.61    1545.117   27.381     1          24.321     38.012     188.252    2          356.812    450.937   
2407.81    1644.797   28.08      1          23.73      37.77      187.859    2          356.21     450.138   
2408.01    1672.885   27.678     1          23.577     37.415     186.77     2          356.135    449.519   
2408.21    1615.279   26.082     1          23.878     36.919     187.357    2          356.205    449.883   
2408.41    1534.897   25.334     1          24.349     37.015     187.511    2          356.198    449.953   
2408.61    1341.778   24.118     1          25.606     37.664     187.447    2          356.225    449.948   
2408.81    1178.502   24.262     1          26.683     38.814     189.039    2          356.138    450.657   
2409.01    1023.834   24.144     1          27.865     39.937     190.276    2          355.431    450.568   
2409.21    919.79     24.599     1          28.87      41.169     192.601    2          354.945    451.245   
2409.41    776.446    23.16      1          30.332     41.912     192.727    2          355.582    451.945   
2409.61    763.75     23.351     1          30.453     42.128     193.044    2          356.677    453.198   
2409.81    836.123    24.978     1          29.723     42.212     191.947    2          357.078    453.051   
2410.01    1029.601   28.107     1          27.884     41.937     191.213    2          356.283    451.889   
2410.21    1153.247   29.237     1          26.866     41.484     190.634    2          355.247    450.563   
2410.41    1221.859   28.693     1          26.306     40.652     190.361    2          354.72     449.9     
2410.61    1263.451   28.509     1          26.03      40.285     192.054    2          354.258    450.284   
2410.81    1224.372   28.134     1          26.317     40.384     193.646    2          353.446    450.269   
2411.01    1143.326   28.436     1          26.986     41.204     194.319    2          352.676    450.417   
2411.21    961.364    28.423     1          28.469     42.681     194.809    2          351.35     460.683   
2411.41    799.789    28.127     1          30.084     44.148     197        2          350.175    467.002   
2411.61    669.783    25.584     1          31.65      44.442     201.709    2          348.874    480.815   
2411.81    569.142    23.565     1          32.984     44.766     203.983    2          348.324    477.504   
2412.01    549.461    21.665     1          33.258     44.09      203.015    2          350.356    472.654   
2412.21    571.757    22.357     1          32.921     44.1       200.334    2          353.023    460.632   
2412.41    596.709    22.092     1          32.529     43.575     217.591    2          356.061    464.698   
2412.61    567.367    22.547     1          32.997     44.27      254.341    2          357.188    484.263   
2412.81    541.435    24.102     1          33.392     45.443     301.192    2          355.973    507.683   
2413.01    541.645    25.971     1          33.389     46.374     339.172    2          354.704    525.553   
2413.21    597.591    30.797     1          32.554     47.952     360.079    2          352.548    533.806   
2413.41    624.069    33.614     1          32.151     48.958     360.998    2          351.946    532.818   
2413.61    653.089    35.698     1          31.752     49.601     358.356    2          351.253    530.843   
2413.81    670.159    34.257     1          31.538     48.667     344.626    2          351.335    524.346   
2414.01    687.955    33.542     1          31.179     48.092     348.817    2          350.536    525.439   
2414.21    592.691    29.093     1          30.226     47.729     319.107    2          350.664    510.747   
2414.41    772.129    27.272     1          28.611     47.165     275.323    2          351.968    489.921   
2414.61    951.328    27.693     1          26.957     45.667     266.644    2          353.333    488.037   
2414.81    1016.609   30.344     1          26.649     45.665     280.275    2          354.677    496.118   
2415.01    888.657    29.378     1          27.615     46.2       329.119    2          354.877    520.214   
2415.21    628.397    28.636     1          28.491     46.772     345.474    2          355.293    527.565   
2415.41    741.444    29.112     1          30.3       47.103     369.291    2          353.304    537.488   
2415.61    568.961    31.067     1          32.977     48.744     383.433    2          350.906    542.622   
2415.81    565.951    33.512     1          35.254     52.088     388.124    2          349.109    543.17    
2416.01    383.749    33.971     1          36.382     53.456     387.833    3          349.237    543.045   
2416.21    420.276    33.537     1          35.615     54.24      386.254    3          351.504    542.662   
2416.41    391.741    29.086     1          36.291     54.069     375.98     3          352.388    541.875   
2416.61    351.233    28.792     1          37.402     54.954     377.951    3          350.926    541.507   
2416.81    278.142    30.593     1          39.228     56.121     379.146    3          349.095    542.134   
2417.01    238.114    30.658     1          40.55      56.209     389.707    3          348.177    542.862   
