~Version
 VERS              .         2.0                           : CWLS LOG ASCII STANDARD - VERSION 2.0
 WRAP              .         NO                            : ONE LINE PER DEPTH STEP
 DLM               .         SPACE                         : DELIMITING CHARACTER(SPACE TAB OR COMMA)
~Well Information
#_______________________________________________________________________________
#
#PARAMETER_NAME    .UNIT     VALUE                         : DESCRIPTION
#_______________________________________________________________________________
STRT               .M        21.55                         : First reference value
STOP               .M        2764.75                       : Last reference value
STEP               .M        0.2                           : Step increment
NULL               .         -9999                         : Missing value
COMP               .                                       : Company
WELL               .         616                           : Well name
FLD                .                                       : Field
LOC                .                                       : Location
CNTY               .                                       : County
STAT               .                                       : State
CTRY               .                                       : Country
SRVC               .                                       : Service Company
DATE               .                                       : Date
API                .                                       : API number
PROJECT_UPGRADE_TIME .         2021-03-18T21_24_50           : 
group              .         Good                          : 
~Parameter Information Block
#_______________________________________________________________________________
#
#PARAMETER_NAME    .UNIT     VALUE                         : DESCRIPTION
#_______________________________________________________________________________
SET                .         D7028_D_2                     : 
NPR                .         155                           : Номер прибора
OTHER              .         Kedr.exe версия 2.1.2.32      : 
OTHER_10           .         TM.GRD = 0.00404*TM$.UE + 0.07: 
OTHER_11           .         MN.ATM = (6.33279e-006*TM.GRD + 0.02401)*(MN$.UE + 2.72*TM.GRD + -2018): 
OTHER_12           .         GK.MKR/H = GK$.UE / 43.5489 + 0: 
OTHER_13           .         RES.SM = 0.00476*CRES.UE - 1.51709: 
OTHER_14           .         PL.GSM3 = 0 + 0 * (PL.UE / 1) +  0 * (PL.UE / 1)^2: 
OTHER_15           .         Постоянная времени ГГП = 6 сек: 
OTHER_16           .         Постоянная времени ГК = 6 сек : 
OTHER_2            .         KedrData.dll версия 3.2.2.14  : 
OTHER_3            .         LasInf.dll версия 3.2.0.13    : 
OTHER_4            .         Драйвер версия 1.2.0.5        : 
OTHER_5            .         Прибор_ КСА-M1                : 
OTHER_6            .         Номер прибора_ 155+р204       : 
OTHER_7            .         Режим_ КСА-М1 + ГГП + Резистивиметр: 
OTHER_8            .         Форма_ 223\2                  : 
OTHER_9            .         Тарировки_                    : 
PR                 .         КСА-Т7 М1                     : Тип прибора
PROJECT_UPGRADE_TIME .         2021-03-18T21_24_50           : 
PRTY               .         ПП-223_2                      : Номер партии
SRV                .         ЦКРС                          : Заказчик
SRVC               .         Лузин  А.Б.                   : Начальник партии
TLFamily_DEPT      .         Measured Depth                : 
TLFamily_LM        .         Casing Collar locator         : 
TLFamily_MN        .                                       : 
TLFamily_SPID      .         Spontaneous Potential         : 
TLFamily_TM        .         Temperature                   : 
group              .         second                        : 
~Curve Information
#_______________________________________________________________________________
#
#LOGNAME           .UNIT     LOG_ID                        : DESCRIPTION
#_______________________________________________________________________________
DEPT               .M                                      : Depth curve 
LM                 .е.ацп                                  : Локация муфт 
MN                 .атм                                    : Манометрия, атм 
SPID               .м/ч                                    : Скорость записи,м/час 
TM                 .град.С                                 : Термометрия,град.С 
~Ascii
# ...
1656.75    518.994    146.3      -1860      48.79     
1656.95    466.011    146.32     -1860      48.79     
1657.15    560.981    146.34     -1859.993  48.8      
1657.35    402.001    146.35     -1799.999  48.8      
1657.55    407.012    146.37     -1790      48.81     
1657.75    510.016    146.39     -1790.007  48.81     
1657.95    646.009    146.42     -1852.993  48.82     
1658.15    724.009    146.42     -1796.999  48.82     
1658.35    799.992    146.44     -1790      48.82     
1658.55    736.009    146.47     -1790.008  48.83     
1658.75    815.99     146.47     -1860      48.83     
1658.95    729.996    146.49     -1859.992  48.84     
1659.15    695.009    146.52     -1793.008  48.84     
1659.35    771.019    146.54     -1860      48.84     
1659.55    932.983    146.55     -1859.993  48.85     
1659.75    788.994    146.57     -1797.007  48.86     
1659.95    738.993    146.59     -1859.999  48.86     
1660.15    677.996    146.6      -1849.993  48.87     
1660.35    644.009    146.62     -1790      48.87     
1660.55    724.004    146.65     -1790      48.87     
1660.75    760.02     146.65     -1790      48.88     
1660.95    932.984    146.67     -1790      48.88     
1661.15    798.048    146.7      -1790      48.89     
1661.35    1201.978   146.72     -1790.007  48.89     
1661.55    1016.954   146.72     -1849.001  48.89     
1661.75    628.015    146.75     -1860      48.9      
1661.95    756.017    146.77     -1859.993  48.9      
1662.15    895.974    146.77     -1803.005  48.91     
1662.35    676.003    146.8      -1848.994  48.91     
1662.55    703.003    146.82     -1800.999  48.92     
1662.75    727.997    146.83     -1790.007  48.92     
1662.95    699.019    146.86     -1853.001  48.93     
1663.15    857.966    146.89     -1860      48.93     
1663.35    572.997    146.9      -1859.992  48.94     
1663.55    551.015    146.92     -1794      48.94     
1663.75    675.981    146.94     -1790      48.95     
1663.95    513.992    146.95     -1790.008  48.95     
1664.15    444        146.97     -1856.992  48.95     
1664.35    448.003    146.99     -1790      48.96     
1664.55    473.004    147        -1790.008  48.96     
1664.75    503.005    147.02     -1855.993  48.97     
1664.95    546.019    147.04     -1794.008  48.97     
1665.15    707.029    147.07     -1860      48.98     
1665.35    953.035    147.07     -1855.993  48.98     
1665.55    1252.073   147.09     -1794.008  48.99     
1665.75    1864.133   147.12     -1860      48.99     
1665.95    2983.2     147.12     -1860      49        
1666.15    4663.522   147.15     -1860      49        
1666.35    637.998    147.17     -1860      49.01     
1666.55    621.986    147.2      -1859.999  49.01     
1666.75    506.021    147.2      -1852.993  49.02     
1666.95    683.987    147.22     -1790      49.02     
1667.15    575.996    147.25     -1794.007  49.02     
1667.35    541.995    147.25     -1852.993  49.03     
1667.55    497.016    147.27     -1790      49.03     
1667.75    629.012    147.3      -1790.001  49.04     
1667.95    730        147.3      -1797.007  49.04     
1668.15    731.027    147.32     -1860      49.04     
1668.35    956.068    147.35     -1859.999  49.05     
1668.55    1526.103   147.37     -1848.995  49.05     
1668.75    2391.844   147.39     -1803.007  49.06     
1668.95    1081.945   147.4      -1859.999  49.06     
1669.15    621.992    147.42     -1848.993  49.06     
1669.35    554.006    147.44     -1790.002  49.06     
1669.55    606.016    147.45     -1805.007  49.07     
1669.75    738.98     147.47     -1860      49.08     
1669.95    570.005    147.49     -1860      49.08     
1670.15    615.988    147.5      -1860      49.08     
1670.35    516.007    147.52     -1860      49.09     
1670.55    571.002    147.54     -1859.998  49.09     
1670.75    591.003    147.55     -1839.994  49.1      
1670.95    615.989    147.57     -1790      49.1      
1671.15    523.992    147.58     -1790.005  49.11     
1671.35    457.014    147.62     -1829.004  49.11     
1671.55    570.995    147.63     -1859.993  49.12     
1671.75    533.001    147.65     -1803.006  49.12     
1671.95    544.982    147.68     -1851.994  49.13     
1672.15    390.001    147.69     -1799.999  49.13     
1672.35    400.005    147.7      -1790      49.13     
1672.55    439.012    147.72     -1790      49.14     
1672.75    543.004    147.73     -1790      49.14     
1672.95    578.996    147.76     -1790      49.15     
1673.15    543.006    147.79     -1790      49.15     
1673.35    590.998    147.81     -1790      49.16     
1673.55    576.996    147.82     -1790.008  49.16     
1673.75    547.004    147.84     -1855.992  49.17     
1673.95    582.008    147.84     -1790.001  49.17     
1674.15    649.99     147.87     -1797.008  49.18     
1674.35    568.985    147.89     -1860      49.18     
1674.55    440        147.92     -1860      49.18     
1674.75    441.998    147.94     -1860      49.18     
1674.95    423.014    147.94     -1860      49.19     
1675.15    540.994    147.97     -1855.992  49.2      
1675.35    487.995    147.99     -1790      49.2      
1675.55    446        148        -1790.001  49.21     
1675.75    450.019    148.02     -1797.008  49.21     
1675.95    609.017    148.04     -1859.999  49.22     
1676.15    753.022    148.05     -1848.994  49.22     
1676.35    937.029    148.07     -1801.006  49.23     
1676.55    1181.061   148.09     -1848.993  49.23     
1676.75    1692.112   148.1      -1790      49.24     
1676.95    2626.162   148.12     -1790      49.24     
1677.15    3985.285   148.14     -1790      49.25     
1677.35    6367.337   148.15     -1790.002  49.25     
1677.55    817.975    148.17     -1807.004  49.25     
1677.75    606.978    148.2      -1843.994  49.26     
1677.95    423.991    148.22     -1790.002  49.26     
1678.15    347.996    148.22     -1809.003  49.27     
1678.35    310.998    148.25     -1836.994  49.27     
1678.55    291.011    148.27     -1790.003  49.28     
1678.75    380.994    148.27     -1815.005  49.28     
1678.95    333.003    148.3      -1860      49.29     
1679.15    357.997    148.32     -1860      49.29     
1679.35    334.004    148.33     -1860      49.3      
1679.55    363.994    148.35     -1859.997  49.3      
1679.75    311.008    148.37     -1836.994  49.3      
1679.95    374.002    148.39     -1790.003  49.3      
1680.15    390.986    148.4      -1812.003  49.32     
1680.35    278.004    148.43     -1834.995  49.32     
1680.55    312.005    148.44     -1790      49.32     
1680.75    350.002    148.45     -1790.003  49.33     
1680.95    370.01     148.48     -1818.005  49.34     
1681.15    450.997    148.5      -1860      49.34     
1681.35    421.981    148.52     -1859.992  49.34     
1681.55    266.008    148.53     -1794.008  49.35     
1681.75    336.003    148.55     -1859.999  49.35     
1681.95    357.003    148.58     -1852.992  49.36     
1682.15    380.016    148.59     -1790      49.36     
1682.35    510.997    148.6      -1790.001  49.36     
1682.55    489.015    148.63     -1797.007  49.37     
1682.75    612.986    148.64     -1852.992  49.37     
1682.95    497.997    148.67     -1790.001  49.38     
1683.15    468.993    148.69     -1801.007  49.38     
1683.35    414.002    148.7      -1860      49.39     
1683.55    434.018    148.72     -1859.999  49.39     
1683.75    586.028    148.74     -1848.993  49.39     
1683.95    815.996    148.77     -1790.002  49.4      
1684.15    778.997    148.77     -1803.007  49.4      
1684.35    757.996    148.8      -1859.996  49.41     
1684.55    726.004    148.82     -1826.99   49.41     
1684.75    756.008    148.82     -1746.005  49.42     
1684.95    824.979    148.85     -1790.003  49.42     
1685.15    652.007    148.87     -1816.002  49.42     
1685.35    711.022    148.89     -1832.995  49.42     
1685.55    896.998    148.9      -1790      49.43     
1685.75    882.993    148.92     -1790.003  49.44     
