~Version
 VERS              .         2.0                           : CWLS LOG ASCII STANDARD - VERSION 2.0
 WRAP              .         NO                            : ONE LINE PER DEPTH STEP
 DLM               .         SPACE                         : DELIMITING CHARACTER(SPACE TAB OR COMMA)
~Well Information
#_______________________________________________________________________________
#
#PARAMETER_NAME    .UNIT     VALUE                         : DESCRIPTION
#_______________________________________________________________________________
STRT               .M        2658.8                        : First reference value
STOP               .M        2768.199891                   : Last reference value
STEP               .M        0.1999998                     : Step increment
NULL               .         -9999                         : Missing value
COMP               .                                       : Company
WELL               .         616                           : Well name
FLD                .                                       : Field
LOC                .                                       : Location
CNTY               .                                       : County
STAT               .                                       : State
CTRY               .                                       : Country
SRVC               .                                       : Service Company
DATE               .                                       : Date
API                .                                       : API number
PROJECT_UPGRADE_TIME .         2021-03-18T21_24_50           : 
group              .         Good                          : 
~Parameter Information Block
#_______________________________________________________________________________
#
#PARAMETER_NAME    .UNIT     VALUE                         : DESCRIPTION
#_______________________________________________________________________________
SET                .         D7017_D_2                     : 
NPR                .         155                           : Номер прибора
OTHER              .         Kedr.exe версия 2.1.2.32      : 
OTHER_10           .         TM.GRD = 0.00404*TM$.UE + 0.07: 
OTHER_11           .         MN.ATM = (6.33279e-006*TM.GRD + 0.02401)*(MN$.UE + 2.72*TM.GRD + -2018): 
OTHER_12           .         GK.MKR/H = GK$.UE / 43.5489 + 0: 
OTHER_13           .         RES.SM = 0.00476*CRES.UE - 1.51709: 
OTHER_14           .         PL.GSM3 = 0 + 0 * (PL.UE / 1) +  0 * (PL.UE / 1)^2: 
OTHER_15           .         Постоянная времени ГГП = 6 сек: 
OTHER_16           .         Постоянная времени ГК = 6 сек : 
OTHER_2            .         KedrData.dll версия 3.2.2.14  : 
OTHER_3            .         LasInf.dll версия 3.2.0.13    : 
OTHER_4            .         Драйвер версия 1.2.0.5        : 
OTHER_5            .         Прибор_ КСА-M1                : 
OTHER_6            .         Номер прибора_ 155+р204       : 
OTHER_7            .         Режим_ КСА-М1 + ГГП + Резистивиметр: 
OTHER_8            .         Форма_ 223\2                  : 
OTHER_9            .         Тарировки_                    : 
PR                 .         КСА-Т7 М1                     : Тип прибора
PROJECT_UPGRADE_TIME .         2021-03-18T21_24_50           : 
PRTY               .         ПП-223_2                      : Номер партии
SRV                .         ЦКРС                          : Заказчик
SRVC               .         Лузин  А.Б.                   : Начальник партии
TLFamily_DEPT      .         Measured Depth                : 
TLFamily_GK        .         Gamma Ray                     : 
TLFamily_LM        .         Casing Collar locator         : 
TLFamily_MN        .                                       : 
TLFamily_SPID      .         Spontaneous Potential         : 
TLFamily_TM        .         Temperature                   : 
group              .         second                        : 
~Curve Information
#_______________________________________________________________________________
#
#LOGNAME           .UNIT     LOG_ID                        : DESCRIPTION
#_______________________________________________________________________________
DEPT               .M                                      : Depth curve 
GK                 .мкР/час                                : Гамма каротаж, мкр/час 
LM                 .е.ацп                                  : Локация муфт 
MN                 .атм                                    : Манометрия, атм 
SPID               .м/ч                                    : Скорость записи,м/час 
TM                 .град.С                                 : Термометрия,град.С 
~Ascii
# ...
2706.799952 10.36      274.963    247.99     -191.032   46.32     
2706.999952 10.9       124.995    248.02     -319.985   46.32     
2707.199952 10.84      104.007    248.07     -260       46.32     
2707.399951 10.98      130.997    248.07     -260       46.33     
2707.599951 11.17      119.994    248.08     -260       46.33     
2707.799951 11.25      97.002     248.1      -260       46.32     
2707.999951 10.93      107.003    248.12     -260       46.31     
2708.199951 10.58      119        248.13     -260       46.29     
2708.39995 10.56      116.995    248.18     -259.999   46.28     
2708.59995 11.09      95.01      248.18     -255.006   46.27     
2708.79995 11.37      134.994    248.2      -279.995   46.26     
2708.99995 11.2       108.997    248.2      -260       46.25     
2709.19995 11.03      96.003     248.22     -260       46.25     
2709.399949 11.06      107.005    248.25     -260       46.24     
2709.599949 11.64      125.991    248.26     -260       46.23     
2709.799949 11.69      87.999     248.27     -260       46.23     
2709.999949 10.87      85.006     248.31     -260.015   46.23     
2710.199949 10.16      108        248.32     -319.985   46.22     
2710.399948 9.61       105.997    248.33     -260       46.22     
2710.599948 8.95       92.003     248.37     -260       46.22     
2710.799948 9.37       103.001    248.39     -260       46.21     
2710.999948 10.471     107.999    248.39     -259.983   46.2      
2711.199948 12.87      103        248.41     -190.017   46.19     
2711.399947 14.47      101.007    248.45     -260       46.19     
2711.599947 13.4       129.994    248.46     -260       46.19     
2711.799947 12.14      105.999    248.47     -260       46.18     
2711.999947 11.27      101.01     248.48     -260       46.18     
2712.199947 12.38      142        248.52     -260.01    46.17     
2712.399946 13.72      139.994    248.53     -299.994   46.16     
2712.599946 13.26      117.003    248.55     -276.996   46.15     
2712.799946 11.699     130.004    248.58     -260.015   46.15     
2712.999946 9.2        146.073    248.6      -320       46.14     
2713.199946 7.38       443.021    248.62     -319.995   46.14     
2713.399945 7.13       4554.075   248.65     -299.998   46.14     
2713.599945 7.4        826.822    248.67     -289.997   46.14     
2713.799945 7.66       110.996    248.67     -277.996   46.14     
2713.999945 7.92       94.011     248.7      -260       46.14     
2714.199945 8.05       140.001    248.7      -260       46.13     
2714.399944 8.951      144.991    248.72     -260       46.12     
2714.599944 11.671     109.998    248.74     -260       46.11     
2714.799944 14.99      103.007    248.77     -260       46.11     
2714.999944 14.89      130.999    248.79     -260       46.11     
2715.199944 13.28      125.993    248.8      -260       46.11     
2715.399943 11.58      99.002     248.81     -260       46.1      
2715.599943 9.92       109        248.84     -259.993   46.09     
2715.799943 9.54       108.995    248.86     -232.012   46.09     
2715.999943 9.82       89.006     248.88     -279.995   46.08     
2716.199943 10.1       115.001    248.91     -260       46.09     
2716.399942 9.67       120.997    248.91     -260       46.09     
2716.599942 9.14       107.002    248.93     -260       46.08     
2716.799942 8.81       115.004    248.96     -260       46.07     
2716.999942 8.91       129.998    248.98     -260       46.07     
2717.199942 9.76       122.99     249        -260       46.07     
2717.399941 10.12      82.003     248.96     -260.01    46.06     
2717.599941 9.63       94.001     249.04     -299.995   46.06     
2717.799941 9.77       99.996     249.07     -277.996   46.06     
2717.999941 9.94       85.009     249.1      -260       46.05     
2718.199941 9.69       120        249.1      -260       46.06     
2718.39994 10.17      119.996    249.12     -260       46.06     
2718.59994 10.51      102        249.13     -259.994   46.06     
2718.79994 9.93       102.012    249.16     -234.006   46.06     
2718.99994 9.44       148.992    249.17     -260       46.04     
2719.19994 9.59       117.995    249.19     -260       46.05     
2719.399939 9.71       98.005     249.21     -260       46.05     
2719.599939 9.49       117        249.24     -260       46.05     
2719.799939 9.35       118.001    249.27     -259.983   46.05     
2719.999939 9.2        121.006    249.27     -190.017   46.04     
2720.199939 9.26       146.996    249.29     -260       46.04     
2720.399938 9.12       131.996    249.32     -260       46.04     
2720.599938 9.1        114.004    249.34     -260       46.04     
2720.799938 9.51       129.999    249.35     -260       46.04     
2720.999938 9.92       125.996    249.36     -260       46.03     
2721.199938 10.39      111.004    249.39     -260       46.04     
2721.399937 10.34      129        249.41     -260       46.03     
2721.599937 11.12      127.994    249.41     -260       46.03     
2721.799937 11.12      102.015    249.44     -260       46.03     
2721.999937 11.05      162.988    249.45     -260       46.04     
2722.199937 11.28      116.057    249.46     -260       46.03     
2722.399936 10.58      344.987    249.49     -260       46.03     
2722.599936 9.55       293.024    249.53     -260       46.03     
2722.799936 8.15       389.93     249.53     -260.015   46.03     
2722.999936 7.26       110.013    249.53     -319.968   46.03     
2723.199936 6.91       163.078    249.58     -190.017   46.03     
2723.399935 7.48       477.983    249.61     -260       46.03     
2723.599935 7.46       409.028    249.61     -260       46.03     
2723.799935 6.74       519.945    249.63     -260.007   46.03     
2723.999935 6.68       299.223    249.66     -289.997   46.03     
2724.199935 7.49       1193.731   249.67     -276.996   46.03     
2724.399934 8.31       113.027    249.7      -260       46.03     
2724.599934 8.39       222.03     249.7      -259.983   46.03     
2724.799934 7.52       343.957    249.7      -191.017   46.03     
2724.999934 7.1        172.039    249.73     -260       46.03     
2725.199934 7.31       326.938    249.75     -260       46.03     
2725.399933 6.99       76.993     249.76     -259.983   46.03     
2725.599933 7.07       50         249.8      -190.017   46.03     
2725.799933 7.25       51.004     249.8      -260.01    46.04     
2725.999933 7.64       66.997     249.82     -299.99    46.04     
2726.199933 7.54       55.002     249.83     -260       46.04     
2726.399932 7.2        64.002     249.85     -260       46.04     
2726.599932 7.44       72.999     249.87     -260       46.04     
2726.799932 8          68.008     249.9      -260       46.04     
2726.999932 9.09       101.012    249.9      -260       46.04     
2727.199932 10.32      148.997    249.92     -260       46.04     
2727.399931 10.72      135.979    249.95     -260       46.04     
2727.599931 10.79      52.006     249.96     -260       46.05     
2727.799931 10.59      75.004     249.97     -260       46.05     
2727.999931 10.59      93.003     249.97     -260       46.05     
2728.199931 9.839      104.02     250        -260       46.06     
2728.39993 7.71       184.001    250.02     -260       46.06     
2728.59993 6.79       188.016    250.01     -260       46.06     
2728.79993 6.76       251.989    250.04     -260       46.05     
2728.99993 6.38       205.99     250.04     -260       46.04     
2729.19993 6.02       165.001    250.07     -260       46.03     
2729.399929 6.22       171.032    250.1      -260       46.01     
2729.599929 6.5        298.114    250.11     -260       46.02     
2729.799929 6.93       756.882    250.13     -260.01    46.11     
2729.999929 7.09       282.032    250.15     -299.99    46.11     
2730.199929 6.48       411.973    250.15     -259.988   46.11     
2730.399928 6.39       301.993    250.18     -213.012   46.11     
2730.599928 7.05       271.968    250.2      -260       46.11     
