~Version
 VERS              .         2.0                           : CWLS LOG ASCII STANDARD - VERSION 2.0
 WRAP              .         NO                            : ONE LINE PER DEPTH STEP
 DLM               .         SPACE                         : DELIMITING CHARACTER(SPACE TAB OR COMMA)
~Well Information
#_______________________________________________________________________________
#
#PARAMETER_NAME    .UNIT     VALUE                         : DESCRIPTION
#_______________________________________________________________________________
STRT               .M        139                           : First reference value
STOP               .M        251.8                         : Last reference value
STEP               .M        0.2                           : Step increment
NULL               .         -9999                         : Missing value
COMP               .                                       : Company
WELL               .         616                           : Well name
FLD                .                                       : Field
LOC                .                                       : Location
CNTY               .                                       : County
STAT               .                                       : State
CTRY               .                                       : Country
SRVC               .                                       : Service Company
DATE               .                                       : Date
API                .                                       : API number
PROJECT_UPGRADE_TIME .         2021-03-18T21_24_50           : 
group              .         Good                          : 
~Parameter Information Block
#_______________________________________________________________________________
#
#PARAMETER_NAME    .UNIT     VALUE                         : DESCRIPTION
#_______________________________________________________________________________
SET                .         616_1                         : 
CONF               .         00                            : 
END                .         0                             : 
ERR                .         0                             : 
GS00               .M        0249.70                       : 
GS01               .M        0136.66                       : 
MM00               .M        0050.00                       : 
NOKG               .         0                             : 
NPR                .         980119                        : 
PART               .         Палагутин                     : 
PROJECT_UPGRADE_TIME .         2021-03-18T21_24_49           : 
PRZK               .         Шакиров                       : 
TLFamily_AZIMUTH   .         True Dip Azimuth              : 
TLFamily_DEPTH     .         Measured Depth                : 
TLFamily_METKA     .                                       : 
TLFamily_ROLL      .                                       : 
TLFamily_SPEED     .         Spontaneous Potential         : 
TLFamily_ZENIT     .                                       : 
VPRG               .         310                           : 
WAY                .         UP                            : 
group              .         prim                          : 
~Curve Information
#_______________________________________________________________________________
#
#LOGNAME           .UNIT     LOG_ID                        : DESCRIPTION
#_______________________________________________________________________________
DEPTH              .M                                      :  
AZIMUTH            .DEG                                    :  
METKA              .                                       :  
ROLL               .DEG                                    :  
SPEED              .M/H                                    :  
ZENIT              .DEG                                    :  
~Ascii
# ...
212.2      249.37     1          316.73     648        20.69     
212.4      249.1      0          317.94     612        20.64     
212.6      249.32     0          317.71     612        20.81     
212.8      249.88     0          317.58     612        20.81     
213        249.65     0          318.24     648        20.91     
213.2      249.47     0          317.83     648        20.89     
213.4      249.54     0          316.79     612        21.02     
213.6      250.85     0          316.7      612        21.04     
213.8      249.54     0          317.35     612        20.97     
214        249.6      0          317.91     576        21.07     
214.2      249.12     0          319.59     612        20.85     
214.4      250.88     0          318.96     648        20.96     
214.6      250.03     0          317.65     612        21.18     
214.8      250.51     0          317.38     612        21.19     
215        251.74     0          315.71     612        21.27     
215.2      251.09     0          314.71     612        21.32     
215.4      250.57     0          314.35     648        21.24     
215.6      249.47     0          313.62     648        21.22     
215.8      250.32     0          312.88     612        21.36     
216        252.18     0          312.05     612        21.5      
216.2      251.72     0          311.47     612        21.61     
216.4      249.6      0          312.85     648        21.72     
216.6      251.32     0          315.69     612        21.33     
216.8      249.86     0          316.81     648        21.53     
217        249.67     0          317.52     648        21.69     
217.2      250.94     0          317.95     576        21.75     
217.4      250.68     0          318.36     648        21.64     
217.6      250.84     0          317.73     612        21.73     
217.8      250.43     0          316.92     612        21.55     
218        252.29     0          316.4      648        21.79     
218.2      251.96     0          316.23     648        21.69     
218.4      253.98     0          314.33     612        22        
218.6      253.83     0          312.65     612        21.92     
218.8      254.78     0          311.25     612        21.83     
219        259.48     0          309.75     648        21.97     
219.2      277.94     0          309.38     648        21.96     
219.4      338.11     0          309.04     612        21.95     
219.6      184.78     0          309.09     612        22.29     
219.8      256.21     0          309.09     612        22.38     
220        315.67     0          309.01     648        22.48     
220.2      272.79     0          308.62     648        22.6      
220.4      258.93     0          308.64     648        22.54     
220.6      254.95     0          310.57     576        22.62     
220.8      253.69     0          314.17     648        22.57     
221        252.38     0          317.04     612        22.32     
221.2      251.87     0          318.38     648        22.25     
221.4      251.62     0          319.2      612        22.21     
221.6      251.85     0          319.67     648        22.19     
221.8      251.83     0          320.19     576        22.4      
222        252.92     1          320.16     648        22.48     
222.2      251.59     0          321.49     612        22.53     
222.4      252.77     0          323.03     648        22.42     
222.6      252.65     0          323.41     612        22.38     
222.8      251.45     0          322.35     612        22.24     
223        250.68     0          320.88     648        22.35     
223.2      252.82     0          319.58     648        22.5      
223.4      254.77     0          319.4      648        23.1      
223.6      250.91     0          318.72     612        22.68     
223.8      251.42     0          317.89     612        22.81     
224        252.31     0          316.69     612        22.61     
224.2      252.7      0          315.1      648        22.75     
224.4      252.57     0          314.25     648        22.78     
224.6      250.5      0          314.11     612        22.97     
224.8      253.01     0          316.98     648        22.81     
225        253.06     0          318.38     612        22.94     
225.2      253.41     0          317.86     648        22.79     
225.4      251.88     0          316.68     612        22.73     
225.6      251.03     0          316.28     684        22.82     
225.8      252.07     0          316.67     648        22.85     
226        252.69     0          316.7      684        22.89     
226.2      252.87     0          316.69     540        23.05     
226.4      252.59     0          318.32     504        23.04     
226.6      253.39     0          318.85     504        22.72     
226.8      253.02     0          316.82     504        23.03     
227        252.17     0          315.65     504        23.08     
227.2      253.24     0          315.53     468        22.98     
227.4      251.76     0          316.74     504        23.07     
227.6      252.24     2          316.99     432        22.84     
227.8      250.51     0          317.38     108        22.9      
228        251.81     0          317.69     504        23.07     
228.2      250.86     0          317.77     540        23.02     
228.4      251.07     0          319.21     468        23.04     
228.6      251.72     0          319.59     504        23.08     
228.8      251.42     0          320.71     504        23.13     
229        252.19     0          322.01     504        23.02     
229.2      253.1      0          322.11     504        23.36     
229.4      251.63     0          323.43     504        23.15     
229.6      251.81     0          324.59     504        23.22     
229.8      253.18     0          324.02     468        23.33     
230        252.46     0          323.39     504        23.24     
230.2      253.36     0          322.96     504        23.26     
230.4      253.68     0          323.45     504        23.38     
230.6      253.46     0          323.98     432        23.3      
230.8      254.07     0          323.52     504        23.39     
231        257.08     0          321.2      504        23.42     
231.2      259.55     0          317.65     504        23.43     
231.4      276.86     0          315.55     504        23.5      
231.6      323.49     0          313.83     504        23.52     
231.8      195.79     0          312.95     504        23.63     
232        304.55     0          314.16     504        23.51     
232.2      353.22     1          314.35     504        23.61     
232.4      269.69     0          314.48     504        23.72     
232.6      257.65     0          315.93     504        23.82     
232.8      255.92     0          318.85     468        23.8      
233        253.21     0          322.42     504        23.57     
233.2      253.34     0          325.12     504        23.59     
233.4      254.22     0          326.48     504        23.61     
233.6      253.11     0          327.32     468        23.46     
233.8      253.01     0          327.11     504        23.46     
234        252.58     0          326.56     504        23.34     
234.2      254.16     0          325.83     504        23.56     
234.4      253.72     0          324.86     504        23.62     
234.6      253.31     0          324.07     468        23.55     
234.8      254.59     0          323.45     504        23.64     
235        253.17     0          323.24     468        23.66     
235.2      252.36     0          322.7      504        23.4      
235.4      253.32     0          322        504        23.68     
235.6      255.95     0          318.49     468        23.88     
235.8      253.36     0          315.48     504        23.82     
236        254.35     0          313.6      504        23.92     
236.2      252.48     0          313.34     468        23.78     
236.4      253.37     0          313.07     504        23.84     
