~Version
 VERS              .         2.0                           : CWLS LOG ASCII STANDARD - VERSION 2.0
 WRAP              .         NO                            : ONE LINE PER DEPTH STEP
 DLM               .         SPACE                         : DELIMITING CHARACTER(SPACE TAB OR COMMA)
~Well Information
#_______________________________________________________________________________
#
#PARAMETER_NAME    .UNIT     VALUE                         : DESCRIPTION
#_______________________________________________________________________________
STRT               .M        44.8                          : First reference value
STOP               .M        2755.2                        : Last reference value
STEP               .M        0.2                           : Step increment
NULL               .         -9999                         : Missing value
COMP               .                                       : Company
WELL               .         616                           : Well name
FLD                .                                       : Field
LOC                .                                       : Location
CNTY               .                                       : County
STAT               .                                       : State
CTRY               .                                       : Country
SRVC               .                                       : Service Company
DATE               .                                       : Date
API                .                                       : API number
PROJECT_UPGRADE_TIME .         2021-03-18T21_24_50           : 
group              .         Good                          : 
~Parameter Information Block
#_______________________________________________________________________________
#
#PARAMETER_NAME    .UNIT     VALUE                         : DESCRIPTION
#_______________________________________________________________________________
SET                .         D4390_D_2                     : 
COMM               .                                       : 
OTHER              .         Запись производится в присутствии: 
OTHER_10           .         Максимальная температура      : 
OTHER_100          .         GK.FLT = 0.1*GR.UR/H[-1] + (1-0.1)*GR.UR/H[0]: 
OTHER_11           .         Тип промывочной жидкости      : 
OTHER_12           .         Сопротивление ПЖ (Ом*м) при 20°C: 
OTHER_13           .         Плотность ПЖ(г/см3)           : 
OTHER_14           .         Вязкость ПЖ(с)                : 
OTHER_15           .         Водоотдача ПЖ(см3/30мин)      : 
OTHER_16           .         Уровень ПЖ                    : 
OTHER_17           .         Нефть ПЖ (%)                  : 
OTHER_18           .         Барит ПЖ (%)                  : 
OTHER_19           .         Гематит ПЖ (%)                : 
OTHER_2            .         Заказчик ННСН  ЦДНГ-1         : 
OTHER_20           .         КМЦ ПЖ (%)                    : 
OTHER_21           .         Разгазирование ПЖ (да,нет)    : 
OTHER_22           .         Подъемник                     : 
OTHER_23           .         Лаборатория                   : 
OTHER_24           .         Тип кабеля                    : 
OTHER_25           .         Длина кабеля (м)              : 
OTHER_26           .         Цена последней метки          : 
OTHER_27           .         Цена контрольной метки        : 
OTHER_28           .         Диаметр долота (мм)           : 
OTHER_29           .         Глубина бурения (м)           : 
OTHER_3            .         Площадь                       : 
OTHER_30           .         Искусственный забой (м)       : 
OTHER_31           .         Диаметр колонны (мм)          : 
OTHER_32           .         Толщина колонны (мм)          : 
OTHER_33           .         Башмак колонны (м)            : 
OTHER_34           .         Диаметр НКТ (мм)              : 
OTHER_35           .         Толщина НКТ (мм)              : 
OTHER_36           .         Воронка НКТ (м)               : 
OTHER_37           .         Дата цементожа                : 
OTHER_38           .         Тип, количество(т) и плотность цемента: 
OTHER_39           .         Интервалы перфорации (м)      : 
OTHER_4            .         Категория                     : 
OTHER_40           .         Направление, диаметр (мм)     : 
OTHER_41           .         Направление, глубина (м)      : 
OTHER_42           .         Кондуктор, диаметр (мм)       : 
OTHER_43           .         Кондуктор, глубина (м)        : 
OTHER_44           .         Техническая колонна, диаметр (мм): 
OTHER_45           .         Техническая колонна, глубина (м): 
OTHER_46           .         Эксплуатационная колонна, диаметр (мм): 
OTHER_47           .         Эксплуатационная колонна, глубина (м): 
OTHER_48           .         Программа Кедр-02 версия 3.4  : 
OTHER_49           .         Операционная система Windows NT 5.1 build 2600 Service Pack 2: 
OTHER_5            .         Назначение исследований       : 
OTHER_50           .         Программное обеспечение станции MONITOR-386EX 25/12/99 15_08_10   BGF V54 20/09/05 15_32_17   3.3__BGF_9030071: 
OTHER_51           .         Kedr.exe версия 3.4.2.74      : 
OTHER_52           .         KedrData.dll версия 3.4.2.29  : 
OTHER_53           .         Мнемоники версия 3.18 S       : 
OTHER_54           .         Драйвер версия 2.1.1.4        : 
OTHER_55           .         LasInf.dll 4.3.0.35           : 
OTHER_56           .         Прибор_ КСА-Т4                : 
OTHER_57           .         Номер прибора_ 160            : 
OTHER_58           .         Режим_ КСА-Т4                 : 
OTHER_59           .         Форма_ С.А.Б.                 : 
OTHER_6            .         Альтитуда стола ротора        : 
OTHER_60           .         Тарировки_                    : 
OTHER_61           .         <_techsia_sc_> Дата тарировки температуры 25.05.2010: 
OTHER_62           .         Ручной ввод коэффициентов     : 
OTHER_63           .         TM.DEGC = 0.00402*RTM.E.ACP + -0.994: 
OTHER_64           .         <_techsia_sc_> Дата тарировки давления 25.05.2010: 
OTHER_65           .         Ручной ввод коэффициентов     : 
OTHER_66           .         MN.ATM = (2.27521e-006*TM.DEGC + 0.02078)*(RMN.E.ACP + 6.2*TM.DEGC + -1688): 
OTHER_67           .         <_techsia_sc_> Дата тарировки ГК 25.05.2010: 
OTHER_68           .         Ручной ввод коэффициентов     : 
OTHER_69           .         GR.UR/H = RGR.IMP/MIN / 45.5144: 
OTHER_7            .         Вид исследований 3  6         : 
OTHER_70           .         GK.FLT = 0.1*GR.UR/H[-1] + (1-0.1)*GR.UR/H[0]: 
OTHER_71           .         <_techsia_sc_> Дата тарировки температуры 25.05.2010: 
OTHER_72           .         Ручной ввод коэффициентов     : 
OTHER_73           .         TM.DEGC = 0.00402*RTM.E.ACP + -0.994: 
OTHER_74           .         <_techsia_sc_> Дата тарировки давления 25.05.2010: 
OTHER_75           .         Ручной ввод коэффициентов     : 
OTHER_76           .         MN.ATM = (2.27521e-006*TM.DEGC + 0.02078)*(RMN.E.ACP + 6.2*TM.DEGC + -1688): 
OTHER_77           .         <_techsia_sc_> Дата тарировки ГК 25.05.2010: 
OTHER_78           .         Ручной ввод коэффициентов     : 
OTHER_79           .         GR.UR/H = RGR.IMP/MIN / 45.5144: 
OTHER_8            .         Начало бурения интервала каротажа: 
OTHER_80           .         GK.FLT = 0.1*GR.UR/H[-1] + (1-0.1)*GR.UR/H[0]: 
OTHER_81           .         <_techsia_sc_> Дата тарировки температуры 25.05.2010: 
OTHER_82           .         Ручной ввод коэффициентов     : 
OTHER_83           .         TM.DEGC = 0.00402*RTM.E.ACP + -0.994: 
OTHER_84           .         <_techsia_sc_> Дата тарировки давления 25.05.2010: 
OTHER_85           .         Ручной ввод коэффициентов     : 
OTHER_86           .         MN.ATM = (2.27521e-006*TM.DEGC + 0.02078)*(RMN.E.ACP + 6.2*TM.DEGC + -1688): 
OTHER_87           .         <_techsia_sc_> Дата тарировки ГК 25.05.2010: 
OTHER_88           .         Ручной ввод коэффициентов     : 
OTHER_89           .         GR.UR/H = RGR.IMP/MIN / 45.5144: 
OTHER_9            .         Окончание бурения интервала каротажа: 
OTHER_90           .         GK.FLT = 0.1*GR.UR/H[-1] + (1-0.1)*GR.UR/H[0]: 
OTHER_91           .         <_techsia_sc_> Дата тарировки температуры 25.05.2010: 
OTHER_92           .         Ручной ввод коэффициентов     : 
OTHER_93           .         TM.DEGC = 0.00402*RTM.E.ACP + -0.994: 
OTHER_94           .         <_techsia_sc_> Дата тарировки давления 25.05.2010: 
OTHER_95           .         Ручной ввод коэффициентов     : 
OTHER_96           .         MN.ATM = (2.27521e-006*TM.DEGC + 0.02078)*(RMN.E.ACP + 6.2*TM.DEGC + -1688): 
OTHER_97           .         <_techsia_sc_> Дата тарировки ГК 25.05.2010: 
OTHER_98           .         Ручной ввод коэффициентов     : 
OTHER_99           .         GR.UR/H = RGR.IMP/MIN / 45.5144: 
PROJECT_UPGRADE_TIME .         2021-03-18T21_24_50           : 
PRTY               .         ПП-601-1                      : N партии
SRVC               .         Барковский                    : Начальник партии
TLFamily_DEPT      .         Measured Depth                : 
TLFamily_LM        .         Casing Collar locator         : 
TLFamily_METKA     .                                       : 
TLFamily_MN        .                                       : 
TLFamily_TM        .         Temperature                   : 
group              .         second                        : 
~Curve Information
#_______________________________________________________________________________
#
#LOGNAME           .UNIT     LOG_ID                        : DESCRIPTION
#_______________________________________________________________________________
DEPT               .M                                      : Depth curve 
LM                 .е.ацп                                  : Локатор муфт,е.ацп 
METKA              .е.ацп                                  : Магнитные метки,е.ацп 
MN                 .атм                                    : 12 Давление, атм. -  160.0 см 
TM                 .град.C                                 : Термограмма по стволу скважины,град.C 
~Ascii
# ...
2380.8     1063.005   0          212.986    62.705    
2381       1089.938   0          212.969    62.713    
2381.2     725.01     0          213.033    62.72     
2381.4     783.982    0          213.034    62.73     
2381.6     675.988    0          213.035    62.735    
2381.8     603.995    0          213.088    62.744    
2382       572.003    0          213.1      62.751    
2382.2     591.98     0          213.108    62.758    
2382.4     473.984    0          213.145    62.767    
2382.6     381.013    0          213.153    62.776    
2382.8     454.991    0          213.184    62.784    
2383       403.999    0          213.19     62.791    
2383.2     396.994    0          213.198    62.801    
2383.4     360.995    0          213.224    62.807    
2383.6     331.017    0          213.251    62.812    
2383.8     431.999    0          213.237    62.822    
2384       425.001    1          213.297    62.832    
2384.2     430.002    0          213.29     62.839    
2384.4     441.992    0          213.33     62.848    
2384.6     397.997    0          213.329    62.857    
2384.8     380.015    0          213.35     62.863    
2385       468.997    0          213.391    62.873    
2385.2     450.996    0          213.402    62.879    
2385.4     430.006    0          213.414    62.888    
2385.6     465.021    0          213.433    62.897    
2385.8     588.031    0          213.478    62.903    
2386       771.986    0          213.474    62.914    
2386.2     689.984    0          213.503    62.92     
2386.4     594.022    0          213.519    62.929    
2386.6     724.002    0          213.546    62.937    
2386.8     736.969    0          213.532    62.944    
2387       557.982    0          213.584    62.954    
2387.2     451.994    0          213.584    62.964    
2387.4     418.989    0          213.609    62.973    
2387.6     354.989    0          213.636    62.979    
2387.8     288.004    0          213.643    62.989    
2388       309.01     0          213.67     62.996    
2388.2     367.001    0          213.683    63.005    
2388.4     371.003    0          213.702    63.01     
2388.6     390.008    0          213.727    63.02     
2388.8     436.999    0          213.733    63.027    
2389       434.004    0          213.761    63.036    
2389.2     457.008    0          213.773    63.045    
2389.4     505.992    0          213.792    63.051    
2389.6     460.017    0          213.819    63.06     
2389.8     558.834    0          213.846    63.07     
2390       5439.671   0          213.861    63.077    
2390.2     3513.815   0          213.878    63.085    
2390.4     2431.796   0          213.885    63.092    
2390.6     1239.94    0          213.897    63.099    
2390.8     886.974    0          213.95     63.107    
2391       732.987    0          213.951    63.113    
2391.2     656.98     0          213.969    63.122    
2391.4     538.997    0          213.995    63.128    
2391.6     522.007    0          214.001    63.138    
2391.8     562.993    0          214.035    63.144    
2392       520.018    0          214.048    63.154    
2392.2     624.998    0          214.06     63.162    
2392.4     611.979    0          214.085    63.169    
2392.6     487.006    0          214.107    63.176    
2392.8     523.006    0          214.129    63.184    
2393       559.015    0          214.151    63.19     
2393.2     648.977    0          214.171    63.2      
2393.4     514.015    0          214.179    63.207    
2393.6     598.989    0          214.217    63.215    
2393.8     532.007    0          214.218    63.221    
2394       572.032    0          214.253    63.23     
2394.2     758.991    0          214.243    63.237    
2394.4     705.99     0          214.285    63.246    
2394.6     649.993    0          214.295    63.256    
2394.8     607.013    2          214.308    63.262    
2395       682.002    0          214.343    63.27     
2395.2     695.997    0          214.332    63.277    
2395.4     680.994    0          214.38     63.284    
2395.6     645.984    0          214.397    63.293    
2395.8     549.971    0          214.398    63.303    
2396       381.01     0          214.436    63.311    
2396.2     437.021    0          214.463    63.318    
2396.4     559.993    0          214.473    63.328    
2396.6     521.997    0          214.502    63.335    
2396.8     502.997    0          214.509    63.343    
2397       486.996    0          214.535    63.351    
2397.2     465.992    0          214.561    63.36     
2397.4     422.014    0          214.575    63.366    
2397.6     504.983    0          214.593    63.371    
2397.8     404.009    0          214.618    63.381    
2398       454.988    0          214.624    63.389    
2398.2     387.013    0          214.65     63.396    
2398.4     464.013    0          214.676    63.402    
2398.6     542.001    0          214.687    63.411    
2398.8     549.004    0          214.709    63.418    
2399       572.999    0          214.731    63.425    
2399.2     564.998    0          214.732    63.43     
2399.4     554.986    0          214.759    63.439    
2399.6     476.017    0          214.794    63.445    
2399.8     574.71     0          214.8      63.453    
2400       4711.723   0          214.82     63.46     
2400.2     3095.814   0          214.83     63.466    
2400.4     2014.885   0          214.857    63.471    
2400.6     1344.937   0          214.885    63.48     
2400.8     978.942    0          214.889    63.485    
2401       642        0          214.915    63.49     
2401.2     640.003    0          214.929    63.495    
2401.4     655.004    1          214.948    63.5      
2401.6     678.992    0          214.972    63.508    
2401.8     634.995    1          214.999    63.513    
2402       603.012    0          215.01     63.521    
2402.2     670.998    0          215.019    63.527    
2402.4     662.015    1          215.04     63.532    
2402.6     748.995    0          215.062    63.537    
2402.8     719.985    1          215.068    63.544    
2403       634.008    0          215.094    63.551    
2403.2     681.013    0          215.119    63.555    
2403.4     758.008    0          215.147    63.561    
2403.6     802.988    0          215.15     63.569    
2403.8     733.978    0          215.161    63.574    
2404       605.005    0          215.193    63.579    
2404.2     634.01     0          215.18     63.584    
2404.4     693.994    0          215.248    63.59     
2404.6     658.987    0          215.241    63.597    
2404.8     582.005    2          215.267    63.602    
2405       612.997    0          215.294    63.607    
2405.2     594.994    0          215.289    63.616    
2405.4     562.998    0          215.326    63.621    
2405.6     552.005    0          215.347    63.626    
2405.8     583.045    0          215.357    63.634    
2406       842.998    0          215.382    63.639    
2406.2     831.998    0          215.392    63.644    
2406.4     819.027    0          215.416    63.651    
2406.6     976.994    0          215.449    63.66     
2406.8     940.988    0          215.458    63.665    
2407       873.971    0          215.48     63.673    
2407.2     706.014    0          215.491    63.681    
2407.4     786.999    0          215.515    63.687    
2407.6     781.99     0          215.531    63.692    
2407.8     723.017    0          215.565    63.701    
2408       819.985    0          215.569    63.706    
2408.2     731.994    0          215.597    63.711    
2408.4     699.021    0          215.622    63.719    
2408.6     820.02     0          215.621    63.724    
2408.8     935.951    1          215.651    63.733    
2409       653.003    0          215.678    63.738    
2409.2     670.012    0          215.685    63.743    
2409.4     738.963    0          215.712    63.748    
2409.6     527.812    0          215.723    63.757    
2409.8     5236.552   0          215.742    63.762    
