~Version
 VERS              .         2.0                           : CWLS LOG ASCII STANDARD - VERSION 2.0
 WRAP              .         NO                            : ONE LINE PER DEPTH STEP
 DLM               .         SPACE                         : DELIMITING CHARACTER(SPACE TAB OR COMMA)
~Well Information
#_______________________________________________________________________________
#
#PARAMETER_NAME    .UNIT     VALUE                         : DESCRIPTION
#_______________________________________________________________________________
STRT               .M        11                            : First reference value
STOP               .M        2775.8                        : Last reference value
STEP               .M        0.2                           : Step increment
NULL               .         -9999                         : Missing value
COMP               .                                       : Company
WELL               .         616                           : Well name
FLD                .                                       : Field
LOC                .                                       : Location
CNTY               .                                       : County
STAT               .                                       : State
CTRY               .                                       : Country
SRVC               .                                       : Service Company
DATE               .                                       : Date
API                .                                       : API number
PROJECT_UPGRADE_TIME .         2021-03-18T21_24_50           : 
group              .         Good                          : 
~Parameter Information Block
#_______________________________________________________________________________
#
#PARAMETER_NAME    .UNIT     VALUE                         : DESCRIPTION
#_______________________________________________________________________________
SET                .         D1813_D                       : 
OTHER              .         Программное обеспечение станции MONITOR-386EX 25/12/99 15_08_10   BGF V52 22/08/01 16_56_30   3.1_SNGF___BGF_N_092049: 
OTHER_10           .         Тарировки_                    : 
OTHER_11           .         TM.GRD = 0.00403*TM$.UE + -1.07: 
OTHER_12           .         MN.ATM = (9.34907e-006*TM.GRD + 0.02171)*(MN$.UE + -7.93*TM.GRD + -1787): 
OTHER_13           .         GK.MKR/H = LM. / 42.4676      : 
OTHER_14           .         GK.FLT = 0.1*GK.MKR/H[-1] + (1-0.1)*GK.MKR/H[0]: 
OTHER_2            .         Kedr.exe версия 3.4.2.51      : 
OTHER_3            .         KedrData.dll версия 3.4.2.24  : 
OTHER_4            .         Драйвер версия 2.1.1.3        : 
OTHER_5            .         Мнемоники версия 3.3 S        : 
OTHER_6            .         Прибор_ КСА-Т4                : 
OTHER_7            .         Номер прибора_ 03             : 
OTHER_8            .         Режим_ КСА-Т4                 : 
OTHER_9            .         Форма_ КВА.                   : 
PROJECT_UPGRADE_TIME .         2021-03-18T21_24_49           : 
TLFamily_DEPT      .         Measured Depth                : 
TLFamily_GK        .         Gamma Ray                     : 
TLFamily_GK$       .                                       : 
TLFamily_GK_2      .         Gamma Ray                     : 
TLFamily_LM        .         Casing Collar locator         : 
TLFamily_METKA     .                                       : 
TLFamily_MN        .                                       : 
TLFamily_MN$       .                                       : 
TLFamily_RCOR      .                                       : 
TLFamily_SPID      .         Spontaneous Potential         : 
TLFamily_TENS      .         Cable Tension                 : 
TLFamily_TIME      .         Time                          : 
TLFamily_TM        .         Temperature                   : 
TLFamily_TM$       .         Temperature                   : 
group              .         prim                          : 
~Curve Information
#_______________________________________________________________________________
#
#LOGNAME           .UNIT     LOG_ID                        : DESCRIPTION
#_______________________________________________________________________________
DEPT               .M                                      : 1 Глубина, м -    0.0 см 
GK                 .MKR/H                                  : 13 Гамма-активность, мкр./ч -  110.0 см 
GK$                .UE                                     : 10 Гамма-активность, усл.ед. -  110.0 см 
GK_2               .FLT                                    : 14 Гамма-активность фильтрованная, мкр./ч -  110.0 см 
LM                 .                                       : 9 Локатор муфт,  -   20.0 см 
METKA              .                                       : 3 Метки,  -    0.0 см 
MN                 .ATM                                    : 12 Давление, атм. -  160.0 см 
MN$                .UE                                     : 8 Давление, усл.ед. -  160.0 см 
RCOR               .CM/KM                                  : 5 Коррекция по ролику, см/км -    0.0 см 
SPID               .M/H                                    : 2 Скорость, м/час -    0.0 см 
TENS               .T                                      : 6 Натяжение кабеля, т -    0.0 см 
TIME               .S                                      : 4 Время, сек -    0.0 см 
TM                 .GRD                                    : 11 Температура, °C -  170.0 см 
TM$                .UE                                     : 7 Температура, усл.ед. -  170.0 см 
~Ascii
# ...
2215.8     9.63       409        9.68       1993       0          199.86     11221      -972       -2285      0.11       8700.01    56.195     14210     
2216       9.63       409        9.75       3045       0          199.879    11222      -972       -2287      0.11       8699.69    56.196     14210     
2216.2     9.63       409        9.93       4767       0          199.897    11223      -972       -2289      0.1        8699.38    56.197     14210     
2216.4     10.24      435        10.36      4767       0          199.915    11224      -972       -2288      0.09       8699.07    56.2       14211     
2216.6     10.55      448        10.55      7310       0          199.935    11224      -972       -2286      0.09       8698.75    56.2       14211     
2216.8     10.55      448        10.55      646        0          199.953    11225      -972       -2285      0.09       8698.45    56.204     14212     
2217       10.55      448        10.55      672        0          199.973    11226      -972       -2284      0.09       8698.13    56.207     14213     
2217.2     10.55      448        10.54      697        0          200.01     11228      -972       -2282      0.09       8697.83    56.21      14214     
2217.4     10.55      448        10.54      697        0          200.03     11229      -972       -2281      0.09       8697.52    56.212     14214     
2217.6     10.55      448        10.52      862        0          200.048    11230      -972       -2279      0.09       8697.18    56.213     14214     
2217.8     10.49      446        10.47      1107       0          200.067    11230      -972       -2278      0.09       8696.86    56.216     14215     
2218       10.43      443        10.43      1492       0          200.066    11230      -972       -2281      0.09       8696.56    56.216     14215     
2218.2     10.43      443        10.43      473        0          200.022    11228      -972       -2285      0.1        8696.25    56.219     14216     
2218.4     10.43      443        10.43      564        0          200.111    11232      -972       -2285      0.11       8695.95    56.222     14216     
2218.6     10.43      443        10.42      564        0          200.14     11234      -972       -2283      0.11       8695.63    56.225     14217     
2218.8     10.43      443        10.41      571        0          200.158    11235      -972       -2282      0.11       8695.31    56.225     14217     
2219       10.43      443        10.39      543        0          200.176    11235      -972       -2280      0.11       8695       56.228     14218     
2219.2     10.43      443        10.34      583        0          200.196    11236      -972       -2278      0.11       8694.7     56.229     14218     
2219.4     10.36      440        10.22      557        0          200.215    11237      -972       -2276      0.09       8694.36    56.231     14219     
2219.6     9.98       424        9.98       592        0          200.233    11238      -972       -2274      0.09       8694.07    56.233     14219     
2219.8     9.98       424        9.98       592        0          200.251    11239      -972       -2275      0.09       8693.75    56.234     14219     
2220       9.98       424        9.99       741        2          200.269    11240      -970       -2278      0.09       8693.4     56.237     14220     
2220.2     9.98       424        9.99       727        0          200.288    11240      -968       -2282      0.1        8693.06    56.241     14221     
2220.4     9.98       424        9.99       787        0          200.307    11241      -968       -2285      0.11       8692.75    56.241     14221     
2220.6     9.98       424        10         729        0          200.324    11242      -968       -2284      0.11       8692.42    56.246     14222     
2220.8     9.98       424        10.02      619        0          200.342    11243      -968       -2282      0.11       8692.11    56.249     14223     
2221       9.98       424        10.08      704        0          200.38     11245      -968       -2281      0.1        8691.81    56.249     14223     
2221.2     10.24      435        10.25      822        0          200.388    11245      -968       -2282      0.09       8691.49    56.25      14223     
2221.4     10.27      436        10.27      822        0          200.398    11245      -968       -2284      0.1        8691.17    56.253     14224     
2221.6     10.27      436        10.27      859        0          200.428    11247      -968       -2282      0.11       8690.86    56.256     14225     
2221.8     10.27      436        10.26      697        0          200.462    11248      -968       -2281      0.11       8690.55    56.257     14225     
2222       10.27      436        10.26      684        0          200.48     11249      -968       -2279      0.11       8690.23    56.26      14226     
2222.2     10.27      436        10.26      706        0          200.499    11250      -968       -2277      0.1        8689.94    56.263     14227     
2222.4     10.27      436        10.24      741        0          200.518    11251      -968       -2279      0.1        8689.61    56.265     14227     
2222.6     10.27      436        10.21      710        0          200.535    11252      -968       -2280      0.11       8689.29    56.266     14227     
2222.8     10.16      431        10.14      710        0          200.554    11253      -968       -2279      0.11       8689       56.269     14228     
2223       10.1       429        10.1       643        0          200.573    11253      -968       -2283      0.11       8688.67    56.273     14229     
2223.2     10.1       429        10.1       612        0          200.591    11254      -968       -2287      0.11       8688.34    56.273     14229     
2223.4     10.1       429        10.09      633        0          200.61     11255      -968       -2286      0.11       8688.05    56.275     14230     
2223.6     10.1       429        10.08      597        0          200.629    11256      -968       -2285      0.11       8687.74    56.277     14230     
2223.8     10.1       429        10.05      658        0          200.646    11257      -968       -2283      0.1        8687.41    56.278     14230     
2224       10.1       429        9.98       658        0          200.665    11258      -968       -2284      0.09       8687.1     56.281     14231     
2224.2     9.88       420        9.81       651        0          200.684    11258      -968       -2287      0.09       8686.79    56.281     14231     
2224.4     9.68       411        9.68       678        0          200.701    11259      -968       -2286      0.11       8686.47    56.284     14232     
2224.6     9.68       411        9.68       666        0          200.723    11260      -968       -2285      0.11       8686.17    56.285     14232     
2224.8     9.68       411        9.68       621        0          200.761    11262      -968       -2278      0.11       8685.85    56.287     14233     
2225       9.68       411        9.68       678        0          200.78     11263      -968       -2277      0.11       8685.53    56.289     14233     
2225.2     9.68       411        9.68       678        0          200.798    11264      -968       -2280      0.11       8685.23    56.29      14233     
2225.4     9.68       411        9.68       650        0          200.818    11264      -968       -2283      0.11       8684.93    56.293     14234     
2225.6     9.68       411        9.68       594        0          200.836    11265      -968       -2281      0.09       8684.59    56.293     14234     
2225.8     9.68       411        9.69       645        0          200.854    11266      -968       -2279      0.11       8684.29    56.296     14235     
2226       9.7        412        9.7        785        0          200.873    11267      -968       -2277      0.11       8683.97    56.299     14236     
