~Version
 VERS              .         2.0                           : CWLS LOG ASCII STANDARD - VERSION 2.0
 WRAP              .         NO                            : ONE LINE PER DEPTH STEP
 DLM               .         SPACE                         : DELIMITING CHARACTER(SPACE TAB OR COMMA)
~Well Information
#_______________________________________________________________________________
#
#PARAMETER_NAME    .UNIT     VALUE                         : DESCRIPTION
#_______________________________________________________________________________
STRT               .M        19.65                         : First reference value
STOP               .M        2766.85                       : Last reference value
STEP               .M        0.2                           : Step increment
NULL               .         -9999                         : Missing value
COMP               .                                       : Company
WELL               .         616                           : Well name
FLD                .                                       : Field
LOC                .                                       : Location
CNTY               .                                       : County
STAT               .                                       : State
CTRY               .                                       : Country
SRVC               .                                       : Service Company
DATE               .                                       : Date
API                .                                       : API number
PROJECT_UPGRADE_TIME .         2021-03-18T21_24_50           : 
group              .         Good                          : 
~Parameter Information Block
#_______________________________________________________________________________
#
#PARAMETER_NAME    .UNIT     VALUE                         : DESCRIPTION
#_______________________________________________________________________________
SET                .         D7016_D_2                     : 
NPR                .         155                           : Номер прибора
OTHER              .         Kedr.exe версия 2.1.2.32      : 
OTHER_10           .         TM.GRD = 0.00404*TM$.UE + 0.07: 
OTHER_11           .         MN.ATM = (6.33279e-006*TM.GRD + 0.02401)*(MN$.UE + 2.72*TM.GRD + -2018): 
OTHER_12           .         GK.MKR/H = GK$.UE / 43.5489 + 0: 
OTHER_13           .         RES.SM = 0.00476*CRES.UE - 1.51709: 
OTHER_14           .         PL.GSM3 = 0 + 0 * (PL.UE / 1) +  0 * (PL.UE / 1)^2: 
OTHER_15           .         Постоянная времени ГГП = 6 сек: 
OTHER_16           .         Постоянная времени ГК = 6 сек : 
OTHER_2            .         KedrData.dll версия 3.2.2.14  : 
OTHER_3            .         LasInf.dll версия 3.2.0.13    : 
OTHER_4            .         Драйвер версия 1.2.0.5        : 
OTHER_5            .         Прибор_ КСА-M1                : 
OTHER_6            .         Номер прибора_ 155+р204       : 
OTHER_7            .         Режим_ КСА-М1 + ГГП + Резистивиметр: 
OTHER_8            .         Форма_ 223\2                  : 
OTHER_9            .         Тарировки_                    : 
PR                 .         КСА-Т7 М1                     : Тип прибора
PROJECT_UPGRADE_TIME .         2021-03-18T21_24_50           : 
PRTY               .         ПП-223_2                      : Номер партии
SRV                .         ЦКРС                          : Заказчик
SRVC               .         Лузин  А.Б.                   : Начальник партии
TLFamily_DEPT      .         Measured Depth                : 
TLFamily_LM        .         Casing Collar locator         : 
TLFamily_MN        .                                       : 
TLFamily_SPID      .         Spontaneous Potential         : 
TLFamily_TM        .         Temperature                   : 
group              .         second                        : 
~Curve Information
#_______________________________________________________________________________
#
#LOGNAME           .UNIT     LOG_ID                        : DESCRIPTION
#_______________________________________________________________________________
DEPT               .M                                      : Depth curve 
LM                 .е.ацп                                  : Локация муфт 
MN                 .атм                                    : Манометрия, атм 
SPID               .м/ч                                    : Скорость записи,м/час 
TM                 .град.С                                 : Термометрия,град.С 
~Ascii
# ...
1654.85    1341.013   146.24     1660       51.1      
1655.05    1448.987   146.25     1660       51.11     
1655.25    1339.953   146.27     1660       51.11     
1655.45    950.994    146.27     1660       51.12     
1655.65    903.965    146.31     1660       51.12     
1655.85    611.973    146.3      1660       51.12     
1656.05    388.015    146.35     1660       51.12     
1656.25    508.998    146.35     1660       51.13     
1656.45    491.982    146.38     1660       51.13     
1656.65    343.999    146.41     1660       51.13     
1656.85    332.009    146.43     1660       51.14     
1657.05    408.01     146.43     1660       51.14     
1657.25    490.007    146.46     1660       51.14     
1657.45    547.011    146.47     1660       51.15     
1657.65    642.01     146.47     1659.993   51.15     
1657.85    725.989    146.52     1600.001   51.16     
1658.05    632.998    146.53     1607.006   51.16     
1658.25    619.991    146.57     1660       51.16     
1658.45    541.014    146.57     1660       51.17     
1658.65    658.028    146.58     1660.004   51.17     
1658.85    891.006    146.59     1696.994   51.18     
1659.05    938.992    146.61     1645.994   51.18     
1659.25    872.984    146.64     1600.006   51.19     
1659.45    741.983    146.65     1653.001   51.19     
1659.65    601.009    146.67     1660.005   51.19     
1659.85    675.028    146.68     1703.992   51.2      
1660.05    905.01     146.7      1640.995   51.2      
1660.25    991.992    146.72     1600.007   51.2      
1660.45    926.062    146.73     1657       51.21     
1660.65    1440.96    146.73     1660       51.21     
1660.85    1105.961   146.76     1660       51.21     
1661.05    786.008    146.79     1660       51.22     
1661.25    850.011    146.82     1660       51.22     
1661.45    937.991    146.83     1659.995   51.23     
1661.65    862.001    146.84     1622.008   51.23     
1661.85    869.005    146.86     1689.005   51.24     
1662.05    909.997    146.89     1729.992   51.24     
1662.25    886.977    146.89     1666.992   51.25     
1662.45    694        146.92     1603.007   51.25     
1662.65    695.019    146.92     1660       51.26     
1662.85    852.979    146.94     1659.997   51.26     
1663.05    677.998    146.96     1634.996   51.27     
1663.25    662.991    146.97     1600.005   51.27     
1663.45    587.985    146.99     1641.996   51.27     
1663.65    466        147.01     1609.999   51.28     
1663.85    465        147.04     1600.007   51.28     
1664.05    468.005    147.04     1660.008   51.29     
1664.25    507.009    147.05     1729.996   51.29     
1664.45    578.006    147.09     1696.991   51.29     
1664.65    631.006    147.1      1625.004   51.3      
1664.85    678.003    147.13     1660       51.3      
1665.05    705.443    147.14     1660       51.3      
1665.25    4378.044   147.18     1660       51.31     
1665.45    4738.793   147.19     1660       51.31     
1665.65    3027.784   147.22     1660       51.32     
1665.85    1242.967   147.22     1659.993   51.32     
1666.05    970.979    147.24     1600.002   51.32     
1666.25    795.994    147.24     1616.005   51.33     
1666.45    746.986    147.27     1660       51.34     
1666.65    634.987    147.31     1660       51.34     
1666.85    529.02     147.34     1660.006   51.34     
1667.05    695.988    147.34     1707.996   51.35     
1667.25    599.985    147.34     1671.999   51.36     
1667.45    476.072    147.37     1659.993   51.36     
1667.65    1069.108   147.41     1600.007   51.37     
1667.85    1962.964   147.4      1660       51.38     
1668.05    1663.954   147.43     1660       51.38     
1668.25    1282.963   147.44     1660       51.38     
1668.45    975.966    147.44     1660       51.39     
1668.65    695        147.48     1660       51.39     
1668.85    694.989    147.49     1660       51.39     
1669.05    600.01     147.54     1660       51.39     
1669.25    681.98     147.52     1660       51.4      
1669.45    516        147.54     1660       51.4      
1669.65    520.002    147.58     1659.994   51.4      
1669.85    536.004    147.6      1613.005   51.41     
1670.05    569.996    147.59     1653.001   51.41     
1670.25    538.988    147.62     1660.007   51.42     
1670.45    441.006    147.65     1715.986   51.42     
1670.65    491.988    147.67     1600.002   51.43     
1670.85    394.016    147.67     1620.005   51.44     
1671.05    525.008    147.69     1660       51.43     
1671.25    594.986    147.69     1660       51.43     
1671.45    477.991    147.73     1660       51.44     
1671.65    406.002    147.74     1660       51.44     
1671.85    421.007    147.77     1660       51.44     
1672.05    479.004    147.77     1660       51.45     
1672.25    513.994    147.82     1660       51.45     
1672.45    467.008    147.82     1660       51.46     
1672.65    531.015    147.83     1660       51.46     
1672.85    654.976    147.86     1660       51.47     
1673.05    458.013    147.87     1660.005   51.47     
1673.25    565        147.9      1700.998   51.48     
1673.45    563.001    147.92     1681.997   51.48     
1673.65    570.995    147.94     1660       51.48     
1673.85    530.98     147.94     1660       51.49     
1674.05    368.002    147.97     1660       51.49     
1674.25    388.002    147.97     1660       51.5      
1674.45    404.994    147.99     1660       51.5      
1674.65    358.997    148.01     1660       51.5      
1674.85    332.998    148.04     1660       51.5      
1675.05    316.011    148.04     1660       51.51     
1675.25    404.992    148.08     1660       51.51     
1675.45    342.006    148.07     1659.993   51.52     
1675.65    388.007    148.09     1600.001   51.52     
1675.85    443.996    148.12     1609.006   51.52     
1676.05    411.005    148.14     1660       51.53     
1676.25    454.661    148.15     1660       51.53     
1676.45    5891.808   148.18     1660       51.54     
1676.65    4308.812   148.19     1660       51.54     
1676.85    2759.884   148.21     1660       51.55     
1677.05    1803.92    148.24     1660       51.55     
1677.25    1148.93    148.24     1660       51.56     
1677.45    572.982    148.25     1660       51.56     
1677.65    421.995    148.29     1660       51.57     
1677.85    382.992    148.29     1660       51.57     
1678.05    317.001    148.31     1660       51.58     
1678.25    329.001    148.35     1660       51.59     
1678.45    336.01     148.37     1660       51.59     
1678.65    418.002    148.38     1660       51.6      
1678.85    431.004    148.39     1660       51.6      
1679.05    461.999    148.42     1659.993   51.6      
1679.25    450.986    148.44     1600.007   51.61     
1679.45    335        148.46     1660       51.61     
1679.65    333.013    148.45     1660       51.62     
1679.85    443.011    148.49     1660       51.62     
1680.05    533.002    148.5      1660       51.63     
1680.25    552.993    148.52     1660       51.63     
1680.45    492.985    148.53     1660       51.64     
1680.65    371.999    148.56     1660       51.64     
1680.85    362.003    148.57     1660       51.65     
1681.05    388.003    148.57     1660       51.65     
1681.25    412.001    148.61     1660       51.66     
1681.45    417.034    148.64     1660       51.66     
1681.65    693.998    148.64     1660       51.67     
1681.85    678.985    148.67     1660.008   51.67     
1682.05    556        148.69     1725.992   51.68     
1682.25    560.012    148.7      1660       51.68     
1682.45    654.987    148.72     1659.997   51.68     
1682.65    545.989    148.73     1633       51.69     
1682.85    455.015    148.76     1632.003   51.69     
1683.05    579.022    148.78     1660       51.7      
1683.25    760.999    148.79     1660       51.7      
1683.45    750.03     148.79     1660       51.71     
1683.65    999        148.84     1659.994   51.71     
1683.85    1003.025   148.84     1607.006   51.71     
