~Version
 VERS              .         2.0                           : CWLS LOG ASCII STANDARD - VERSION 2.0
 WRAP              .         NO                            : ONE LINE PER DEPTH STEP
 DLM               .         SPACE                         : DELIMITING CHARACTER(SPACE TAB OR COMMA)
~Well Information
#_______________________________________________________________________________
#
#PARAMETER_NAME    .UNIT     VALUE                         : DESCRIPTION
#_______________________________________________________________________________
STRT               .M        2659.4                        : First reference value
STOP               .M        2769.4                        : Last reference value
STEP               .M        0.2                           : Step increment
NULL               .         -9999                         : Missing value
COMP               .                                       : Company
WELL               .         616                           : Well name
FLD                .                                       : Field
LOC                .                                       : Location
CNTY               .                                       : County
STAT               .                                       : State
CTRY               .                                       : Country
SRVC               .                                       : Service Company
DATE               .                                       : Date
API                .                                       : API number
PROJECT_UPGRADE_TIME .         2021-03-18T21_24_50           : 
group              .         Good                          : 
~Parameter Information Block
#_______________________________________________________________________________
#
#PARAMETER_NAME    .UNIT     VALUE                         : DESCRIPTION
#_______________________________________________________________________________
SET                .         D1171_D                       : 
OTHER              .         Программное обеспечение станции MONITOR-386EX 25/12/99 15_08_10   BGF V52 22/08/01 16_56_30   3.2_BGF_N_3070031: 
OTHER_10           .         Тарировки_                    : 
OTHER_11           .         TM.GRD = 0.00403*TM$.UE + -1.19: 
OTHER_12           .         MN.ATM = (7.1e-006*TM.GRD + 0.02017)*(MN$.UE + -3.03*TM.GRD + -1833): 
OTHER_13           .         Id error                      : 
OTHER_2            .         Kedr.exe версия 3.4.2.51      : 
OTHER_3            .         KedrData.dll версия 3.4.2.24  : 
OTHER_4            .         Драйвер версия 2.1.1.8        : 
OTHER_5            .         Мнемоники версия 3.3 S        : 
OTHER_6            .         Прибор_ КСА-М1                : 
OTHER_7            .         Номер прибора_ 265            : 
OTHER_8            .         Режим_ КСА-М1                 : 
OTHER_9            .         Форма_ ТЕРМОМЕТР              : 
PROJECT_UPGRADE_TIME .         2021-03-18T21_24_49           : 
TLFamily_DEPT      .         Measured Depth                : 
TLFamily_GK        .         Gamma Ray                     : 
TLFamily_GK$       .                                       : 
TLFamily_LM        .         Casing Collar locator         : 
TLFamily_METKA     .                                       : 
TLFamily_MN        .                                       : 
TLFamily_MN$       .                                       : 
TLFamily_RCOR      .                                       : 
TLFamily_SPID      .         Spontaneous Potential         : 
TLFamily_STD       .                                       : 
TLFamily_TENS      .         Cable Tension                 : 
TLFamily_TIME      .         Time                          : 
TLFamily_TM        .         Temperature                   : 
TLFamily_TM$       .         Temperature                   : 
TLFamily_VGD       .         Gas Volume                    : 
group              .         prim                          : 
~Curve Information
#_______________________________________________________________________________
#
#LOGNAME           .UNIT     LOG_ID                        : DESCRIPTION
#_______________________________________________________________________________
DEPT               .M                                      : 1 Глубина, м -    0.0 см 
GK                 .MKR/H                                  : 15 Гамма-активность, мкр./ч -  110.0 см 
GK$                .UE                                     : 12 Гамма-активность, усл.ед. -  110.0 см 
LM                 .                                       : 10 Локатор муфт,  -   20.0 см 
METKA              .                                       : 3 Метки,  -    0.0 см 
MN                 .ATM                                    : 14 Давление, атм. -  160.0 см 
MN$                .UE                                     : 8 Давление, усл.ед. -  160.0 см 
RCOR               .CM/KM                                  : 5 Коррекция по ролику, см/км -    0.0 см 
SPID               .M/H                                    : 2 Скорость, м/час -    0.0 см 
STD                .                                       : 11 Приток,  -  170.0 см 
TENS               .T                                      : 6 Натяжение кабеля, т -    0.0 см 
TIME               .S                                      : 4 Время, сек -    0.0 см 
TM                 .GRD                                    : 13 Температура, °C -  180.0 см 
TM$                .UE                                     : 7 Температура, усл.ед. -  180.0 см 
VGD                .                                       : 9 Влагомер,  -  170.0 см 
~Ascii
# ...
2688.8     7.22       306        1          0          257.807    14501      -1400      618        31037      0          27775.77   84.931     21370      6586      
2689       7.12       302        1          0          257.837    14502      -1400      616        31040      0          27776.95   84.939     21372      6587      
2689.2     7.08       302        1          0          257.852    14503      -1400      613        31045      0          27778.09   84.945     21373      6587      
2689.4     7.13       307        1          0          257.87     14504      -1400      610        31047      0          27779.31   84.952     21375      6587      
2689.6     7.16       307        1          0          257.891    14505      -1400      605        31052      0          27780.45   84.955     21376      6587      
2689.8     7.26       316        1          0          257.917    14506      -1400      613        31056      0          27781.65   84.962     21378      6587      
2690       7.35       316        1          2          257.932    14507      -1400      611        31057      0          27782.89   84.967     21379      6587      
2690.2     7.41       319        1          0          257.953    14508      -1400      612        31060      0          27784.17   84.972     21380      6587      
2690.4     7.45       319        1          0          257.974    14509      -1400      609        31065      0          27785.34   84.978     21382      6587      
2690.6     7.59       334        1          0          257.98     14509      -1400      602        31065      0          27786.57   84.986     21384      6587      
2690.8     7.74       334        1          0          257.995    14510      -1400      598        31069      0          27787.8    84.993     21385      6587      
2691       7.98       358        1          0          258.017    14511      -1400      604        31071      0          27788.97   84.996     21386      6586      
2691.2     8.42       368        1          0          258.048    14513      -1400      601        31074      0          27790.14   85.011     21390      6587      
2691.4     8.57       371        1          0          258.059    14513      -1400      601        31076      0          27791.37   85.022     21393      6586      
2691.6     8.71       375        1          0          258.08     14514      -1400      588        31081      0          27792.66   85.033     21395      6587      
2691.8     8.75       375        1          0          258.101    14515      -1400      590        31085      0          27793.83   85.045     21398      6586      
2692       8.77       375        1          0          258.122    14516      -1400      595        31090      0          27795      85.053     21400      6586      
2692.2     8.89       390        1          0          258.143    14517      -1400      601        31095      0          27796.28   85.064     21403      6586      
2692.4     9.14       396        1          0          258.164    14518      -1400      597        31097      0          27797.47   85.075     21406      6587      
2692.6     9.15       387        2046       0          258.185    14519      -1400      603        31102      0          27798.66   85.083     21408      6586      
2692.8     8.88       374        370        0          258.206    14520      -1400      603        31108      0          27799.84   85.092     21410      6586      
2693       8.79       374        37         0          258.227    14521      -1400      599        31112      0          27801.08   85.1       21412      6587      
2693.2     8.64       366        1          0          258.245    14522      -1400      603        31116      0          27802.21   85.112     21415      6586      
2693.4     8.58       366        1          0          258.26     14523      -1400      602        31121      0          27803.44   85.12      21417      6585      
2693.6     8.92       390        1          0          258.275    14523      -1400      601        31125      0          27804.67   85.131     21420      6585      
2693.8     9.05       390        1          0          258.295    14524      -1400      599        31128      0          27805.84   85.142     21422      6585      
2694       8.97       380        1          0          258.311    14525      -1400      602        31134      0          27807.01   85.154     21425      6586      
2694.2     8.92       380        1          0          258.332    14526      -1400      602        31138      0          27808.13   85.165     21428      6586      
2694.4     8.54       356        1          0          258.353    14527      -1400      596        31141      0          27809.41   85.175     21431      6585      
2694.6     8.4        356        1          0          258.361    14527      -1400      600        31146      0          27810.57   85.187     21433      6585      
2694.8     8.64       378        1          0          258.395    14529      -1400      604        31152      0          27811.74   85.195     21435      6585      
2695       8.78       378        1          0          258.396    14529      -1400      613        31155      0          27812.97   85.209     21439      6585      
2695.2     9.18       412        1          0          258.423    14530      -1400      604        31157      0          27814.15   85.213     21440      6586      
2695.4     9.49       412        1          0          258.438    14531      -1400      610        31165      0          27815.3    85.224     21443      6585      
2695.6     9.43       393        1          0          258.459    14532      -1400      607        31167      0          27816.53   85.233     21445      6585      
2695.8     9.27       393        1          0          258.48     14533      -1400      607        31174      0          27817.7    85.242     21447      6585      
2696       9.11       379        1          0          258.501    14534      -1400      605        31178      0          27818.93   85.256     21451      6585      
2696.2     8.78       369        1          0          258.522    14535      -1400      608        31182      0          27820.1    85.267     21453      6585      
2696.4     8.64       365        1          0          258.543    14536      -1400      606        31184      0          27821.33   85.277     21456      6585      
2696.6     8.57       365        1          0          258.564    14537      -1400      607        31190      0          27822.5    85.29      21459      6584      
2696.8     8.71       385        1          0          258.564    14537      -1400      606        31197      0          27823.67   85.302     21462      6584      
2697       9.11       397        1          0          258.585    14538      -1400      609        31200      0          27824.84   85.316     21466      6584      
2697.2     9.25       399        1          0          258.607    14539      -1400      593        31206      0          27826.07   85.328     21468      6584      
2697.4     9.53       413        1          0          258.628    14540      -1400      599        31210      0          27827.23   85.34      21472      6583      
2697.6     9.62       413        1          0          258.649    14541      -1400      599        31214      0          27828.41   85.354     21475      6584      
2697.8     10.13      445        1          0          258.661    14542      -1400      605        31219      0          27829.63   85.366     21478      6584      
2698       10.32      445        1          0          258.679    14542      -1400      600        31226      0          27830.8    85.381     21482      6583      
2698.2     10.48      452        1          0          258.694    14543      -1400      602        31229      0          27832.02   85.396     21485      6583      
2698.4     10.54      452        1          0          258.73     14545      -1400      606        31236      0          27833.15   85.403     21487      6583      
