~Version
 VERS              .         2.0                           : CWLS LOG ASCII STANDARD - VERSION 2.0
 WRAP              .         NO                            : ONE LINE PER DEPTH STEP
 DLM               .         SPACE                         : DELIMITING CHARACTER(SPACE TAB OR COMMA)
~Well Information
#_______________________________________________________________________________
#
#PARAMETER_NAME    .UNIT     VALUE                         : DESCRIPTION
#_______________________________________________________________________________
STRT               .M        2658                          : First reference value
STOP               .M        2762                          : Last reference value
STEP               .M        0.2                           : Step increment
NULL               .         -9999                         : Missing value
COMP               .                                       : Company
WELL               .         616                           : Well name
FLD                .                                       : Field
LOC                .                                       : Location
CNTY               .                                       : County
STAT               .                                       : State
CTRY               .                                       : Country
SRVC               .                                       : Service Company
DATE               .                                       : Date
API                .                                       : API number
PROJECT_UPGRADE_TIME .         2021-03-18T21_24_50           : 
group              .         Good                          : 
~Parameter Information Block
#_______________________________________________________________________________
#
#PARAMETER_NAME    .UNIT     VALUE                         : DESCRIPTION
#_______________________________________________________________________________
SET                .         D8103_D                       : 
OTHER              .         Программное обеспечение станции MONITOR-386EX 25/12/99 15_08_10   BGF V52 22/08/01 16_56_30   4_SNGF_BGF_N_011645: 
OTHER_10           .         Тарировки_                    : 
OTHER_11           .         TM.GRD = 0.00412*TM$.UE + -2.13: 
OTHER_12           .         MN.ATM = (5.87652e-006*TM.GRD + 0.01993)*(MN$.UE + -2.72*TM.GRD + -1925): 
OTHER_13           .         GK.MKR/H = GK$.UE / 57.4657   : 
OTHER_2            .         Kedr.exe версия 3.4.2.51      : 
OTHER_3            .         KedrData.dll версия 3.4.2.24  : 
OTHER_4            .         Драйвер версия 2.1.0.2        : 
OTHER_5            .         Мнемоники версия 3.3 S        : 
OTHER_6            .         Прибор_ АКП4-90               : 
OTHER_7            .         Номер прибора_ 53             : 
OTHER_8            .         Режим_ АКП4_90                : 
OTHER_9            .         Форма_ ПК-53ое                : 
PROJECT_UPGRADE_TIME .         2021-03-18T21_24_50           : 
TLFamily_DEPT      .         Measured Depth                : 
TLFamily_GK        .         Gamma Ray                     : 
TLFamily_GK$       .                                       : 
TLFamily_LM        .         Casing Collar locator         : 
TLFamily_METKA     .                                       : 
TLFamily_METKA_1   .                                       : 
TLFamily_MN        .                                       : 
TLFamily_MN$       .                                       : 
TLFamily_RCOR      .                                       : 
TLFamily_SPID      .         Spontaneous Potential         : 
TLFamily_TENS      .         Cable Tension                 : 
TLFamily_TIME      .         Time                          : 
TLFamily_TM        .         Temperature                   : 
TLFamily_TM$       .         Temperature                   : 
group              .         prim                          : 
~Curve Information
#_______________________________________________________________________________
#
#LOGNAME           .UNIT     LOG_ID                        : DESCRIPTION
#_______________________________________________________________________________
DEPT               .M                                      : 1 Глубина, м -    0.0 см 
GK                 .MKR/H                                  : 13 Гамма-активность, мкр./ч -   65.0 см 
GK$                .UE                                     : 10 Гамма-активность, усл.ед. -   65.0 см 
LM                 .                                       : 9 Локатор муфт,  -   30.0 см 
METKA              .                                       : 3 Метки,  -    0.0 см 
METKA_1            .                                       : 14 Маркеры - 65 см 
MN                 .ATM                                    : 12 Давление, атм. -  140.0 см 
MN$                .UE                                     : 8 Давление, усл.ед. -  140.0 см 
RCOR               .CM/KM                                  : 5 Коррекция по ролику, см/км -    0.0 см 
SPID               .M/H                                    : 2 Скорость, м/час -    0.0 см 
TENS               .T                                      : 6 Натяжение кабеля, т -    0.0 см 
TIME               .S                                      : 4 Время, сек -    0.0 см 
TM                 .GRD                                    : 11 Температура, °C -  145.0 см 
TM$                .UE                                     : 7 Температура, усл.ед. -  145.0 см 
~Ascii
# ...
2710       6.83       393        820        0          0          248.401    14389      -21        -328       0.8        3424.84    49.453     12520     
2710.2     6.77       389        613        0          0          248.447    14391      -21        -330       0.8        3422.76    49.403     12508     
2710.4     6.56       377        916        2          0          248.467    14392      -21        -324       0.82       3420.58    49.323     12489     
2710.6     6.49       373        203        0          0          248.477    14393      -19        -338       0.8        3418.28    49.267     12475     
2710.8     6.45       371        236        0          0          248.507    14394      -19        -334       0.8        3416.14    49.179     12454     
2711       6.2        356        114        0          0          248.527    14395      -19        -337       0.84       3414.06    49.137     12443     
2711.2     6.58       378        145        0          0          248.52     14395      -19        -339       0.84       3411.89    49.086     12431     
2711.4     6.69       385        305        0          0          248.567    14397      -19        -331       0.84       3409.71    48.992     12408     
2711.6     6.89       396        483        0          0          248.607    14399      -19        -335       0.84       3407.63    48.917     12390     
2711.8     6.52       375        926        0          0          248.592    14398      -19        -342       0.84       3405.56    48.886     12382     
2712       6.33       364        189        0          0          248.614    14399      -19        -339       0.84       3403.47    48.777     12356     
2712.2     6.04       347        201        0          0          248.667    14402      -19        -341       0.84       3401.4     48.745     12348     
2712.4     5.71       328        262        0          0          248.667    14402      -19        -341       0.82       3399.25    48.695     12336     
2712.6     6.08       349        304        0          0          248.687    14403      -19        -335       0.84       3397.11    48.615     12317     
2712.8     6.43       369        200        0          0          248.726    14405      -19        -341       0.82       3394.97    48.55      12301     
2713       6.44       370        172        1          0          248.717    14405      -19        -339       0.85       3392.89    48.497     12288     
2713.2     6.05       348        269        0          1          248.746    14406      -19        -336       0.82       3390.72    48.429     12272     
2713.4     7.11       408        307        0          0          248.766    14407      -19        -333       0.84       3388.67    48.373     12258     
2713.6     7.69       442        238        0          0          248.766    14407      -19        -336       0.83       3386.52    48.306     12242     
2713.8     7.46       428        165        0          0          248.779    14408      -19        -335       0.84       3384.39    48.26      12230     
2714       7.29       419        152        0          0          248.846    14411      -19        -339       0.84       3382.3     48.203     12217     
2714.2     6.97       401        132        0          0          248.806    14409      -19        -337       0.84       3380.22    48.132     12200     
2714.4     5.5        316        747        0          0          248.846    14411      -19        -337       0.84       3378.1     48.06      12182     
2714.6     4.48       257        379        0          0          248.886    14413      -19        -330       0.84       3375.97    47.961     12158     
2714.8     4.73       272        565        0          0          248.886    14413      -19        -331       0.84       3373.8     47.837     12128     
2715       4.82       277        323        0          0          248.906    14414      -19        -336       0.84       3371.72    47.701     12095     
2715.2     4.29       247        326        0          1          248.926    14415      -19        -336       0.84       3369.64    47.513     12049     
2715.4     4.13       237        1323       1          0          248.946    14416      -19        -333       0.84       3367.55    47.335     12006     
2715.6     3.96       227        1675       0          0          248.946    14416      -19        -334       0.82       3365.37    47.228     11980     
2715.8     4.42       254        618        0          0          249.005    14419      -19        -337       0.82       3363.29    47.176     11967     
2716       4.93       283        1798       0          0          249.01     14419      -19        -341       0.82       3361.15    47.14      11959     
2716.2     5.34       307        10126      0          0          249.045    14421      -19        -339       0.84       3359.01    47.034     11933     
2716.4     4.91       282        561        0          0          249.075    14422      -19        -337       0.82       3356.93    46.952     11913     
2716.6     4.76       274        489        0          0          249.085    14423      -19        -334       0.84       3354.84    46.863     11891     
2716.8     4.59       263        942        0          0          249.105    14424      -19        -341       0.84       3352.7     46.731     11859     
2717       4.87       280        772        0          0          249.145    14426      -19        -340       0.83       3350.55    46.623     11833     
2717.2     4.79       275        193        0          0          249.145    14426      -19        -342       0.84       3348.41    46.542     11814     
2717.4     4.87       280        223        0          0          249.178    14428      -19        -341       0.82       3346.33    46.486     11800     
2717.6     4.94       284        30         0          0          249.205    14429      -19        -340       0.82       3344.26    46.419     11784     
2717.8     4.82       277        40         0          0          249.195    14429      -19        -331       0.82       3342.17    46.342     11765     
2718       4.72       271        116        0          0          249.225    14430      -19        -339       0.82       3340.11    46.273     11748     
2718.2     4.63       266        62         0          0          249.278    14433      -19        -336       0.82       3337.98    46.224     11737     
2718.4     4.63       266        91         0          0          249.258    14432      -19        -341       0.83       3335.85    46.179     11726     
2718.6     5.42       311        119        0          0          249.284    14433      -19        -341       0.84       3333.72    46.115     11710     
2718.8     6.88       395        646        0          0          249.334    14436      -19        -344       0.82       3331.6     46.037     11691     
2719       7.34       422        1039       0          0          249.344    14436      -19        -348       0.82       3329.47    45.971     11675     
2719.2     7.31       420        441        0          1          249.354    14436      -19        -338       0.84       3327.34    45.883     11654     
2719.4     7.14       410        39         0          0          249.364    14437      -19        -342       0.82       3325.34    45.849     11646     
2719.6     6.69       384        57         0          0          249.364    14437      -19        -341       0.82       3323.21    45.797     11633     
2719.8     6.16       354        676        0          0          249.397    14439      -19        -337       0.83       3321.14    45.744     11620     
2720       5.96       343        230        0          0          249.424    14440      -19        -337       0.82       3319.08    45.691     11607     
2720.2     4.7        270        77         0          0          249.437    14441      -19        -336       0.82       3316.83    45.644     11596     
