~Version
 VERS              .         2.0                           : CWLS LOG ASCII STANDARD - VERSION 2.0
 WRAP              .         NO                            : ONE LINE PER DEPTH STEP
 DLM               .         SPACE                         : DELIMITING CHARACTER(SPACE TAB OR COMMA)
~Well Information
#_______________________________________________________________________________
#
#PARAMETER_NAME    .UNIT     VALUE                         : DESCRIPTION
#_______________________________________________________________________________
STRT               .M        2689.8                        : First reference value
STOP               .M        2754.4                        : Last reference value
STEP               .M        0.1999995                     : Step increment
NULL               .         -9999                         : Missing value
COMP               .                                       : Company
WELL               .         616                           : Well name
FLD                .                                       : Field
LOC                .                                       : Location
CNTY               .                                       : County
STAT               .                                       : State
CTRY               .                                       : Country
SRVC               .                                       : Service Company
DATE               .                                       : Date
API                .                                       : API number
PROJECT_UPGRADE_TIME .         2021-03-18T21_24_50           : 
group              .         Good                          : 
~Parameter Information Block
#_______________________________________________________________________________
#
#PARAMETER_NAME    .UNIT     VALUE                         : DESCRIPTION
#_______________________________________________________________________________
SET                .         D7018_D                       : 
OTHER              .         Kedr.exe версия 2.1.2.32      : 
OTHER_10           .         TM.GRD = 0.00404*TM$.UE + 0.07: 
OTHER_11           .         MN.ATM = (6.33279e-006*TM.GRD + 0.02401)*(MN$.UE + 2.72*TM.GRD + -2018): 
OTHER_12           .         GK.MKR/H = GK$.UE / 43.5489 + 0: 
OTHER_13           .         RES.SM = 0.00476*CRES.UE - 1.51709: 
OTHER_14           .         PL.GSM3 = 0 + 0 * (PL.UE / 1) +  0 * (PL.UE / 1)^2: 
OTHER_15           .         Постоянная времени ГГП = 6 сек: 
OTHER_16           .         Постоянная времени ГК = 6 сек : 
OTHER_2            .         KedrData.dll версия 3.2.2.14  : 
OTHER_3            .         LasInf.dll версия 3.2.0.13    : 
OTHER_4            .         Драйвер версия 1.2.0.5        : 
OTHER_5            .         Прибор_ КСА-M1                : 
OTHER_6            .         Номер прибора_ 155+р204       : 
OTHER_7            .         Режим_ КСА-М1 + ГГП + Резистивиметр: 
OTHER_8            .         Форма_ 223\2                  : 
OTHER_9            .         Тарировки_                    : 
PROJECT_UPGRADE_TIME .         2021-03-18T21_24_50           : 
TLFamily_CRES      .                                       : 
TLFamily_DEPT      .         Measured Depth                : 
TLFamily_GK        .         Gamma Ray                     : 
TLFamily_GK$       .                                       : 
TLFamily_LM        .         Casing Collar locator         : 
TLFamily_METKA     .                                       : 
TLFamily_MN        .                                       : 
TLFamily_MN$       .                                       : 
TLFamily_PL        .                                       : 
TLFamily_PL_2      .                                       : 
TLFamily_RCOR      .                                       : 
TLFamily_RES       .         Mud Resistivity               : 
TLFamily_SPID      .         Spontaneous Potential         : 
TLFamily_STD       .                                       : 
TLFamily_TIME      .         Time                          : 
TLFamily_TM        .         Temperature                   : 
TLFamily_TM$       .         Temperature                   : 
TLFamily_VGD       .         Gas Volume                    : 
group              .         prim                          : 
~Curve Information
#_______________________________________________________________________________
#
#LOGNAME           .UNIT     LOG_ID                        : DESCRIPTION
#_______________________________________________________________________________
DEPT               .M                                      : 1 Глубина, м -    0.0 см 
CRES               .UE                                     : 9 Проводимость, усл.ед. -  222.0 см 
GK                 .MKR/H                                  : 16 Гамма-активность, мкр./ч -  106.0 см 
GK$                .UE                                     : 13 Гамма-активность, усл.ед. -  106.0 см 
LM                 .                                       : 11 Локатор муфт,  -   16.0 см 
METKA              .                                       : 3 Метки,  -    0.0 см 
MN                 .ATM                                    : 15 Давление, атм. -  160.0 см 
MN$                .UE                                     : 7 Давление, усл.ед. -  160.0 см 
PL                 .UE                                     : 10 Плотность, усл.ед. -  270.0 см 
PL_2               .GSM3                                   : 18 Плотность, г./см3 -  270.0 см 
RCOR               .CM/KM                                  : 5 Коррекция по ролику, см/км -    0.0 см 
RES                .SM                                     : 17 Проводимость,  -  222.0 см 
SPID               .M/H                                    : 2 Скорость, м/час -    0.0 см 
STD                .                                       : 12 Приток,  -  170.0 см 
TIME               .S                                      : 4 Время, сек -    0.0 см 
TM                 .GRD                                    : 14 Температура, °C -  180.0 см 
TM$                .UE                                     : 6 Температура, усл.ед. -  180.0 см 
VGD                .                                       : 8 Влагомер,  -  170.0 см 
~Ascii
2689.8000488 -9999      -9999      -9999      -9999      -9999      -9999      -9999      -9999      -9999      -9999      -9999      -9999      -9999      -9999      -9999      -9999      -9999     
2690       -9999      -9999      -9999      -9999      0          -9999      -9999      -9999      -9999      0          -9999      -260       -9999      10195.33   -9999      -9999      -9999     
2690.2     -9999      -9999      -9999      127        0          -9999      -9999      -9999      -9999      0          -9999      -260       -9999      10192.51   -9999      -9999      -9999     
2690.4     -9999      -9999      -9999      126        0          -9999      -9999      -9999      -9999      0          -9999      -233       -9999      10189.76   -9999      -9999      -9999     
2690.6     -9999      -9999      -9999      117        0          -9999      -9999      -9999      -9999      0          -9999      -259       -9999      10186.86   -9999      -9999      -9999     
2690.8     -9999      -9999      -9999      388        0          -9999      -9999      -9999      -9999      0          -9999      -260       -9999      10184.1    -9999      -9999      -9999     
2691       -9999      8.94       381        6220       0          -9999      -9999      -9999      -9999      0          -9999      -260       -9999      10181.34   -9999      -9999      -9999     
2691.2     -9999      9.39       421        882        0          -9999      -9999      -9999      -9999      0          -9999      -260       -9999      10178.58   -9999      -9999      -9999     
2691.4     -9999      9.33       398        121        0          -9999      -9999      -9999      -9999      0          -9999      -190       -9999      10175.69   -9999      -9999      -9999     
2691.6     -9999      9.84       400        113        0          247.521    12076      -9999      -9999      0          -9999      -260       9143       10172.93   -9999      -9999      6595      
2691.8     -9999      10.17      450        105        0          247.516    12075      -9999      -9999      0          -9999      -260       9138       10170.17   46.538     11502      6597      
2692       -9999      9.73       435        133        0          247.556    12077      -9999      -9999      0          -9999      -260       9135       10167.29   46.53      11500      6596      
2692.2     1220       9.03       402        134        0          247.577    12078      -9999      -9999      0          4.2901     -260       9132       10164.53   46.522     11498      6595      
2692.4     1220       8.8        367        116        0          247.598    12079      -9999      -9999      0          4.2901     -260       9129       10161.78   46.502     11493      6597      
2692.6     1220       9.38       400        132        0          247.622    12080      14         0          0          4.2901     -260       9129       10158.88   46.473     11486      6596      
2692.8     1218       9.69       417        110        0          247.644    12081      14         0          0          4.2805     -260       9128       10156.12   46.469     11485      6594      
2693       1218       10.05      417        126        0          247.653    12081      14         0          0          4.2822     -190       9126       10153.38   46.457     11482      6597      
2693.2     1219       10.2       447        130        0          247.685    12083      14         0          0          4.2853     -260       9124       10150.48   46.457     11482      6595      
2693.4     1218       10.34      446        97         0          247.691    12083      14         0          0          4.279      -260       9122       10147.74   46.456     11482      6596      
2693.6     1220       10.45      461        102        0          247.713    12084      13         0          0          4.2924     -260       9119       10144.97   46.444     11479      6595      
2693.8     1217       10.11      432        107        0          247.734    12085      14         0          0          4.2774     -320       9119       10142.15   46.422     11473      6597      
2694       1219       10.57      447        129        0          247.749    12086      14         0          0          4.2838     -320       9117       10139.33   46.395     11467      6595      
2694.2     1218       11.03      475        92         0          247.78     12087      14         0          0          4.2806     -260       9112       10136.57   46.393     11466      6596      
2694.4     1216       11.1       492        66         0          247.778    12087      14         0          0          4.2711     -260       9112       10133.82   46.381     11463      6595      
2694.6     1220       10.78      482        49         0          247.776    12087      15         0          0          4.2901     -300       9106       10131.06   46.364     11459      6597      
2694.8     1217       10.32      472        51         0          247.832    12089      15         0          0          4.2758     -260       9102       10128.18   46.348     11455      6597      
2695       1220       9.96       436        59         0          247.848    12090      14         0          0          4.2885     -260       9101       10125.42   46.34      11453      6597      
2695.2     1213       10.15      441        68         0          247.878    12091      14         0          0          4.2552     -260       9102       10122.66   46.34      11453      6596      
2695.4     1215       10.21      444        100        0          247.892    12092      13         0          0          4.2639     -260       9102       10119.78   46.32      11448      6597      
2695.6     1220       10.28      442        303        0          247.909    12093      14         0          0          4.2886     -260       9101       10117.01   46.308     11445      6597      
2695.8     1219       10.68      448        146        0          247.941    12094      14         0          0          4.2869     -260       9102       10114.13   46.312     11446      6595      
2696       1216       11.1       491        108        0          247.942    12094      15         0          0          4.2727     -260       9102       10111.24   46.312     11446      6597      
2696.2     1219       10.64      487        108        0          247.965    12095      14         0          0          4.2853     -260       9102       10108.5    46.316     11447      6598      
2696.4     1217       10.24      440        129        0          247.964    12095      14         0          0          4.2758     -190       9099       10105.6    46.309     11445      6597      
2696.6     1218       10.72      449        109        0          247.964    12095      14         0          0          4.2806     -260       9097       10102.84   46.3       11443      6596      
2696.8     1214       11.04      476        113        0          248.01     12097      14         0          0          4.2615     -280       9094       10099.96   46.3       11443      6597      
2697       1216       10.97      483        104        0          248.049    12099      13         0          0          4.2711     -280       9091       10097.19   46.28      11438      6597      
2697.2     1215       10.79      461        104        0          248.041    12098      14         0          0          4.2679     -260       9089       10094.44   46.266     11435      6597      
2697.4     1217       11.25      478        131        0          248.08     12100      14         0          0          4.2758     -260       9087       10091.55   46.27      11436      6596      
2697.6     1216       11.69      502        107        0          248.127    12102      14         0          0          4.2687     -260       9088       10088.8    46.259     11433      6598      
2697.8     1214       11.76      516        107        0          248.126    12102      14         0          0          4.26       -260       9088       10085.91   46.247     11430      6598      
