~Version
 VERS              .         2.0                           : CWLS LOG ASCII STANDARD - VERSION 2.0
 WRAP              .         NO                            : ONE LINE PER DEPTH STEP
 DLM               .         SPACE                         : DELIMITING CHARACTER(SPACE TAB OR COMMA)
~Well Information
#_______________________________________________________________________________
#
#PARAMETER_NAME    .UNIT     VALUE                         : DESCRIPTION
#_______________________________________________________________________________
STRT               .M        0.2                           : First reference value
STOP               .M        2774.2                        : Last reference value
STEP               .M        0.2                           : Step increment
NULL               .         -9999                         : Missing value
COMP               .                                       : Company
WELL               .         616                           : Well name
FLD                .                                       : Field
LOC                .                                       : Location
CNTY               .                                       : County
STAT               .                                       : State
CTRY               .                                       : Country
SRVC               .                                       : Service Company
DATE               .                                       : Date
API                .                                       : API number
PROJECT_UPGRADE_TIME .         2021-03-18T21_24_50           : 
group              .         Good                          : 
~Parameter Information Block
#_______________________________________________________________________________
#
#PARAMETER_NAME    .UNIT     VALUE                         : DESCRIPTION
#_______________________________________________________________________________
SET                .         D1799_D_2                     : 
NPR                .                                       : 
OTHER              .         Программное обеспечение станции MONITOR-386EX 25/12/99 15_08_10   BGF V52 22/08/01 16_56_30   3.1_SNGF___BGF_N_092049: 
OTHER_10           .         Тарировки_                    : 
OTHER_11           .         TM.GRD = 0.00403*TM$.UE + -1.07: 
OTHER_12           .         MN.ATM = (9.34907e-006*TM.GRD + 0.02171)*(MN$.UE + -7.93*TM.GRD + -1787): 
OTHER_13           .         GK.MKR/H = LM. / 42.4676      : 
OTHER_14           .         GK.FLT = 0.1*GK.MKR/H[-1] + (1-0.1)*GK.MKR/H[0]: 
OTHER_2            .         Kedr.exe версия 3.4.2.51      : 
OTHER_3            .         KedrData.dll версия 3.4.2.24  : 
OTHER_4            .         Драйвер версия 2.1.1.3        : 
OTHER_5            .         Мнемоники версия 3.3 S        : 
OTHER_6            .         Прибор_ КСА-Т4                : 
OTHER_7            .         Номер прибора_ 03             : 
OTHER_8            .         Режим_ КСА-Т4                 : 
OTHER_9            .         Форма_ КВА.                   : 
PR                 .                                       : 
PROJECT_UPGRADE_TIME .         2021-03-18T21_24_49           : 
PRTY               .         ПП-603-1                      : N партии
SRV                .                                       : 
SRVC               .         Карпов                        : Начальник партии
TLFamily_DEPT      .         Measured Depth                : 
TLFamily_LM        .         Casing Collar locator         : 
TLFamily_MN        .                                       : 
TLFamily_TM        .         Temperature                   : 
group              .         second                        : 
~Curve Information
#_______________________________________________________________________________
#
#LOGNAME           .UNIT     LOG_ID                        : DESCRIPTION
#_______________________________________________________________________________
DEPT               .M                                      : Depth curve 
LM                 .е.ацп                                  : Локатор муфт,е.ацп 
MN                 .атм                                    : Манометрия, атм 
TM                 .град.C                                 : Термограмма по стволу скважины,град.C 
~Ascii
# ...
364.2      631        34.468     24.049    
364.4      618.025    34.49      24.052    
364.6      1534.01    34.511     24.058    
364.8      1915.986   34.529     24.064    
365        1398.991   34.533     24.068    
365.2      1078.999   34.553     24.075    
365.4      1054.994   34.574     24.083    
365.6      847.997    34.596     24.088    
365.8      729.998    34.616     24.092    
366        641.999    34.634     24.096    
366.2      609        34.634     24.102    
366.4      596.999    34.653     24.11     
366.6      559        34.673     24.117    
366.8      564        34.694     24.123    
367        556.999    34.714     24.127    
367.2      531.001    34.735     24.131    
367.4      565        34.754     24.136    
367.6      553        34.775     24.143    
367.8      543        34.794     24.148    
368        543.002    34.814     24.154    
368.2      598        34.836     24.158    
368.4      610.003    34.842     24.163    
368.6      708.002    34.869     24.166    
368.8      776        34.897     24.17     
369        776.001    34.906     24.174    
369.2      798        34.915     24.182    
369.4      798.001    34.944     24.186    
369.6      837.169    34.969     24.193    
369.8      6967.935   34.975     24.201    
370        4597.966   35.006     24.205    
370.2      3354.975   35.032     24.214    
370.4      2461.981   35.041     24.218    
370.6      1781.99    35.062     24.226    
370.8      1422.005   35.083     24.23     
371        1587       35.103     24.238    
371.2      1580.998   35.122     24.242    
371.4      1492.996   35.14      24.248    
371.6      1351       35.156     24.257    
371.8      1356.01    35.16      24.261    
372        1725.991   35.179     24.267    
372.2      1409.989   35.219     24.275    
372.4      1001.994   35.219     24.281    
372.6      796.001    35.217     24.287    
372.8      843        35.255     24.292    
373        842.996    35.26      24.296    
373.2      715.998    35.294     24.299    
373.4      632.999    35.319     24.3      
373.6      604.001    35.34      24.304    
373.8      633.999    35.346     24.308    
374        606        35.368     24.315    
374.2      617.001    35.398     24.319    
374.4      650.043    35.409     24.323    
374.6      2173.982   35.416     24.327    
374.8      1512.987   35.442     24.334    
375        1051.993   35.472     24.341    
375.2      808.996    35.477     24.346    
375.4      679.999    35.497     24.347    
375.6      637.999    35.517     24.352    
375.8      615.999    35.536     24.358    
376        577.999    35.556     24.364    
376.2      544.999    35.576     24.369    
376.4      515        35.594     24.375    
376.6      515        35.615     24.382    
376.8      522.001    35.634     24.39     
377        558        35.654     24.396    
377.2      566        35.66      24.4      
377.4      559.999    35.672     24.404    
377.6      534        35.704     24.408    
377.8      526.001    35.724     24.416    
378        553.002    35.742     24.42     
378.2      623        35.766     24.427    
378.4      631.999    35.772     24.431    
378.6      583        35.792     24.435    
378.8      595.998    35.812     24.442    
379        532.002    35.832     24.447    
379.2      603.005    35.852     24.451    
379.4      790.003    35.873     24.454    
379.6      896.997    35.892     24.458    
379.8      799.002    35.892     24.462    
380        853.003    35.909     24.467    
380.2      942.013    35.959     24.476    
380.4      1400.011   35.976     24.483    
380.6      1788.192   35.977     24.487    
380.8      8551.92    35.997     24.493    
381        5736.956   36.018     24.498    
381.2      4176.967   36.059     24.5      
381.4      3019       36.06      24.504    
381.6      3018.971   36.077     24.51     
381.8      1983.982   36.081     24.514    
382        1340.988   36.11      24.518    
382.2      932.995    36.136     24.526    
382.4      766.997    36.156     24.533    
382.6      662.998    36.176     24.537    
382.8      577.998    36.187     24.541    
383        507        36.202     24.541    
383.2      502.001    36.235     24.544    
383.4      532        36.251     24.548    
383.6      533.001    36.254     24.551    
383.8      565        36.275     24.555    
384        551.035    36.295     24.562    
384.2      1782.985   36.335     24.571    
384.4      1264.99    36.312     24.581    
384.6      932        36.35      24.587    
384.8      931.995    36.373     24.592    
385        761.998    36.393     24.599    
385.2      692.998    36.413     24.602    
385.4      620        36.433     24.606    
385.6      625.999    36.452     24.61     
385.8      594        36.46      24.614    
386        597        36.479     24.621    
386.2      590        36.502     24.625    
386.4      580.999    36.509     24.633    
386.6      563        36.529     24.637    
386.8      549        36.555     24.644    
387        535        36.586     24.649    
387.2      550        36.589     24.652    
387.4      558        36.611     24.656    
387.6      566.999    36.65      24.662    
387.8      549        36.65      24.668    
388        555.999    36.67      24.674    
388.2      533        36.687     24.681    
388.4      533        36.706     24.688    
388.6      548.999    36.742     24.695    
388.8      519.001    36.754     24.699    
389        564.998    36.767     24.703    
389.2      497        36.787     24.71     
389.4      498        36.807     24.714    
389.6      498.001    36.827     24.714    
389.8      540.001    36.847     24.722    
390        581        36.859     24.726    
390.2      564        36.886     24.732    
390.4      578        36.914     24.739    
390.6      579.999    36.934     24.747    
390.8      532.999    36.953     24.754    
391        509.998    36.963     24.758    
391.2      449.001    36.972     24.766    
391.4      476        36.991     24.766    
391.6      477.003    37.01      24.772    
391.8      583.231    37.03      24.777    
392        8507.909   37.049     24.784    
392.2      5381.944   37.07      24.789    
392.4      3461.964   37.09      24.793    
392.6      2247       37.089     24.796    
392.8      2246.979   37.128     24.8      
393        1517.987   37.132     24.804    
393.2      1084.994   37.148     24.809    
393.4      872.995    37.168     24.817    
393.6      705.997    37.187     24.825    
393.8      593.998    37.206     24.831    
394        533.999    37.226     24.835    
394.2      506.004    37.245     24.839    
394.4      652        37.265     24.846    
394.6      639.998    37.286     24.854    
394.8      574.998    37.306     24.862    
395        520        37.32      24.866    
395.2      511        37.327     24.87     
395.4      504        37.365     24.876    
395.6      506.001    37.385     24.882    
395.8      542.004    37.404     24.888    
396        660.999    37.403     24.893    
396.2      623.003    37.421     24.898    
396.4      740        37.459     24.905    
396.6      740.005    37.483     24.909    
396.8      922.995    37.488     24.912    
397        743.997    37.501     24.916    
397.2      645        37.521     24.92     
397.4      655.999    37.542     24.928    
397.6      607.999    37.562     24.932    
397.8      567        37.582     24.936    
398        580        37.601     24.943    
398.2      581        37.621     24.951    
398.4      570.999    37.641     24.955    
398.6      528.001    37.656     24.959    
398.8      561        37.661     24.963    
399        549.001    37.698     24.969    
399.2      566.001    37.698     24.974    
399.4      598        37.738     24.98     
399.6      609.999    37.74      24.986    
399.8      593.001    37.775     24.989    
400        610        37.782     24.994    
400.2      594        37.803     25.002    
400.4      599        37.823     25.006    
