~Version
 VERS              .         2.0                           : CWLS LOG ASCII STANDARD - VERSION 2.0
 WRAP              .         NO                            : ONE LINE PER DEPTH STEP
 DLM               .         SPACE                         : DELIMITING CHARACTER(SPACE TAB OR COMMA)
~Well Information
#_______________________________________________________________________________
#
#PARAMETER_NAME    .UNIT     VALUE                         : DESCRIPTION
#_______________________________________________________________________________
STRT               .M        0.2                           : First reference value
STOP               .M        2774.2                        : Last reference value
STEP               .M        0.2                           : Step increment
NULL               .         -9999                         : Missing value
COMP               .                                       : Company
WELL               .         616                           : Well name
FLD                .                                       : Field
LOC                .                                       : Location
CNTY               .                                       : County
STAT               .                                       : State
CTRY               .                                       : Country
SRVC               .                                       : Service Company
DATE               .                                       : Date
API                .                                       : API number
PROJECT_UPGRADE_TIME .         2021-03-18T21_24_50           : 
group              .         Good                          : 
~Parameter Information Block
#_______________________________________________________________________________
#
#PARAMETER_NAME    .UNIT     VALUE                         : DESCRIPTION
#_______________________________________________________________________________
SET                .         D1799_D_2                     : 
NPR                .                                       : 
OTHER              .         Программное обеспечение станции MONITOR-386EX 25/12/99 15_08_10   BGF V52 22/08/01 16_56_30   3.1_SNGF___BGF_N_092049: 
OTHER_10           .         Тарировки_                    : 
OTHER_11           .         TM.GRD = 0.00403*TM$.UE + -1.07: 
OTHER_12           .         MN.ATM = (9.34907e-006*TM.GRD + 0.02171)*(MN$.UE + -7.93*TM.GRD + -1787): 
OTHER_13           .         GK.MKR/H = LM. / 42.4676      : 
OTHER_14           .         GK.FLT = 0.1*GK.MKR/H[-1] + (1-0.1)*GK.MKR/H[0]: 
OTHER_2            .         Kedr.exe версия 3.4.2.51      : 
OTHER_3            .         KedrData.dll версия 3.4.2.24  : 
OTHER_4            .         Драйвер версия 2.1.1.3        : 
OTHER_5            .         Мнемоники версия 3.3 S        : 
OTHER_6            .         Прибор_ КСА-Т4                : 
OTHER_7            .         Номер прибора_ 03             : 
OTHER_8            .         Режим_ КСА-Т4                 : 
OTHER_9            .         Форма_ КВА.                   : 
PR                 .                                       : 
PROJECT_UPGRADE_TIME .         2021-03-18T21_24_49           : 
PRTY               .         ПП-603-1                      : N партии
SRV                .                                       : 
SRVC               .         Карпов                        : Начальник партии
TLFamily_DEPT      .         Measured Depth                : 
TLFamily_LM        .         Casing Collar locator         : 
TLFamily_MN        .                                       : 
TLFamily_TM        .         Temperature                   : 
group              .         second                        : 
~Curve Information
#_______________________________________________________________________________
#
#LOGNAME           .UNIT     LOG_ID                        : DESCRIPTION
#_______________________________________________________________________________
DEPT               .M                                      : Depth curve 
LM                 .е.ацп                                  : Локатор муфт,е.ацп 
MN                 .атм                                    : Манометрия, атм 
TM                 .град.C                                 : Термограмма по стволу скважины,град.C 
~Ascii
# ...
1274.2     903.99     113.94     43.932    
1274.4     802.002    113.961    43.936    
1274.6     819        113.982    43.94     
1274.8     814.996    114        43.946    
1275       775.005    114        43.951    
1275.2     823.995    114.023    43.955    
1275.4     771.009    114.043    43.959    
1275.6     862.015    114.063    43.963    
1275.8     1018.017   114.084    43.967    
1276       1199.034   114.106    43.971    
1276.2     1557.636   114.128    43.975    
1276.4     8248.711   114.128    43.979    
1276.6     5208.841   114.145    43.984    
1276.8     3535.911   114.167    43.989    
1277       2601       114.171    43.991    
1277.2     2600.924   114.203    43.995    
1277.4     1802.971   114.214    43.998    
1277.6     1496.969   114.229    44.002    
1277.8     1166.989   114.249    44.006    
1278       1055.98    114.27     44.01     
1278.2     850.002    114.278    44.018    
1278.4     871.004    114.289    44.022    
1278.6     916.999    114.309    44.026    
1278.8     903.007    114.33     44.029    
1279       973.989    114.343    44.033    
1279.2     855.017    114.35     44.037    
1279.4     1032.01    114.371    44.041    
1279.6     1133.999   114.392    44.045    
1279.8     1121.071   114.407    44.046    
1280       1865.983   114.412    44.049    
1280.2     1685.975   114.435    44.053    
1280.4     1428.974   114.45     44.057    
1280.6     1159.986   114.455    44.061    
1280.8     1008.983   114.474    44.067    
1281       831.003    114.497    44.07     
1281.2     858.008    114.518    44.07     
1281.4     938.993    114.539    44.075    
1281.6     869.99     114.558    44.078    
1281.8     769.999    114.557    44.082    
1282       757.01     114.58     44.086    
1282.2     861.017    114.599    44.09     
1282.4     1039.045   114.62     44.096    
1282.6     1504.986   114.662    44.1      
1282.8     1360.972   114.684    44.104    
1283       1070.049   114.687    44.108    
1283.2     1578.052   114.687    44.111    
1283.4     2121.989   114.703    44.115    
1283.6     2010       114.724    44.119    
1283.8     2010.007   114.745    44.123    
1284       2084.994   114.751    44.126    
1284.2     2027.008   114.765    44.128    
1284.4     2107.992   114.785    44.135    
1284.6     2027.989   114.805    44.139    
1284.8     1909.994   114.815    44.143    
1285       1846.956   114.826    44.147    
1285.2     1384.973   114.847    44.151    
1285.4     1100.001   114.867    44.154    
1285.6     1109.981   114.888    44.155    
1285.8     907.993    114.91     44.162    
1286       835.991    114.923    44.163    
1286.2     743.001    114.929    44.169    
1286.4     756.999    114.95     44.171    
1286.6     746.008    114.97     44.174    
1286.8     824.998    114.991    44.177    
1287       801.005    115.01     44.181    
1287.2     848.527    115.01     44.185    
1287.4     6341.788   115.032    44.189    
1287.6     4134.875   115.053    44.191    
1287.8     2830.94    115.074    44.195    
1288       2206.943   115.096    44.199    
1288.2     1615.96    115.115    44.203    
1288.4     1200.985   115.117    44.207    
1288.6     1048.989   115.137    44.207    
1288.8     934.992    115.157    44.21     
1289       854.001    115.177    44.216    
1289.2     866.998    115.198    44.22     
1289.4     841.008    115.203    44.224    
1289.6     928.006    115.218    44.229    
1289.8     986.179    115.238    44.236    
1290       2844.993   115.262    44.24     
1290.2     2773.991   115.283    44.244    
1290.4     2676       115.289    44.247    
1290.6     2675.943   115.304    44.248    
1290.8     2082.955   115.341    44.252    
1291       1612.976   115.354    44.256    
1291.2     1360.991   115.366    44.259    
1291.4     1267.983   115.389    44.26     
1291.6     1090.002   115.409    44.264    
1291.8     1106.009   115.419    44.272    
1292       1203       115.428    44.275    
1292.2     1202.998   115.448    44.279    
1292.4     1181.012   115.468    44.283    
1292.6     1306.007   115.483    44.287    
1292.8     1373.987   115.49     44.291    
1293       1240.989   115.51     44.295    
1293.2     1128.986   115.53     44.299    
1293.4     981.995    115.547    44.303    
1293.6     925.014    115.551    44.307    
1293.8     1066       115.571    44.31     
1294       1062.984   115.591    44.314    
1294.2     893.001    115.613    44.318    
1294.4     904.008    115.632    44.322    
1294.6     990.015    115.654    44.326    
1294.8     1141       115.655    44.328    
1295       1140.983   115.675    44.33     
1295.2     963.02     115.694    44.333    
1295.4     1171.981   115.715    44.338    
1295.6     972        115.737    44.345    
1295.8     972.006    115.741    44.349    
1296       1036.002   115.755    44.352    
1296.2     1059.015   115.777    44.353    
1296.4     1213.986   115.798    44.361    
1296.6     1065.999   115.805    44.365    
1296.8     1055.005   115.817    44.368    
1297       1101.997   115.838    44.372    
1297.2     1069.019   115.858    44.376    
1297.4     1264.995   115.879    44.38     
1297.6     1214.996   115.891    44.388    
1297.8     1169.987   115.899    44.388    
1298       1039.055   115.925    44.392    
1298.2     1607.37    115.956    44.396    
1298.4     5431.1     115.961    44.4      
1298.6     6465.808   115.981    44.403    
1298.8     4479.886   116.002    44.41     
1299       3296.923   116.023    44.415    
1299.2     2500.972   116.042    44.417    
1299.4     2216.115   116.043    44.422    
1299.6     3405.972   116.064    44.425    
1299.8     3115.911   116.084    44.429    
1300       2201.959   116.104    44.435    
1300.2     1782.959   116.108    44.439    
1300.4     1361.993   116.128    44.443    
1300.6     1294.004   116.149    44.447    
1300.8     1336.998   116.148    44.453    
1301       1318.017   116.187    44.459    
1301.2     1493.016   116.191    44.463    
1301.4     1662.993   116.21     44.467    
1301.6     1590.974   116.231    44.469    
1301.8     1328.03    116.234    44.47     
1302       1642       116.25     44.474    
1302.2     1641.964   116.272    44.478    
1302.4     1269       116.292    44.483    
1302.6     1268.999   116.313    44.489    
1302.8     1262.984   116.334    44.49     
1303       1097.002   116.354    44.494    
1303.2     1121.032   116.363    44.497    
1303.4     1445.996   116.374    44.501    
1303.6     1400.986   116.395    44.505    
1303.8     1260.989   116.406    44.513    
1304       1148.018   116.414    44.513    
1304.2     1329.026   116.435    44.521    
1304.4     1596.975   116.456    44.525    
1304.6     1339.998   116.476    44.529    
1304.8     1321.005   116.498    44.529    
1305       1370.991   116.514    44.533    
1305.2     1273.988   116.517    44.536    
1305.4     1153.007   116.538    44.54     
1305.6     1228.986   116.559    44.544    
1305.8     1084.008   116.582    44.546    
1306       1169.004   116.6      44.548    
1306.2     1212.03    116.6      44.552    
1306.4     1524.991   116.622    44.556    
1306.6     1429.99    116.641    44.559    
1306.8     1329.98    116.663    44.563    
1307       1125.988   116.664    44.567    
1307.2     1006.985   116.682    44.571    
1307.4     856        116.719    44.576    
1307.6     856.008    116.745    44.583    
1307.8     933.02     116.751    44.586    
1308       1141.005   116.781    44.587    
1308.2     1192.987   116.78     44.591    
1308.4     1057.081   116.785    44.595    
1308.6     1892.183   116.806    44.598    
1308.8     3772.908   116.827    44.598    
1309       2833.956   116.848    44.602    
1309.2     2382.666   116.869    44.606    
1309.4     9207.665   116.88     44.61     
1309.6     5772.797   116.889    44.614    
1309.8     3694.883   116.909    44.618    
1310       2494.944   116.923    44.621    
1310.2     1922.955   116.931    44.626    
1310.4     1459.964   116.953    44.63     
