~Version
 VERS              .         2.0                           : CWLS LOG ASCII STANDARD - VERSION 2.0
 WRAP              .         NO                            : ONE LINE PER DEPTH STEP
 DLM               .         SPACE                         : DELIMITING CHARACTER(SPACE TAB OR COMMA)
~Well Information
#_______________________________________________________________________________
#
#PARAMETER_NAME    .UNIT     VALUE                         : DESCRIPTION
#_______________________________________________________________________________
STRT               .M        8.21                          : First reference value
STOP               .M        2780.41                       : Last reference value
STEP               .M        0.2                           : Step increment
NULL               .         -9999                         : Missing value
COMP               .                                       : Company
WELL               .         616                           : Well name
FLD                .                                       : Field
LOC                .                                       : Location
CNTY               .                                       : County
STAT               .                                       : State
CTRY               .                                       : Country
SRVC               .                                       : Service Company
DATE               .                                       : Date
API                .                                       : API number
PROJECT_UPGRADE_TIME .         2021-03-18T21_24_50           : 
group              .         Good                          : 
~Parameter Information Block
#_______________________________________________________________________________
#
#PARAMETER_NAME    .UNIT     VALUE                         : DESCRIPTION
#_______________________________________________________________________________
SET                .         ULN_2                         : 
PROJECT_UPGRADE_TIME .         2021-03-18T21_24_50           : 
TLFamily_AK4       .                                       : 
TLFamily_ALFAK     .                                       : 
TLFamily_AMPL      .                                       : 
TLFamily_DEPTH     .         Measured Depth                : 
TLFamily_DK1       .                                       : 
TLFamily_DK2       .                                       : 
TLFamily_DTK       .         Compressional Slowness        : 
TLFamily_QCBL      .                                       : 
TLFamily_T1        .         Travel Time 1                 : 
TLFamily_T2        .         Travel Time 2                 : 
group              .         prim                          : 
~Curve Information
#_______________________________________________________________________________
#
#LOGNAME           .UNIT     LOG_ID                        : DESCRIPTION
#_______________________________________________________________________________
DEPTH              .M                                      : 0 Depth curve 
AK4                .                                       : 2 Амплитуда - Волна по колонне - Канал1 
ALFAK              .дБ/м                                   : 1 Затухание - Волна по колонне 
AMPL               .                                       : 8 Коэффициент усиления ВС 
DK1                .дБ                                     : 3 Кривая ослабления - Волна по колонне - Канал1 
DK2                .дБ                                     : 4 Кривая ослабления - Волна по колонне - Канал2 
DTK                .мкс/м                                  : 5 ДельтаТ - Волна по породе 
QCBL               .                                       : 9 Контакт цемент-колонна 
T1                 .мкс                                    : 6 Время пробега - Волна по породе - Канал1 
T2                 .мкс                                    : 7 Время пробега - Волна по породе - Канал2 
~Ascii
# ...
2212.81    9251.331   19.393     1          8.88       18.576     187.386    2          348.653    442.344   
2213.01    11152.34   18.97      1          7.195      16.68      186.452    2          349.238    442.463   
2213.21    12803.05   16.585     1          5.924      14.216     186.421    2          349.83     443.039   
2213.41    13826.69   13.375     1          5.237      11.925     185.689    2          349.827    442.669   
2213.61    14179.05   10.473     1          4.993      10.229     186.782    2          349.799    443.189   
2213.81    14086.8    8.832      1          4.737      9.153      187.242    2          349.881    443.501   
2214.01    13682.49   7.909      1          4.99       8.944      188.164    2          349.931    444.012   
2214.21    13029.37   7.092      1          5.446      8.991      189.287    2          349.504    444.146   
2214.41    11732.06   6.149      1          6.727      9.801      189.278    2          349.263    443.9     
2214.61    10334.26   6.2        1          7.819      10.919     188.017    2          348.664    442.671   
2214.81    9067.076   6.743      1          8.914      12.286     187.528    2          348.044    441.807   
2215.01    8415.271   8.608      1          9.558      13.863     184.99     2          347.543    440.037   
2215.21    7802.212   9.919      1          10.209     15.168     183.966    2          348.008    439.989   
2215.41    7866.866   11.685     1          10.142     15.984     182.158    2          348.482    439.56    
2215.61    8316.761   13.094     1          9.682      16.229     184.114    2          348.595    440.651   
2215.81    9066.989   14.478     1          8.923      16.162     184.954    2          348.22     440.696   
2216.01    9755.616   14.663     1          8.668      15.913     184.999    2          348.309    440.806   
2216.21    9161.668   14.475     1          9.731      15.238     185.416    2          348.161    441.029   
2216.41    7483.932   12.028     1          11.878     16.162     185.6      2          348.358    444.681   
2216.61    5769.778   10.651     1          13.482     17.163     184.9      2          349.072    450.834   
2216.81    5349.794   9.4        1          13.581     18.281     182.571    2          350.983    451.42    
2217.01    6018.136   11.174     1          12.519     18.106     182.399    2          352.558    449.545   
2217.21    6865.297   13.321     1          11.362     18.035     184.338    2          353.145    445.312   
2217.41    7739.229   15.124     1          10.349     18.173     184.674    2          353.726    446.061   
2217.61    8802.246   16.065     1          9.163      17.496     188.851    2          352.49     446.914   
2217.81    10113.27   15.677     1          7.279      16.15      195.065    2          351.811    449.342   
2218.01    11387.02   14.624     1          5.926      14.022     195.768    2          350.085    447.968   
2218.21    12581.25   12.48      1          5.052      12.037     194.492    2          349.473    446.717   
2218.41    12885.76   10.67      1          5.551      10.886     189.579    2          348.867    443.655   
2218.61    12169.12   8.587      1          6.389      10.682     192.903    2          348.263    444.713   
2218.81    10484.23   8.352      1          7.773      11.949     191.623    2          348.152    443.962   
2219.01    8637.091   8.209      1          9.424      13.529     190.529    2          347.93     443.193   
2219.21    7167.928   8.808      1          11.006     15.411     188.741    2          347.753    442.122   
2219.41    6576.829   9.479      1          11.708     16.448     187.296    2          347.685    441.332   
2219.61    6766.256   12.231     1          11.488     17.603     179.9      2          347.316    437.265   
2219.81    7843.126   15.948     1          10.251     18.225     171.739    2          347.255    433.122   
2220.01    9465.412   19.6       1          8.628      18.428     165.522    2          347.458    430.218   
2220.21    11067.43   20.732     1          7.232      17.598     174.368    2          347.925    435.108   
2220.41    12068.95   18.875     1          6.416      15.854     185.124    2          347.946    440.507   
2220.61    12170.71   14.532     1          6.339      13.605     195.443    2          347.838    445.558   
2220.81    11631.24   9.956      1          6.738      11.716     197.489    2          347.968    446.711   
2221.01    11496.3    9.009      1          6.836      11.34      197.425    2          347.955    446.666   
2221.21    11210.57   11.099     1          7.033      12.582     198.616    2          347.343    446.649   
2221.41    10939.42   13.975     1          6.798      13.785     199.913    2          346.592    446.547   
2221.61    10152.55   13.597     1          7.439      14.237     202.481    2          345.969    447.207   
2221.81    9609.801   12.507     1          7.915      14.168     200.922    2          346.707    447.166   
2222.01    9086.645   12.419     1          8.446      14.656     199.733    2          346.599    446.465   
2222.21    8571.49    13.217     1          8.961      15.569     199.539    2          345.981    445.749   
2222.41    7851.529   12.208     1          9.761      15.865     201.92     2          344.482    445.729   
2222.61    7047.776   11.092     1          11.137     16.683     194.218    2          343.361    446.245   
2222.81    5839.363   9.846      1          12.894     17.817     194.16     2          343.89     446.745   
2223.01    4801.387   10.208     1          14.594     19.698     183.926    2          343.326    440.775   
2223.21    4098.546   10.326     1          15.802     20.965     183.672    2          342.463    434.297   
2223.41    3704.447   11.696     1          16.722     22.57      174.433    2          340.526    427.741   
2223.61    3360.649   12.767     1          17.613     23.996     175.485    2          339.298    427.039   
2223.81    2922.644   14.278     1          18.742     25.881     174.386    2          339.392    426.583   
2224.01    2699.047   14.898     1          19.432     26.881     174.281    2          338.811    425.974   
2224.21    2598.314   14.624     1          19.757     27.069     173.62     2          338.632    425.915   
2224.41    2700.198   15.95      1          19.453     27.428     173.068    2          338.774    425.781   
2224.61    3078.999   18.2       1          18.365     27.465     171.108    2          339.391    425.395   
2224.81    3392.104   21.275     1          17.41      28.104     171.941    2          339.514    425.483   
2225.01    3197.861   21.057     1          16.955     28.619     173.405    2          338.694    425.395   
2225.21    3178.337   21.306     1          17.002     28.791     173.297    2          339.323    425.97    
2225.41    3184.939   21.303     1          17.041     28.771     170.173    2          341.236    426.321   
2225.61    3957.979   21.334     1          16.189     26.856     179.609    2          343.225    433.028   
2225.81    4524.908   19.48      1          15.064     24.804     192.103    2          342.831    438.881   
2226.01    5491.884   19.607     1          13.317     23.12      204.891    2          342.756    445.208   
2226.21    6317.82    19.675     1          12.109     21.947     206.987    2          341.941    445.587   
2226.41    6739.384   19.995     1          11.486     21.484     209.172    2          341.777    446.516   
2226.61    6351.861   16.941     1          12.064     20.534     199.316    2          339.997    439.8     
2226.81    5593.324   15.843     1          13.152     21.074     186.728    2          339.521    432.883   
2227.01    4880.843   15.081     1          14.307     21.847     173.422    2          339.48     426.189   
2227.21    4090.84    14.761     1          16.046     23.426     173.813    2          339.409    426.315   
