~Version
 VERS              .         2.0                           : CWLS LOG ASCII STANDARD - VERSION 2.0
 WRAP              .         NO                            : ONE LINE PER DEPTH STEP
 DLM               .         SPACE                         : DELIMITING CHARACTER(SPACE TAB OR COMMA)
~Well Information
#_______________________________________________________________________________
#
#PARAMETER_NAME    .UNIT     VALUE                         : DESCRIPTION
#_______________________________________________________________________________
STRT               .M        10.2                          : First reference value
STOP               .M        2753.6                        : Last reference value
STEP               .M        0.2                           : Step increment
NULL               .         -9999                         : Missing value
COMP               .                                       : Company
WELL               .         616                           : Well name
FLD                .                                       : Field
LOC                .                                       : Location
CNTY               .                                       : County
STAT               .                                       : State
CTRY               .                                       : Country
SRVC               .                                       : Service Company
DATE               .                                       : Date
API                .                                       : API number
PROJECT_UPGRADE_TIME .         2021-03-18T21_24_50           : 
group              .         Good                          : 
~Parameter Information Block
#_______________________________________________________________________________
#
#PARAMETER_NAME    .UNIT     VALUE                         : DESCRIPTION
#_______________________________________________________________________________
SET                .         D7028_D                       : 
OTHER              .         Kedr.exe версия 2.1.2.32      : 
OTHER_10           .         TM.GRD = 0.00404*TM$.UE + 0.07: 
OTHER_11           .         MN.ATM = (6.33279e-006*TM.GRD + 0.02401)*(MN$.UE + 2.72*TM.GRD + -2018): 
OTHER_12           .         GK.MKR/H = GK$.UE / 43.5489 + 0: 
OTHER_13           .         RES.SM = 0.00476*CRES.UE - 1.51709: 
OTHER_14           .         PL.GSM3 = 0 + 0 * (PL.UE / 1) +  0 * (PL.UE / 1)^2: 
OTHER_15           .         Постоянная времени ГГП = 6 сек: 
OTHER_16           .         Постоянная времени ГК = 6 сек : 
OTHER_2            .         KedrData.dll версия 3.2.2.14  : 
OTHER_3            .         LasInf.dll версия 3.2.0.13    : 
OTHER_4            .         Драйвер версия 1.2.0.5        : 
OTHER_5            .         Прибор_ КСА-M1                : 
OTHER_6            .         Номер прибора_ 155+р204       : 
OTHER_7            .         Режим_ КСА-М1 + ГГП + Резистивиметр: 
OTHER_8            .         Форма_ 223\2                  : 
OTHER_9            .         Тарировки_                    : 
PROJECT_UPGRADE_TIME .         2021-03-18T21_24_50           : 
TLFamily_CRES      .                                       : 
TLFamily_DEPT      .         Measured Depth                : 
TLFamily_GK        .         Gamma Ray                     : 
TLFamily_GK$       .                                       : 
TLFamily_LM        .         Casing Collar locator         : 
TLFamily_METKA     .                                       : 
TLFamily_MN        .                                       : 
TLFamily_MN$       .                                       : 
TLFamily_PL        .                                       : 
TLFamily_PL_2      .                                       : 
TLFamily_RCOR      .                                       : 
TLFamily_RES       .         Mud Resistivity               : 
TLFamily_SPID      .         Spontaneous Potential         : 
TLFamily_STD       .                                       : 
TLFamily_TIME      .         Time                          : 
TLFamily_TM        .         Temperature                   : 
TLFamily_TM$       .         Temperature                   : 
TLFamily_VGD       .         Gas Volume                    : 
group              .         prim                          : 
~Curve Information
#_______________________________________________________________________________
#
#LOGNAME           .UNIT     LOG_ID                        : DESCRIPTION
#_______________________________________________________________________________
DEPT               .M                                      : 1 Глубина, м -    0.0 см 
CRES               .UE                                     : 9 Проводимость, усл.ед. -  222.0 см 
GK                 .MKR/H                                  : 16 Гамма-активность, мкр./ч -  106.0 см 
GK$                .UE                                     : 13 Гамма-активность, усл.ед. -  106.0 см 
LM                 .                                       : 11 Локатор муфт,  -   16.0 см 
METKA              .                                       : 3 Метки,  -    0.0 см 
MN                 .ATM                                    : 15 Давление, атм. -  160.0 см 
MN$                .UE                                     : 7 Давление, усл.ед. -  160.0 см 
PL                 .UE                                     : 10 Плотность, усл.ед. -  270.0 см 
PL_2               .GSM3                                   : 18 Плотность, г./см3 -  270.0 см 
RCOR               .CM/KM                                  : 5 Коррекция по ролику, см/км -    0.0 см 
RES                .SM                                     : 17 Проводимость,  -  222.0 см 
SPID               .M/H                                    : 2 Скорость, м/час -    0.0 см 
STD                .                                       : 12 Приток,  -  170.0 см 
TIME               .S                                      : 4 Время, сек -    0.0 см 
TM                 .GRD                                    : 14 Температура, °C -  180.0 см 
TM$                .UE                                     : 6 Температура, усл.ед. -  180.0 см 
VGD                .                                       : 8 Влагомер,  -  170.0 см 
~Ascii
# ...
2568.6     1312       8.5        363        485        0          235.695    11523      14         0          0          4.728      -1860      11563      19062.06   59.187     14633      6626      
2568.8     1312       8.54       363        673        0          235.702    11523      14         0          0          4.728      -1814      11562      19061.66   59.185     14632      6627      
2569       1312       8.59       363        772        0          235.717    11524      14         0          0          4.728      -1790      11562      19061.26   59.178     14631      6617      
2569.2     1311       8.65       363        613        0          235.742    11525      14         0          0          4.7253     -1790      11560      19060.87   59.173     14629      6626      
2569.4     1311       8.71       363        540        0          235.766    11526      14         0          0          4.7233     -1790      11559      19060.46   59.171     14629      6607      
2569.6     1310       8.8        363        575        0          235.79     11527      14         0          0          4.7208     -1837      11557      19060.07   59.169     14628      6618      
2569.8     1310       8.92       376        632        0          235.813    11528      14         0          0          4.7185     -1860      11560      19059.66   59.164     14627      6622      
2570       1310       8.98       401        705        0          235.836    11529      14         0          0          4.7185     -1843      11559      19059.04   59.161     14626      6619      
2570.2     1311       8.93       401        730        0          235.861    11530      14         0          0          4.7211     -1790      11558      19058.66   59.159     14626      6628      
2570.4     1311       8.86       401        832        0          235.869    11530      14         0          0          4.7233     -1790      11555      19058.25   59.156     14625      6628      
2570.6     1310       8.78       401        557        0          235.885    11531      14         0          0          4.7209     -1808      11555      19057.85   59.15      14624      6608      
2570.8     1310       8.68       401        543        0          235.907    11532      14         0          0          4.7185     -1840      11554      19057.44   59.144     14622      6614      
2571       1309       8.49       380        532        0          235.932    11533      14         0          0          4.7133     -1790      11553      19057.05   59.138     14621      6609      
2571.2     1308       8.44       377        614        0          235.956    11534      14         0          0          4.709      -1790      11553      19056.65   59.135     14620      6607      
2571.4     1308       8.38       377        677        0          235.964    11534      14         0          0          4.709      -1811      11552      19056.25   59.132     14619      6605      
2571.6     1307       8.32       377        516        0          235.993    11535      14         0          0          4.7063     -1860      11550      19055.85   59.128     14618      6609      
2571.8     1309       8.24       377        493        0          236.017    11536      14         0          0          4.7124     -1860      11550      19055.46   59.122     14617      6606      
2572       1309       8.14       377        537        0          236.042    11537      14         0          0          4.7158     -1842      11549      19055.07   59.118     14616      6621      
2572.2     1308       8.02       352        604        0          236.066    11538      14         0          0          4.709      -1790      11549      19054.68   59.114     14615      6614      
2572.4     1308       8.01       351        618        0          236.09     11539      14         0          0          4.709      -1790      11547      19054.27   59.108     14613      6614      
2572.6     1308       8          351        517        0          236.113    11540      14         0          0          4.709      -1808      11547      19053.88   59.101     14612      6617      
2572.8     1308       7.98       351        539        0          236.137    11541      14         0          0          4.7097     -1860      11546      19053.47   59.098     14611      6609      
2573       1309       7.97       351        529        0          236.154    11542      14         0          0          4.7128     -1840      11546      19053.08   59.096     14610      6602      
2573.2     1308       7.94       351        668        0          236.161    11542      14         0          0          4.7083     -1790      11545      19052.7    59.089     14609      6606      
2573.4     1307       7.92       351        724        0          236.185    11543      14         0          0          4.7042     -1810      11544      19052.29   59.086     14608      6611      
2573.6     1308       7.88       350        753        0          236.208    11544      14         0          0          4.7071     -1842      11542      19051.91   59.085     14608      6605      
2573.8     1309       7.85       350        866        0          236.232    11545      14         0          0          4.7157     -1790      11541      19051.51   59.08      14606      6605      
2574       1307       7.8        350        1080       0          236.249    11546      14         0          0          4.7042     -1807      11541      19051.11   59.073     14605      6607      
2574.2     1307       7.75       350        1527       0          236.255    11546      14         0          0          4.7049     -1846      11540      19050.72   59.07      14604      6619      
2574.4     1308       7.68       350        2226       0          236.28     11547      14         0          0          4.7082     -1790      11541      19050.32   59.068     14603      6609      
2574.6     1307       7.6        350        3382       0          236.303    11548      14         0          0          4.7051     -1808      11539      19049.92   59.061     14602      6605      
2574.8     1308       7.5        329        5280       0          236.327    11549      14         0          0          4.709      -1843      11538      19049.53   59.057     14601      6607      
2575       1308       7.49       328        818        0          236.351    11550      14         0          0          4.708      -1804      11537      19049.14   59.053     14600      6610      
2575.2     1307       7.48       328        614        0          236.368    11551      14         0          0          4.7051     -1860      11536      19048.74   59.049     14599      6603      
2575.4     1308       7.47       328        563        0          236.38     11551      14         0          0          4.709      -1847      11535      19048.35   59.045     14598      6602      
2575.6     1308       7.45       328        444        0          236.415    11553      14         0          0          4.709      -1790      11534      19047.96   59.04      14596      6601      
2575.8     1308       7.43       328        455        0          236.42     11553      14         0          0          4.7083     -1790      11533      19047.54   59.034     14595      6601      
2576       1307       7.41       314        483        0          236.444    11554      14         0          0          4.7042     -1803      11532      19047.16   59.033     14595      6600      
2576.2     1307       7.46       312        471        0          236.469    11555      14         0          0          4.7049     -1860      11531      19046.78   59.029     14594      6604      
2576.4     1308       7.53       312        320        0          236.492    11556      14         0          0          4.7085     -1846      11530      19046.36   59.024     14593      6605      
2576.6     1307       7.61       312        394        0          236.51     11557      14         0          0          4.7047     -1790      11529      19045.96   59.017     14591      6611      
