~Version
 VERS              .         2.0                           : CWLS LOG ASCII STANDARD - VERSION 2.0
 WRAP              .         NO                            : ONE LINE PER DEPTH STEP
 DLM               .         SPACE                         : DELIMITING CHARACTER(SPACE TAB OR COMMA)
~Well Information
#_______________________________________________________________________________
#
#PARAMETER_NAME    .UNIT     VALUE                         : DESCRIPTION
#_______________________________________________________________________________
STRT               .M        199                           : First reference value
STOP               .M        270.2                         : Last reference value
STEP               .M        0.2                           : Step increment
NULL               .         -9999                         : Missing value
COMP               .                                       : Company
WELL               .         616                           : Well name
FLD                .                                       : Field
LOC                .                                       : Location
CNTY               .                                       : County
STAT               .                                       : State
CTRY               .                                       : Country
SRVC               .                                       : Service Company
DATE               .                                       : Date
API                .                                       : API number
PROJECT_UPGRADE_TIME .         2021-03-18T21_24_50           : 
group              .         Good                          : 
~Parameter Information Block
#_______________________________________________________________________________
#
#PARAMETER_NAME    .UNIT     VALUE                         : DESCRIPTION
#_______________________________________________________________________________
SET                .         616_2_1                       : 
CONF               .         00                            : 
END                .         0                             : 
ERR                .         0                             : 
GS00               .M        0268.25                       : 
GS01               .M        0196.64                       : 
MM00               .M        0060.00                       : 
NOKG               .         0                             : 
NPR                .         980402                        : 
PART               .         Палагутин                     : 
PROJECT_UPGRADE_TIME .         2021-03-18T21_24_49           : 
PRZK               .         Шакиров                       : 
TLFamily_AZIMUTH   .         True Dip Azimuth              : 
TLFamily_DEPTH     .         Measured Depth                : 
TLFamily_METKA     .                                       : 
TLFamily_ROLL      .                                       : 
TLFamily_SPEED     .         Spontaneous Potential         : 
TLFamily_ZENIT     .                                       : 
VPRG               .         310                           : 
WAY                .         UP                            : 
group              .         prim                          : 
~Curve Information
#_______________________________________________________________________________
#
#LOGNAME           .UNIT     LOG_ID                        : DESCRIPTION
#_______________________________________________________________________________
DEPTH              .M                                      :  
AZIMUTH            .DEG                                    :  
METKA              .                                       :  
ROLL               .DEG                                    :  
SPEED              .M/H                                    :  
ZENIT              .DEG                                    :  
~Ascii
199.0      249.11     0          282.19     468        18.45     
199.2      248.83     0          279.32     504        18.25     
199.4      247.1      0          277.87     504        18.26     
199.6      247.1      0          277.75     504        17.81     
199.8      246.61     0          277.48     612        18.38     
200        249.11     0          276.83     648        19.1      
200.2      250.75     0          277.87     648        19.44     
200.4      250.55     0          279.01     684        19.24     
200.6      247.86     0          279.39     612        18.82     
200.8      246.13     0          279.52     648        18.25     
201        245.49     0          279.51     612        18.51     
201.2      247.11     0          279.77     648        18.6      
201.4      249.63     0          279.95     684        18.94     
201.6      251.36     0          280.08     612        19.44     
201.8      251.72     0          280.31     648        19.77     
202        250.84     0          279.8      612        19.77     
202.2      249.62     1          278.62     648        19.1      
202.4      244.54     0          279.2      612        18.27     
202.6      244.92     0          279.46     648        18.25     
202.8      247.05     0          279.92     576        18.71     
203        249.29     0          279.7      648        19.19     
203.2      252.16     0          279.09     648        19.8      
203.4      251.96     0          278.51     612        20.2      
203.6      251.72     0          277.53     648        19.92     
203.8      248.45     0          276.82     576        19.16     
204        245.59     0          275.94     612        18.48     
204.2      245.27     0          275.86     648        18.62     
204.4      248.16     0          277.31     648        19.19     
204.6      249.66     0          276.87     612        20.09     
204.8      253.11     0          277.03     648        20.52     
205        251.3      0          277.49     576        20.09     
205.2      247.78     0          276.49     648        19.26     
205.4      246.48     0          275.76     684        18.75     
205.6      245.34     0          274.93     612        19.05     
205.8      249.64     0          274.62     648        19.64     
206        250.81     0          273.35     576        20.16     
206.2      254.6      0          269.83     648        20.25     
206.4      254.34     0          267.39     648        20.17     
206.6      263.39     0          267.02     612        20.03     
206.8      307.76     0          266.98     648        19.49     
207        233.03     0          267.37     612        19.18     
207.2      214.53     0          268.69     684        19.34     
207.4      341.43     0          269.36     612        20.07     
207.6      275.13     0          270.95     648        20.77     
207.8      259.98     0          272.96     648        21.19     
208        255.21     0          276.12     648        21.26     
208.2      250.82     0          281.39     612        20.76     
208.4      247.16     0          287.52     648        20.18     
208.6      248.46     0          292.03     612        19.79     
208.8      246.65     0          292.77     612        19.54     
209        248.73     0          292.56     612        19.9      
209.2      250.45     0          291.71     648        20.3      
209.4      252.6      0          289.82     612        20.88     
209.6      250.14     0          289.26     612        20.67     
209.8      248.12     0          291.41     648        20.28     
210        247.03     0          293        648        19.53     
210.2      247.97     0          291.79     648        19.56     
210.4      250.62     0          288.75     612        20.09     
210.6      253.08     1          286.18     612        20.95     
210.8      255.4      0          283.93     1116       21.39     
211        255.33     0          281.51     612        21.42     
211.2      252.15     0          276.3      648        20.9      
211.4      249.85     0          273.42     648        20.27     
211.6      249.2      0          272.14     648        20.29     
211.8      248.94     0          271.74     576        20.26     
212        247.51     0          271.41     612        20.4      
212.2      251.06     1          270.41     684        21.17     
212.4      254.07     0          269.63     648        21.54     
212.6      253.95     0          269.46     612        21.67     
212.8      251.16     0          267.44     612        21.47     
213        247.06     0          265.81     612        20.71     
213.2      246.4      0          265.48     684        20.12     
213.4      244.32     0          263.98     648        19.93     
213.6      245.74     0          262.61     612        20.31     
213.8      249.86     0          263.24     648        20.98     
214        252.51     0          263.39     612        21.72     
214.2      253.99     0          263.76     648        21.94     
214.4      251.5      0          263.69     648        21.48     
214.6      248.31     0          264.21     612        20.81     
214.8      246.61     0          264.39     612        20.37     
215        244.81     0          263.98     648        20.4      
215.2      247.32     0          264.51     648        20.93     
215.4      251.81     0          264.99     648        21.84     
215.6      255.57     0          264.58     648        22.4      
215.8      251.45     0          264.44     648        21.93     
216        246.29     0          265.06     612        20.85     
216.2      245.5      0          267.18     612        20.45     
216.4      244.39     0          268.08     648        20.74     
216.6      250.88     0          271.23     612        21.59     
216.8      251.1      0          271.48     648        21.82     
217        249.8      0          271.17     612        21.88     
217.2      251.8      0          272.59     612        22.12     
217.4      251.2      0          273.73     684        21.88     
217.6      247.26     0          274.08     612        21.23     
217.8      245.14     0          274.89     612        20.86     
218        247.06     0          275.28     648        20.74     
218.2      248.59     0          274.92     648        21.22     
218.4      253.49     0          273.29     612        22.12     
218.6      259.03     0          272.29     612        22.85     
218.8      265.66     0          272.24     648        22.94     
219        294.02     0          273.15     612        22.66     
219.2      338.93     0          272.48     648        21.89     
219.4      127.75     0          272.3      576        21.33     
219.6      109.91     0          272.55     612        21.38     
219.8      337.24     0          271.7      648        22.21     
220        270.5      0          271.66     612        22.85     
220.2      261.8      0          273.39     648        23.46     
220.4      257.06     0          275.58     648        23.55     
220.6      250.45     0          279.97     648        22.57     
220.8      247.13     0          284.72     648        21.6      
221        248.71     0          286.8      612        21.71     
221.2      251.89     0          287.45     648        22.37     
221.4      254.27     0          287.54     648        22.96     
221.6      252.03     0          287.23     612        22.55     
221.8      252.6      0          286.08     612        22.54     
222        248.87     1          286.32     648        22.11     
222.2      251.68     0          287.14     612        22.73     
222.4      249.14     0          286.73     612        21.91     
222.6      249.3      0          284.96     612        22.03     
222.8      251.43     2          283.65     468        22.49     
223        256.96     0          282.03     504        23.62     
223.2      258.66     0          279.92     648        23.87     
