~Version
 VERS              .         2.0                           : CWLS LOG ASCII STANDARD - VERSION 2.0
 WRAP              .         NO                            : ONE LINE PER DEPTH STEP
 DLM               .         SPACE                         : DELIMITING CHARACTER(SPACE TAB OR COMMA)
~Well Information
#_______________________________________________________________________________
#
#PARAMETER_NAME    .UNIT     VALUE                         : DESCRIPTION
#_______________________________________________________________________________
STRT               .M        0.2                           : First reference value
STOP               .M        2774.2                        : Last reference value
STEP               .M        0.2                           : Step increment
NULL               .         -9999                         : Missing value
COMP               .                                       : Company
WELL               .         616                           : Well name
FLD                .                                       : Field
LOC                .                                       : Location
CNTY               .                                       : County
STAT               .                                       : State
CTRY               .                                       : Country
SRVC               .                                       : Service Company
DATE               .                                       : Date
API                .                                       : API number
PROJECT_UPGRADE_TIME .         2021-03-18T21_24_50           : 
group              .         Good                          : 
~Parameter Information Block
#_______________________________________________________________________________
#
#PARAMETER_NAME    .UNIT     VALUE                         : DESCRIPTION
#_______________________________________________________________________________
SET                .         D1799_D_2                     : 
NPR                .                                       : 
OTHER              .         Программное обеспечение станции MONITOR-386EX 25/12/99 15_08_10   BGF V52 22/08/01 16_56_30   3.1_SNGF___BGF_N_092049: 
OTHER_10           .         Тарировки_                    : 
OTHER_11           .         TM.GRD = 0.00403*TM$.UE + -1.07: 
OTHER_12           .         MN.ATM = (9.34907e-006*TM.GRD + 0.02171)*(MN$.UE + -7.93*TM.GRD + -1787): 
OTHER_13           .         GK.MKR/H = LM. / 42.4676      : 
OTHER_14           .         GK.FLT = 0.1*GK.MKR/H[-1] + (1-0.1)*GK.MKR/H[0]: 
OTHER_2            .         Kedr.exe версия 3.4.2.51      : 
OTHER_3            .         KedrData.dll версия 3.4.2.24  : 
OTHER_4            .         Драйвер версия 2.1.1.3        : 
OTHER_5            .         Мнемоники версия 3.3 S        : 
OTHER_6            .         Прибор_ КСА-Т4                : 
OTHER_7            .         Номер прибора_ 03             : 
OTHER_8            .         Режим_ КСА-Т4                 : 
OTHER_9            .         Форма_ КВА.                   : 
PR                 .                                       : 
PROJECT_UPGRADE_TIME .         2021-03-18T21_24_49           : 
PRTY               .         ПП-603-1                      : N партии
SRV                .                                       : 
SRVC               .         Карпов                        : Начальник партии
TLFamily_DEPT      .         Measured Depth                : 
TLFamily_LM        .         Casing Collar locator         : 
TLFamily_MN        .                                       : 
TLFamily_TM        .         Temperature                   : 
group              .         second                        : 
~Curve Information
#_______________________________________________________________________________
#
#LOGNAME           .UNIT     LOG_ID                        : DESCRIPTION
#_______________________________________________________________________________
DEPT               .M                                      : Depth curve 
LM                 .е.ацп                                  : Локатор муфт,е.ацп 
MN                 .атм                                    : Манометрия, атм 
TM                 .град.C                                 : Термограмма по стволу скважины,град.C 
~Ascii
0.2        -9999      -9999      -9999     
0.4        -9999      -9999      -9999     
0.6        2053       -9999      -9999     
0.8        4368       -9999      -9999     
1          10101      -9999      -9999     
1.2        13179      -9999      -9999     
1.4        9342.999   -9999      -9999     
1.6        3904       -9999      -9999     
1.8        1716       -9999      -9999     
2          1193       -2.336     -9999     
2.2        2137       -2.298     6.186     
2.4        2647.001   -2.368     6.299     
2.6        7765.001   -2.495     7.078     
2.8        10955      -2.648     7.943     
3          9436.999   -2.818     9.126     
3.2        6868.999   -2.919     9.886     
3.4        4393.999   -3.091     10.73     
3.6        1849       -3.236     11.762    
3.8        1207       -3.287     12.401    
4          356        -3.37      12.904    
4.2        277        -3.436     13.404    
4.4        221        -3.493     13.88     
4.6        165        -3.558     14.324    
4.8        122        -3.581     14.703    
5          112        -3.613     14.938    
5.2        96         -3.607     15.151    
5.4        116        -3.614     15.356    
5.6        178        -3.62      15.482    
5.8        138        -3.617     15.548    
6          110        -3.61      15.598    
6.2        141        -3.595     15.639    
6.4        154        -3.583     15.685    
6.6        149        -3.573     15.74     
6.8        123        -3.574     15.799    
7          101        -3.566     15.862    
7.2        103        -3.551     15.928    
7.4        104        -3.533     15.984    
7.6        69         -3.526     16.033    
7.8        81         -3.51      16.063    
8          89         -3.491     16.084    
8.2        73         -3.469     16.109    
8.4        160        -3.45      16.132    
8.6        146        -3.438     16.16     
8.8        140        -3.431     16.188    
9          213        -3.406     16.22     
9.2        187        -3.388     16.251    
9.4        167        -3.367     16.27     
9.6        203        -3.353     16.3      
9.8        191        -3.336     16.326    
10         191        -3.311     16.352    
10.2       196        -3.283     16.382    
10.4       176        -3.259     16.4      
10.6       210        -3.257     16.409    
10.8       201        -3.234     16.422    
11         173        -3.212     16.439    
11.2       153        -3.192     16.448    
11.4       186        -3.173     16.456    
11.6       186        -3.154     16.456    
11.8       262        -3.134     16.465    
12         184        -3.103     16.477    
12.2       121        -3.035     16.491    
12.4       103        -3.022     16.53     
12.6       111        -3.009     16.542    
12.8       119        -2.987     16.557    
13         128        -2.959     16.573    
13.2       150        -2.938     16.592    
13.4       135        -2.886     16.7      
13.6       108        -2.847     16.702    
13.8       156        -2.811     16.709    
14         137        -2.768     16.718    
14.2       116        -2.746     16.718    
14.4       86         -2.692     16.719    
14.6       105        -2.662     16.73     
14.8       341.002    -2.62      16.744    
15         2153.002   -2.573     16.755    
15.2       3618.997   -2.528     16.767    
15.4       992.999    -2.498     16.795    
15.6       313        -2.456     16.807    
15.8       187        -2.414     16.812    
16         133        -2.368     16.83     
16.2       138        -2.334     16.853    
16.4       125        -2.28      16.87     
16.6       106        -2.228     16.879    
16.8       97         -2.194     16.885    
17         95         -2.134     16.892    
17.2       79         -2.1       16.906    
17.4       85         -2.048     16.932    
17.6       93         -2.013     16.936    
17.8       159        -1.964     16.948    
18         158        -1.922     16.958    
18.2       128        -1.865     16.964    
18.4       135        -1.808     16.974    
18.6       126        -1.756     16.989    
18.8       119        -1.726     17.008    
19         123        -1.67      17.018    
19.2       109        -1.613     17.021    
19.4       109        -1.575     17.025    
19.6       123        -1.497     17.025    
19.8       123        -1.464     17.028    
20         124        -1.407     17.039    
20.2       150        -1.353     17.049    
20.4       150        -1.297     17.06     
20.6       118        -1.264     17.071    
20.8       111        -1.207     17.081    
21         103        -1.17      17.085    
21.2       93         -1.115     17.09     
21.4       117        -1.062     17.097    
21.6       102        -1.054     17.101    
21.8       104        -1.045     17.101    
22         118        -1.013     17.101    
22.2       113        -0.976     17.105    
22.4       103        -0.923     17.109    
22.6       102        -0.866     17.117    
22.8       91         -0.81      17.121    
23         92         -0.752     17.125    
23.2       93         -0.719     17.128    
23.4       96         -0.661     17.135    
23.6       112        -0.602     17.142    
23.8       91         -0.566     17.149    
24         98         -0.512     17.15     
24.2       146        -0.461     17.154    
24.4       158        -0.421     17.158    
24.6       164        -0.364     17.163    
24.8       257        -0.308     17.17     
25         212        -0.253     17.174    
25.2       196        -0.213     17.178    
25.4       194        -0.159     17.185    
25.6       326        -0.126     17.19     
25.8       235        -0.081     17.19     
26         191        -0.051     17.191    
26.2       193        -0.02      17.194    
26.4       250        0.009      17.198    
26.6       234.009    0.043      17.202    
26.8       4612.996   0.089      17.206    
27         2374.998   0.122      17.211    
27.2       1547.999   0.15       17.217    
27.4       1010.999   0.179      17.222    
27.6       469        0.214      17.226    
27.8       333        0.261      17.23     
28         289        0.291      17.235    
28.2       228        0.318      17.241    
28.4       214        0.349      17.242    
28.6       214        0.4        17.246    
28.8       193        0.431      17.25     
29         210        0.46       17.254    
29.2       170        0.489      17.257    
29.4       166        0.532      17.262    
29.6       180        0.569      17.264    
29.8       169        0.599      17.267    
30         172        0.625      17.267    
30.2       174        0.656      17.271    
30.4       184        0.694      17.275    
30.6       189        0.737      17.279    
30.8       181        0.768      17.28     
31         169        0.796      17.283    
31.2       213        0.826      17.287    
31.4       217        0.855      17.289    
31.6       187        0.884      17.291    
31.8       196        0.937      17.295    
32         234        0.989      17.295    
32.2       241        1.019      17.299    
32.4       193        1.049      17.301    
32.6       203        1.078      17.306    
32.8       189        1.129      17.307    
33         148        1.16       17.307    
33.2       233        1.191      17.311    
33.4       198        1.22       17.311    
33.6       190        1.25       17.311    
33.8       243        1.279      17.315    
34         258        1.31       17.317    
34.2       251        1.339      17.319    
34.4       225        1.368      17.323    
34.6       222        1.408      17.326    
34.8       196        1.451      17.327    
35         215        1.478      17.329    
35.2       186        1.498      17.331    
35.4       191        1.54       17.332    
35.6       186        1.569      17.335    
35.8       175        1.6        17.339    
36         258        1.628      17.339    
36.2       244        1.673      17.342    
36.4       292        1.69       17.343    
