~Version
 VERS              .         2.0                           : CWLS LOG ASCII STANDARD - VERSION 2.0
 WRAP              .         NO                            : ONE LINE PER DEPTH STEP
 DLM               .         SPACE                         : DELIMITING CHARACTER(SPACE TAB OR COMMA)
~Well Information
#_______________________________________________________________________________
#
#PARAMETER_NAME    .UNIT     VALUE                         : DESCRIPTION
#_______________________________________________________________________________
STRT               .M        2647.6                        : First reference value
STOP               .M        2757.2                        : Last reference value
STEP               .M        0.1999997                     : Step increment
NULL               .         -9999                         : Missing value
COMP               .                                       : Company
WELL               .         616                           : Well name
FLD                .                                       : Field
LOC                .                                       : Location
CNTY               .                                       : County
STAT               .                                       : State
CTRY               .                                       : Country
SRVC               .                                       : Service Company
DATE               .                                       : Date
API                .                                       : API number
PROJECT_UPGRADE_TIME .         2021-03-18T21_24_50           : 
group              .         Good                          : 
~Parameter Information Block
#_______________________________________________________________________________
#
#PARAMETER_NAME    .UNIT     VALUE                         : DESCRIPTION
#_______________________________________________________________________________
SET                .         D7017_D                       : 
OTHER              .         Kedr.exe версия 2.1.2.32      : 
OTHER_10           .         TM.GRD = 0.00404*TM$.UE + 0.07: 
OTHER_11           .         MN.ATM = (6.33279e-006*TM.GRD + 0.02401)*(MN$.UE + 2.72*TM.GRD + -2018): 
OTHER_12           .         GK.MKR/H = GK$.UE / 43.5489 + 0: 
OTHER_13           .         RES.SM = 0.00476*CRES.UE - 1.51709: 
OTHER_14           .         PL.GSM3 = 0 + 0 * (PL.UE / 1) +  0 * (PL.UE / 1)^2: 
OTHER_15           .         Постоянная времени ГГП = 6 сек: 
OTHER_16           .         Постоянная времени ГК = 6 сек : 
OTHER_2            .         KedrData.dll версия 3.2.2.14  : 
OTHER_3            .         LasInf.dll версия 3.2.0.13    : 
OTHER_4            .         Драйвер версия 1.2.0.5        : 
OTHER_5            .         Прибор_ КСА-M1                : 
OTHER_6            .         Номер прибора_ 155+р204       : 
OTHER_7            .         Режим_ КСА-М1 + ГГП + Резистивиметр: 
OTHER_8            .         Форма_ 223\2                  : 
OTHER_9            .         Тарировки_                    : 
PROJECT_UPGRADE_TIME .         2021-03-18T21_24_50           : 
TLFamily_CRES      .                                       : 
TLFamily_DEPT      .         Measured Depth                : 
TLFamily_GK        .         Gamma Ray                     : 
TLFamily_GK$       .                                       : 
TLFamily_LM        .         Casing Collar locator         : 
TLFamily_METKA     .                                       : 
TLFamily_MN        .                                       : 
TLFamily_MN$       .                                       : 
TLFamily_PL        .                                       : 
TLFamily_PL_2      .                                       : 
TLFamily_RCOR      .                                       : 
TLFamily_RES       .         Mud Resistivity               : 
TLFamily_SPID      .         Spontaneous Potential         : 
TLFamily_STD       .                                       : 
TLFamily_TIME      .         Time                          : 
TLFamily_TM        .         Temperature                   : 
TLFamily_TM$       .         Temperature                   : 
TLFamily_VGD       .         Gas Volume                    : 
group              .         prim                          : 
~Curve Information
#_______________________________________________________________________________
#
#LOGNAME           .UNIT     LOG_ID                        : DESCRIPTION
#_______________________________________________________________________________
DEPT               .M                                      : 1 Глубина, м -    0.0 см 
CRES               .UE                                     : 9 Проводимость, усл.ед. -  222.0 см 
GK                 .MKR/H                                  : 16 Гамма-активность, мкр./ч -  106.0 см 
GK$                .UE                                     : 13 Гамма-активность, усл.ед. -  106.0 см 
LM                 .                                       : 11 Локатор муфт,  -   16.0 см 
METKA              .                                       : 3 Метки,  -    0.0 см 
MN                 .ATM                                    : 15 Давление, атм. -  160.0 см 
MN$                .UE                                     : 7 Давление, усл.ед. -  160.0 см 
PL                 .UE                                     : 10 Плотность, усл.ед. -  270.0 см 
PL_2               .GSM3                                   : 18 Плотность, г./см3 -  270.0 см 
RCOR               .CM/KM                                  : 5 Коррекция по ролику, см/км -    0.0 см 
RES                .SM                                     : 17 Проводимость,  -  222.0 см 
SPID               .M/H                                    : 2 Скорость, м/час -    0.0 см 
STD                .                                       : 12 Приток,  -  170.0 см 
TIME               .S                                      : 4 Время, сек -    0.0 см 
TM                 .GRD                                    : 14 Температура, °C -  180.0 см 
TM$                .UE                                     : 6 Температура, усл.ед. -  180.0 см 
VGD                .                                       : 8 Влагомер,  -  170.0 см 
~Ascii
2647.6000977 -9999      -9999      -9999      -9999      -9999      -9999      -9999      -9999      -9999      -9999      -9999      -9999      -9999      -9999      -9999      -9999      -9999     
2647.8     -9999      -9999      -9999      115        0          -9999      -9999      -9999      -9999      0          -9999      -260       -9999      9180.48    -9999      -9999      -9999     
2648       -9999      -9999      -9999      126        0          -9999      -9999      -9999      -9999      0          -9999      -260       -9999      9177.56    -9999      -9999      -9999     
2648.2     -9999      -9999      -9999      590        0          -9999      -9999      -9999      -9999      0          -9999      -260       -9999      9174.79    -9999      -9999      -9999     
2648.4     -9999      -9999      -9999      3420       0          -9999      -9999      -9999      -9999      0          -9999      -260       -9999      9172.01    -9999      -9999      -9999     
2648.6     -9999      -9999      -9999      140        0          -9999      -9999      -9999      -9999      0          -9999      -260       -9999      9169.09    -9999      -9999      -9999     
2648.8     -9999      9.73       416        118        0          -9999      -9999      -9999      -9999      0          -9999      -260       -9999      9166.31    -9999      -9999      -9999     
2649       -9999      9.65       431        115        0          -9999      -9999      -9999      -9999      0          -9999      -260       -9999      9163.55    -9999      -9999      -9999     
2649.2     -9999      9.21       415        131        0          -9999      -9999      -9999      -9999      0          -9999      -260       -9999      9160.77    -9999      -9999      -9999     
2649.4     -9999      9.15       392        100        0          243.41     11890      -9999      -9999      0          -9999      -260       9736       9157.87    -9999      -9999      6626      
2649.6     -9999      9.61       414        181        0          243.432    11891      -9999      -9999      0          -9999      -260       9736       9155.08    49.604     12261      6631      
2649.8     -9999      9.82       430        2950       1          243.431    11891      -9999      -9999      0          -9999      -260       9732       9152.3     49.588     12257      6625      
2650       1270       9.71       426        1683       0          243.454    11892      -9999      -9999      0          4.5265     -260       9729       9147.93    49.579     12255      6624      
2650.2     1270       9.6        419        3239       0          243.477    11893      -9999      -9999      0          4.5281     -260       9728       9145.02    49.568     12252      6623      
2650.4     1268       9.54       419        132        0          243.506    11894      14         0          0          4.517      -260       9726       9142.25    49.557     12249      6623      
2650.6     1270       9.63       410        119        0          243.496    11894      14         0          0          4.5266     -260       9724       9139.4     49.533     12243      6624      
2650.8     1270       9.73       422        110        0          243.535    11896      14         0          0          4.5281     -260       9721       9136.56    49.52      12240      6626      
2651       1270       9.64       410        121        0          243.566    11897      13         0          0          4.5281     -260       9717       9133.79    49.506     12237      6625      
2651.2     1266       10.34      442        119        0          243.59     11898      14         0          0          4.5091     -260       9714       9131       49.499     12235      6627      
2651.4     1268       10.18      455        124        0          243.612    11899      14         0          0          4.5186     -260       9712       9128.11    49.491     12233      6629      
2651.6     1268       9.94       435        143        0          243.633    11900      13         0          0          4.5186     -260       9710       9125.32    49.475     12229      6635      
2651.8     1267       9.8        426        125        0          243.656    11901      14         0          0          4.5138     -320       9710       9122.56    49.451     12223      6642      
2652       1267       9.87       424        144        0          243.655    11901      14         0          0          4.5154     -260       9706       9119.77    49.44      12220      6630      
2652.2     1266       10.1       437        129        0          243.701    11903      13         0          0          4.5114     -260       9703       9117.01    49.432     12218      6640      
2652.4     1267       10.02      448        146        0          243.699    11903      13         0          0          4.5123     -260       9698       9114.1     49.411     12213      6626      
2652.6     1267       9.51       433        949        0          243.739    11905      14         0          0          4.5123     -260       9696       9111.33    49.393     12209      6623      
2652.8     1264       9.39       402        2498       0          243.745    11905      14         0          0          4.5011     -260       9693       9108.54    49.389     12208      6634      
2653       1264       9.67       406        107        0          243.765    11906      13         0          0          4.4996     -260       9692       9105.7     49.373     12204      6629      
2653.2     1266       9.79       421        123        0          243.837    11909      13         0          0          4.5091     -260       9690       9102.86    49.346     12197      6635      
2653.4     1266       10.14      433        904        0          243.812    11908      14         0          0          4.5091     -260       9688       9100.09    49.338     12195      6640      
2653.6     1262       10.63      464        3328       0          243.836    11909      14         0          0          4.4901     -260       9685       9097.29    49.33      12193      6631      
2653.8     1266       10.33      478        154        0          243.859    11910      13         0          0          4.5074     -260       9682       9094.4     49.33      12193      6640      
2654       1266       9.4        427        149        0          243.88     11911      13         0          0          4.5075     -260       9681       9091.61    49.318     12190      6634      
2654.2     1264       9.14       396        504        0          243.864    11910      14         0          0          4.5011     -190       9679       9088.85    49.293     12184      6637      
2654.4     1262       8.64       413        3282       0          243.928    11913      13         0          0          4.4916     -260       9675       9085.93    49.296     12185      6643      
2654.6     1264       7.58       349        106        0          243.926    11913      14         0          0          4.4995     -260       9673       9083.15    49.285     12182      6642      
2654.8     1264       7.06       306        104        0          243.948    11914      15         0          0          4.498      -260       9675       9080.25    49.269     12178      6632      
2655       1264       7.8        325        107        0          243.971    11915      13         0          0          4.4996     -260       9670       9077.48    49.254     12174      6632      
2655.2     1263       8.43       374        135        0          244.01     11917      14         0          0          4.4948     -260       9665       9074.7     49.244     12172      6641      
2655.4     1261       7.98       365        129        0          244.04     11918      13         0          0          4.4853     -260       9662       9071.78    49.231     12169      6646      
2655.6     1262       7.58       326        154        0          244.014    11917      14         0          0          4.49       -320       9659       9068.88    49.213     12164      6642      
