~Version
 VERS              .         2.0                           : CWLS LOG ASCII STANDARD - VERSION 2.0
 WRAP              .         NO                            : ONE LINE PER DEPTH STEP
 DLM               .         SPACE                         : DELIMITING CHARACTER(SPACE TAB OR COMMA)
~Well Information
#_______________________________________________________________________________
#
#PARAMETER_NAME    .UNIT     VALUE                         : DESCRIPTION
#_______________________________________________________________________________
STRT               .M        2718.8                        : First reference value
STOP               .M        2774.8                        : Last reference value
STEP               .M        0.2                           : Step increment
NULL               .         -9999                         : Missing value
COMP               .                                       : Company
WELL               .         616                           : Well name
FLD                .                                       : Field
LOC                .                                       : Location
CNTY               .                                       : County
STAT               .                                       : State
CTRY               .                                       : Country
SRVC               .                                       : Service Company
DATE               .                                       : Date
API                .                                       : API number
PROJECT_UPGRADE_TIME .         2021-03-18T21_24_50           : 
group              .         Good                          : 
~Parameter Information Block
#_______________________________________________________________________________
#
#PARAMETER_NAME    .UNIT     VALUE                         : DESCRIPTION
#_______________________________________________________________________________
SET                .         D1746_D                       : 
OTHER              .         Программное обеспечение станции MONITOR-386EX 25/12/99 15_08_10   BGF V52 22/08/01 16_56_30   3.1_SNGF___BGF_N_111239: 
OTHER_10           .         Тарировки_                    : 
OTHER_11           .         <_techsia_sc_> Постоянная времени фильтра ГК  3.0 сек, kf=0.016529: 
OTHER_12           .         <_techsia_sc_> Постоянная времени фильтра ННК  3.0 сек, kf=0.016529: 
OTHER_13           .         GK.MKR/H = GK$.IMP/476        : 
OTHER_14           .         WSAT.PERC = -12.5 + 78.0 * (NKT2$.IMP / NKT1$.IMP) * 1731/33716: 
OTHER_15           .         NKT2.PRIV = NKT2$.IMP/33716   : 
OTHER_16           .         NKT1.PRIV = NKT1$.IMP/1731    : 
OTHER_2            .         Kedr.exe версия 3.3.2.32      : 
OTHER_3            .         KedrData.dll версия 3.3.2.17  : 
OTHER_4            .         Драйвер версия 2.1.1.9        : 
OTHER_5            .         Мнемоники версия 3.2 S        : 
OTHER_6            .         Прибор_ СРК-73Ц-1N            : 
OTHER_7            .         Номер прибора_ 906            : 
OTHER_8            .         Режим_ с локатором            : 
OTHER_9            .         Форма_ 623-1                  : 
PROJECT_UPGRADE_TIME .         2021-03-18T21_24_49           : 
TLFamily_DEPT      .         Measured Depth                : 
TLFamily_GK        .         Gamma Ray                     : 
TLFamily_GK$       .                                       : 
TLFamily_LM        .         Casing Collar locator         : 
TLFamily_METKA     .                                       : 
TLFamily_NKT1      .         Neutron Far                   : 
TLFamily_NKT1$     .         Neutron Far                   : 
TLFamily_NKT2      .         Neutron Near                  : 
TLFamily_NKT2$     .         Neutron Near                  : 
TLFamily_RCOR      .                                       : 
TLFamily_SPID      .         Spontaneous Potential         : 
TLFamily_TENS      .         Cable Tension                 : 
TLFamily_TIME      .         Time                          : 
TLFamily_WSAT      .         Neutron Porosity              : 
group              .         prim                          : 
~Curve Information
#_______________________________________________________________________________
#
#LOGNAME           .UNIT     LOG_ID                        : DESCRIPTION
#_______________________________________________________________________________
DEPT               .M                                      : 1 Глубина, м -    0.0 см 
GK                 .MKR/H                                  : 11 Гамма-активность, мкр./ч -   97.0 см 
GK$                .IMP                                    : 9 Гамма-активность, имп/мин -   97.0 см 
LM                 .                                       : 10 Локатор муфт,  -   27.0 см 
METKA              .                                       : 3 Метки,  -    0.0 см 
NKT1               .PRIV                                   : 14 Большой зонд приведенный,  -  278.0 см 
NKT1$              .IMP                                    : 8 Большой зонд, имп/мин -  278.0 см 
NKT2               .PRIV                                   : 13 Малый зонд приведенный,  -  289.0 см 
NKT2$              .IMP                                    : 7 Малый зонд, имп/мин -  289.0 см 
RCOR               .CM/KM                                  : 5 Коррекция по ролику, см/км -    0.0 см 
SPID               .M/H                                    : 2 Скорость, м/час -    0.0 см 
TENS               .T                                      : 6 Натяжение кабеля, т -    0.0 см 
TIME               .S                                      : 4 Время, сек -    0.0 см 
WSAT               .PERC                                   : 12 Водонасыщенная пористость, % -  284.0 см 
~Ascii
# ...
2739.6     7.77       3700       57         0          1.61       2788.54    0.94       31640.83   -419       -322       0          12696.56   36.49     
2739.8     8.04       3828       42         0          1.57       2719.07    0.95       32034.57   -419       -380       0          12694.52   40.06     
2740       7.96       3791       28         1          1.56       2692.64    0.96       32417.49   -419       -380       0          12692.62   41.07     
2740.2     8.25       3928       68         0          1.61       2789.01    0.98       32940.01   -417       -348       0          12690.52   40.35     
2740.4     8.29       3945       56         0          1.62       2799.81    0.97       32686.11   -417       -324       0          12688.52   38.12     
2740.6     8.47       4031       23         0          1.71       2951.91    0.97       32807.49   -417       -356       0          12686.56   38.28     
2740.8     7.96       3787       55         0          1.79       3106.87    0.98       33004.39   -417       -324       0          12684.61   37.83     
2741       7.85       3734       50         0          1.77       3067.13    0.97       32780.47   -417       -380       0          12682.61   37.48     
2741.2     7.7        3663       33         0          1.8        3113.57    0.98       33105.07   -417       -370       0          12680.55   35.64     
2741.4     8.26       3933       51         0          1.76       3044.7     0.99       33486.22   -417       -378       0          12678.55   35.2      
2741.6     7.59       3611       56         0          1.77       3065.52    0.98       32990.72   -417       -380       0          12676.6    34.1      
2741.8     7.57       3605       31         0          1.77       3059.59    0.99       33391.24   -417       -380       0          12674.7    39.11     
2742       8          3808       47         0          1.79       3090.52    0.98       33041.48   -417       -326       0          12672.79   39.87     
2742.2     7.74       3685       66         0          1.8        3110.29    0.98       32990.37   -417       -380       0          12670.79   39.43     
2742.4     7.51       3576       46         0          1.82       3145.79    1          33647.73   -417       -380       0          12668.84   36.51     
2742.6     7.3        3475       80         0          1.94       3358.86    1.01       33927.34   -417       -380       0          12666.83   33.95     
2742.8     7.15       3402       55         0          1.93       3342.39    1.02       34246      -417       -380       0          12664.87   33.86     
2743       7.33       3490       30         0          1.83       3169.29    0.99       33383.51   -417       -380       0          12662.92   35.34     
2743.2     7.58       3610       49         0          1.74       3017.52    0.98       32985.65   -417       -380       0          12660.97   36.84     
2743.4     7.91       3763       55         0          1.6        2772.32    0.98       33045.59   -417       -321       0          12659.01   36.4      
2743.6     7.99       3802       45         0          1.83       3160.75    0.98       33143.32   -417       -337       0          12656.96   36.99     
2743.8     8.17       3889       30         0          1.73       2989.32    0.98       33037.93   -417       -380       0          12654.96   34.81     
2744       8.5        4046       48         0          1.66       2873.97    0.98       33055.09   -417       -380       0          12653.08   38.63     
2744.2     8.24       3921       23         0          1.79       3105.57    0.99       33240.8    -417       -380       0          12651.05   39.01     
2744.4     8.1        3855       23         0          1.71       2965.72    0.98       33199.34   -417       -343       0          12649.1    38.55     
2744.6     8.46       4029       76         0          1.79       3090.15    0.97       32825.93   -417       -380       0          12647.09   36.89     
2744.8     8.81       4193       25         0          1.83       3168.1     1          33701.3    -417       -332       0          12645.24   34.51     
2745       7.56       3601       62         0          1.74       3013.52    0.99       33432.28   -417       -321       0          12643.24   33.07     
2745.2     7.29       3468       23         0          1.79       3097.42    0.99       33361.16   -417       -343       0          12641.24   38.26     
2745.4     7.33       3490       43         0          1.77       3059.76    0.99       33532.83   -417       -377       0          12639.23   39.54     
2745.6     7.51       3577       71         0          1.63       2819.89    1          33598.08   -417       -351       0          12637.28   41.14     
2745.8     7.11       3383       44         0          1.65       2854.79    1          33683.98   -417       -373       0          12635.23   40.49     
2746       7.3        3477       31         0          1.81       3128.34    0.99       33263.77   -417       -380       0          12633.28   37.7      
2746.2     7.1        3379       74         0          1.69       2929.87    0.98       33029.43   -417       -323       0          12631.36   40.94     
2746.4     7.38       3512       23         0          1.68       2904.54    0.97       32536.76   -417       -359       0          12629.41   43.75     
2746.6     7.15       3401       72         0          1.76       3051.51    0.95       32156.52   -417       -380       0          12627.41   36.95     
2746.8     7.39       3519       35         0          1.76       3040.13    0.95       32013.01   -417       -352       0          12625.5    37.26     
2747       7.35       3497       9          0          1.82       3144.58    0.96       32253.03   -417       -380       0          12623.5    33.2      
2747.2     7.59       3613       27         0          1.98       3425.23    0.98       32950.52   -417       -380       0          12621.55   35.08     
2747.4     6.79       3232       37         0          2.03       3511.5     1          33632.01   -417       -380       0          12619.55   33.96     
2747.6     6.32       3009       23         0          2          3454.52    1.01       34167.21   -417       -380       0          12617.59   37.28     
2747.8     5.91       2815       43         0          2.15       3730.12    1.03       34580.28   -417       -380       0          12615.64   33.46     
2748       5.96       2836       35         0          1.91       3310.95    1          33710.09   -417       -355       0          12613.74   35.73     
2748.2     6.32       3010       19         0          1.68       2915.25    0.94       31768.37   -417       -380       0          12611.63   39        
2748.4     6.46       3075       21         0          1.67       2897.21    0.93       31410.25   -417       -379       0          12609.68   40.67     
2748.6     6.32       3010       1993       0          1.49       2578.99    0.94       31738.34   -417       -380       0          12607.68   38.75     
2748.8     7.07       3367       485        0          1.56       2706.61    0.91       30772.68   -417       -379       0          12605.73   36.98     
2749       7.68       3657       7          0          1.63       2828.78    0.98       33170.92   -417       -380       0          12603.82   42.72     
2749.2     7.8        3711       13         0          1.68       2913.51    0.97       32719.87   -417       -380       0          12601.82   39.82     
2749.4     8.37       3983       10         0          1.66       2872.51    0.94       31789.01   -417       -380       0          12599.96   37.66     
2749.6     8.09       3851       30         0          1.72       2973.2     0.94       31682.36   -417       -379       0          12597.9    36.13     
2749.8     7.54       3588       54         0          1.66       2873.06    0.94       31569      -417       -365       0          12595.9    36.63     
