~Version
 VERS              .         2.0                           : CWLS LOG ASCII STANDARD - VERSION 2.0
 WRAP              .         NO                            : ONE LINE PER DEPTH STEP
 DLM               .         SPACE                         : DELIMITING CHARACTER(SPACE TAB OR COMMA)
~Well Information
#_______________________________________________________________________________
#
#PARAMETER_NAME    .UNIT     VALUE                         : DESCRIPTION
#_______________________________________________________________________________
STRT               .M        2648.8                        : First reference value
STOP               .M        2754.8                        : Last reference value
STEP               .M        0.2                           : Step increment
NULL               .         -9999                         : Missing value
COMP               .                                       : Company
WELL               .         616                           : Well name
FLD                .                                       : Field
LOC                .                                       : Location
CNTY               .                                       : County
STAT               .                                       : State
CTRY               .                                       : Country
SRVC               .                                       : Service Company
DATE               .                                       : Date
API                .                                       : API number
PROJECT_UPGRADE_TIME .         2021-03-18T21_24_50           : 
group              .         Good                          : 
~Parameter Information Block
#_______________________________________________________________________________
#
#PARAMETER_NAME    .UNIT     VALUE                         : DESCRIPTION
#_______________________________________________________________________________
SET                .         D7019_D                       : 
OTHER              .         Kedr.exe версия 2.1.2.32      : 
OTHER_10           .         TM.GRD = 0.00404*TM$.UE + 0.07: 
OTHER_11           .         MN.ATM = (6.33279e-006*TM.GRD + 0.02401)*(MN$.UE + 2.72*TM.GRD + -2018): 
OTHER_12           .         GK.MKR/H = GK$.UE / 43.5489 + 0: 
OTHER_13           .         RES.SM = 0.00476*CRES.UE - 1.51709: 
OTHER_14           .         PL.GSM3 = 0 + 0 * (PL.UE / 1) +  0 * (PL.UE / 1)^2: 
OTHER_15           .         Постоянная времени ГГП = 6 сек: 
OTHER_16           .         Постоянная времени ГК = 6 сек : 
OTHER_2            .         KedrData.dll версия 3.2.2.14  : 
OTHER_3            .         LasInf.dll версия 3.2.0.13    : 
OTHER_4            .         Драйвер версия 1.2.0.5        : 
OTHER_5            .         Прибор_ КСА-M1                : 
OTHER_6            .         Номер прибора_ 155+р204       : 
OTHER_7            .         Режим_ КСА-М1 + ГГП + Резистивиметр: 
OTHER_8            .         Форма_ 223\2                  : 
OTHER_9            .         Тарировки_                    : 
PROJECT_UPGRADE_TIME .         2021-03-18T21_24_50           : 
TLFamily_CRES      .                                       : 
TLFamily_DEPT      .         Measured Depth                : 
TLFamily_GK        .         Gamma Ray                     : 
TLFamily_GK$       .                                       : 
TLFamily_LM        .         Casing Collar locator         : 
TLFamily_METKA     .                                       : 
TLFamily_MN        .                                       : 
TLFamily_MN$       .                                       : 
TLFamily_PL        .                                       : 
TLFamily_PL_2      .                                       : 
TLFamily_RCOR      .                                       : 
TLFamily_RES       .         Mud Resistivity               : 
TLFamily_SPID      .         Spontaneous Potential         : 
TLFamily_STD       .                                       : 
TLFamily_TIME      .         Time                          : 
TLFamily_TM        .         Temperature                   : 
TLFamily_TM$       .         Temperature                   : 
TLFamily_VGD       .         Gas Volume                    : 
group              .         prim                          : 
~Curve Information
#_______________________________________________________________________________
#
#LOGNAME           .UNIT     LOG_ID                        : DESCRIPTION
#_______________________________________________________________________________
DEPT               .M                                      : 1 Глубина, м -    0.0 см 
CRES               .UE                                     : 9 Проводимость, усл.ед. -  222.0 см 
GK                 .MKR/H                                  : 16 Гамма-активность, мкр./ч -  106.0 см 
GK$                .UE                                     : 13 Гамма-активность, усл.ед. -  106.0 см 
LM                 .                                       : 11 Локатор муфт,  -   16.0 см 
METKA              .                                       : 3 Метки,  -    0.0 см 
MN                 .ATM                                    : 15 Давление, атм. -  160.0 см 
MN$                .UE                                     : 7 Давление, усл.ед. -  160.0 см 
PL                 .UE                                     : 10 Плотность, усл.ед. -  270.0 см 
PL_2               .GSM3                                   : 18 Плотность, г./см3 -  270.0 см 
RCOR               .CM/KM                                  : 5 Коррекция по ролику, см/км -    0.0 см 
RES                .SM                                     : 17 Проводимость,  -  222.0 см 
SPID               .M/H                                    : 2 Скорость, м/час -    0.0 см 
STD                .                                       : 12 Приток,  -  170.0 см 
TIME               .S                                      : 4 Время, сек -    0.0 см 
TM                 .GRD                                    : 14 Температура, °C -  180.0 см 
TM$                .UE                                     : 6 Температура, усл.ед. -  180.0 см 
VGD                .                                       : 8 Влагомер,  -  170.0 см 
~Ascii
# ...
2689.8     1223       7.41       314        49         0          247.063    12055      15         0          0          4.3044     524        9177       10535.1    46.855     11580      6647      
2690       1222       7.31       314        31         0          247.101    12057      13         0          0          4.2996     557        9171       10536.46   46.841     11577      6655      
2690.2     1223       7.53       343        22         1          247.121    12058      14         0          0          4.3057     580        9166       10538.37   46.825     11573      6647      
2690.4     1223       7.7        343        3173       0          247.149    12059      13         0          0          4.3028     580        9162       10539.69   46.808     11569      6662      
2690.6     1222       7.93       357        798        0          247.175    12060      12         0          0          4.2996     510        9158       10540.94   46.787     11563      6662      
2690.8     1223       8.1        364        219        0          247.197    12061      13         0          0          4.3044     580        9156       10542.25   46.772     11560      6664      
2691       1222       8.45       383        69         0          247.169    12060      13         0          0          4.2996     580        9153       10543.53   46.75      11555      6659      
2691.2     1223       8.73       393        71         0          247.191    12061      14         0          0          4.3036     510        9149       10544.83   46.723     11548      6661      
2691.4     1221       8.88       393        61         0          247.238    12063      14         0          0          4.2949     510        9147       10546.13   46.708     11544      6660      
2691.6     1222       9.16       419        75         0          247.253    12064      14         0          0          4.2996     580        9143       10547.44   46.695     11541      6656      
2691.8     1219       9.39       419        71         0          247.272    12065      14         0          0          4.2853     580        9141       10548.73   46.685     11538      6657      
2692       1219       9.65       434        59         0          247.287    12065      14         0          0          4.2847     580        9142       10549.99   46.679     11537      6664      
2692.2     1219       9.81       434        78         0          247.306    12066      14         0          0          4.2853     580        9141       10551.31   46.667     11534      6667      
2692.4     1218       9.9        436        99         0          247.346    12068      13         0          0          4.2814     510        9139       10552.63   46.659     11532      6665      
2692.6     1220       9.96       436        4773       0          247.366    12069      13         0          0          4.2901     521        9139       10553.89   46.653     11530      6648      
2692.8     1219       9.36       373        1899       0          247.396    12070      13         0          0          4.2867     580        9140       10555.21   46.641     11527      6660      
2693       1219       8.97       373        1200       0          247.398    12070      13         0          0          4.2853     580        9137       10556.49   46.628     11524      6663      
2693.2     1219       8.85       380        379        0          247.409    12070      13         0          0          4.2853     580        9136       10557.77   46.619     11522      6668      
2693.4     1220       8.79       380        138        0          247.443    12072      13         0          0          4.2881     580        9135       10559.08   46.609     11519      6669      
2693.6     1220       9.54       457        62         0          247.466    12073      13         0          0          4.2901     510        9135       10560.39   46.593     11516      6663      
2693.8     1220       10.02      456        53         0          247.472    12073      13         0          0          4.2893     580        9134       10561.64   46.578     11512      6666      
2694       1219       10.22      454        185        0          247.487    12074      14         0          0          4.2853     568        9130       10562.94   46.564     11508      6666      
2694.2     1218       10.17      420        213        0          247.489    12074      14         0          0          4.279      510        9132       10564.26   46.552     11505      6662      
2694.4     1218       9.75       406        2817       0          247.537    12076      14         0          0          4.2806     580        9129       10565.58   46.538     11502      6658      
2694.6     1217       9.54       406        1211       0          247.553    12077      13         0          0          4.2774     521        9128       10566.89   46.533     11501      6664      
2694.8     1217       9.42       405        213        0          247.57     12078      13         0          0          4.2782     580        9122       10568.14   46.526     11499      6666      
2695       1215       9.47       430        82         0          247.552    12077      13         0          0          4.2671     580        9116       10569.45   46.507     11494      6663      
2695.2     1216       9.73       435        68         0          247.6      12079      14         0          0          4.2717     580        9109       10570.77   46.494     11491      6661      
2695.4     1216       10.06      468        90         0          247.622    12080      14         0          0          4.2711     580        9104       10572.08   46.491     11490      6666      
2695.6     1217       10.4       468        186        0          247.666    12082      14         0          0          4.2743     510        9099       10573.39   46.475     11486      6661      
2695.8     1216       10.69      495        98         0          247.67     12082      13         0          0          4.2711     552        9096       10574.67   46.47      11485      6642      
2696       1215       11.03      495        885        0          247.692    12083      14         0          0          4.2671     580        9090       10575.94   46.465     11484      6648      
2696.2     1216       11.02      468        397        0          247.734    12085      14         0          0          4.2711     510        9087       10577.26   46.453     11481      6650      
2696.4     1215       10.88      468        119        0          247.737    12085      14         0          0          4.2663     545        9084       10578.57   46.434     11476      6648      
2696.6     1216       10.59      442        61         0          247.758    12086      14         0          0          4.2711     580        9083       10579.89   46.421     11473      6651      
2696.8     1217       10.37      442        34         0          247.764    12086      14         0          0          4.2758     510        9080       10581.2    46.398     11467      6646      
2697       1215       10.41      462        34         0          247.803    12088      14         0          0          4.2679     580        9076       10582.45   46.381     11463      6641      
2697.2     1217       10.51      462        2820       0          247.803    12088      15         0          0          4.2758     557        9075       10583.76   46.372     11461      6640      
2697.4     1217       10.49      455        1101       0          247.831    12089      14         0          0          4.2774     510        9076       10585.08   46.37      11460      6641      
2697.6     1217       10.47      455        207        0          247.824    12089      14         0          0          4.2758     534        9073       10586.4    46.359     11458      6647      
2697.8     1216       10.69      485        113        0          247.847    12090      15         0          0          4.2711     580        9072       10587.7    46.342     11453      6647      
