~Version
 VERS              .         2.0                           : CWLS LOG ASCII STANDARD - VERSION 2.0
 WRAP              .         NO                            : ONE LINE PER DEPTH STEP
 DLM               .         SPACE                         : DELIMITING CHARACTER(SPACE TAB OR COMMA)
~Well Information
#_______________________________________________________________________________
#
#PARAMETER_NAME    .UNIT     VALUE                         : DESCRIPTION
#_______________________________________________________________________________
STRT               .M        11                            : First reference value
STOP               .M        2775.8                        : Last reference value
STEP               .M        0.2                           : Step increment
NULL               .         -9999                         : Missing value
COMP               .                                       : Company
WELL               .         616                           : Well name
FLD                .                                       : Field
LOC                .                                       : Location
CNTY               .                                       : County
STAT               .                                       : State
CTRY               .                                       : Country
SRVC               .                                       : Service Company
DATE               .                                       : Date
API                .                                       : API number
PROJECT_UPGRADE_TIME .         2021-03-18T21_24_50           : 
group              .         Good                          : 
~Parameter Information Block
#_______________________________________________________________________________
#
#PARAMETER_NAME    .UNIT     VALUE                         : DESCRIPTION
#_______________________________________________________________________________
SET                .         D1813_D                       : 
OTHER              .         Программное обеспечение станции MONITOR-386EX 25/12/99 15_08_10   BGF V52 22/08/01 16_56_30   3.1_SNGF___BGF_N_092049: 
OTHER_10           .         Тарировки_                    : 
OTHER_11           .         TM.GRD = 0.00403*TM$.UE + -1.07: 
OTHER_12           .         MN.ATM = (9.34907e-006*TM.GRD + 0.02171)*(MN$.UE + -7.93*TM.GRD + -1787): 
OTHER_13           .         GK.MKR/H = LM. / 42.4676      : 
OTHER_14           .         GK.FLT = 0.1*GK.MKR/H[-1] + (1-0.1)*GK.MKR/H[0]: 
OTHER_2            .         Kedr.exe версия 3.4.2.51      : 
OTHER_3            .         KedrData.dll версия 3.4.2.24  : 
OTHER_4            .         Драйвер версия 2.1.1.3        : 
OTHER_5            .         Мнемоники версия 3.3 S        : 
OTHER_6            .         Прибор_ КСА-Т4                : 
OTHER_7            .         Номер прибора_ 03             : 
OTHER_8            .         Режим_ КСА-Т4                 : 
OTHER_9            .         Форма_ КВА.                   : 
PROJECT_UPGRADE_TIME .         2021-03-18T21_24_49           : 
TLFamily_DEPT      .         Measured Depth                : 
TLFamily_GK        .         Gamma Ray                     : 
TLFamily_GK$       .                                       : 
TLFamily_GK_2      .         Gamma Ray                     : 
TLFamily_LM        .         Casing Collar locator         : 
TLFamily_METKA     .                                       : 
TLFamily_MN        .                                       : 
TLFamily_MN$       .                                       : 
TLFamily_RCOR      .                                       : 
TLFamily_SPID      .         Spontaneous Potential         : 
TLFamily_TENS      .         Cable Tension                 : 
TLFamily_TIME      .         Time                          : 
TLFamily_TM        .         Temperature                   : 
TLFamily_TM$       .         Temperature                   : 
group              .         prim                          : 
~Curve Information
#_______________________________________________________________________________
#
#LOGNAME           .UNIT     LOG_ID                        : DESCRIPTION
#_______________________________________________________________________________
DEPT               .M                                      : 1 Глубина, м -    0.0 см 
GK                 .MKR/H                                  : 13 Гамма-активность, мкр./ч -  110.0 см 
GK$                .UE                                     : 10 Гамма-активность, усл.ед. -  110.0 см 
GK_2               .FLT                                    : 14 Гамма-активность фильтрованная, мкр./ч -  110.0 см 
LM                 .                                       : 9 Локатор муфт,  -   20.0 см 
METKA              .                                       : 3 Метки,  -    0.0 см 
MN                 .ATM                                    : 12 Давление, атм. -  160.0 см 
MN$                .UE                                     : 8 Давление, усл.ед. -  160.0 см 
RCOR               .CM/KM                                  : 5 Коррекция по ролику, см/км -    0.0 см 
SPID               .M/H                                    : 2 Скорость, м/час -    0.0 см 
TENS               .T                                      : 6 Натяжение кабеля, т -    0.0 см 
TIME               .S                                      : 4 Время, сек -    0.0 см 
TM                 .GRD                                    : 11 Температура, °C -  170.0 см 
TM$                .UE                                     : 7 Температура, усл.ед. -  170.0 см 
~Ascii
# ...
2767       8.55       363        8.55       457        0          254.354    13693      -600       -1960      0.21       7798.63    62.943     15884     
2767.2     8.55       363        8.55       595        0          254.387    13695      -600       -1945      0.21       7798.28    62.996     15897     
2767.4     8.55       363        8.55       536        0          254.39     13695      -600       -1930      0.21       7797.94    63.055     15912     
2767.6     8.55       363        8.56       559        0          254.416    13696      -600       -1917      0.21       7797.57    63.12      15928     
2767.8     8.55       363        8.57       474        0          254.439    13698      -600       -1904      0.21       7797.25    63.188     15945     
2768       8.55       363        8.61       635        0          254.455    13699      -600       -1890      0.21       7796.91    63.263     15964     
2768.2     8.71       370        8.72       545        0          254.47     13700      -600       -1880      0.21       7796.54    63.333     15981     
2768.4     8.74       371        8.74       565        0          254.486    13700      -600       -1863      0.21       7796.18    63.414     16001     
2768.6     8.74       371        8.74       704        0          254.493    13701      -600       -1843      0.21       7795.82    63.487     16019     
2768.8     8.74       371        8.75       921        0          254.495    13701      -600       -1823      0.21       7795.49    63.56      16037     
2769       8.74       371        8.77       1080       0          254.51     13702      -600       -1798      0.21       7795.12    63.631     16055     
2769.2     8.74       371        8.82       1543       0          254.53     13703      -600       -1773      0.21       7794.77    63.711     16075     
2769.4     8.87       377        8.95       1543       0          254.561    13705      -600       -1746      0.21       7794.45    63.786     16093     
2769.6     9.09       386        9.09       2422       0          254.556    13705      -600       -1716      0.2        7794.1     63.857     16111     
2769.8     9.09       386        9.09       644        0          254.571    13706      -600       -1680      0.18       7793.72    63.934     16130     
2770       9.09       386        9.09       751        2          254.567    13706      -600       -1646      0.18       7793.41    64.016     16150     
2770.2     9.09       386        9.08       676        0          254.579    13707      -600       -1617      0.2        7793.17    64.099     16171     
2770.4     9.09       386        9.07       543        0          254.578    13707      -600       -1579      0.21       7792.86    64.178     16191     
2770.6     9.09       386        9.04       463        0          254.602    13708      -600       -1530      0.21       7792.51    64.253     16209     
2770.8     9.09       386        8.96       659        0          254.612    13709      -600       -1476      0.21       7792.16    64.335     16229     
2771       8.78       373        8.74       659        0          254.627    13710      -600       -1423      0.21       7791.8     64.401     16246     
2771.2     8.69       369        8.68       749        0          254.655    13711      -600       -1370      0.21       7791.44    64.468     16263     
2771.4     8.69       369        8.68       561        0          254.665    13712      -600       -1312      0.2        7791.1     64.54      16280     
2771.6     8.69       369        8.67       316        0          254.665    13712      -600       -1246      0.19       7790.73    64.6       16295     
2771.8     8.69       369        8.63       463        0          254.676    13713      -600       -1186      0.19       7790.36    64.644     16306     
2772       8.69       369        8.55       703        0          254.678    13713      -600       -1118      0.2        7789.95    64.685     16316     
2772.2     8.69       369        8.32       738        0          254.686    13714      -600       -1044      0.21       7789.53    64.731     16328     
2772.4     7.82       332        7.75       293        0          254.704    13714      -600       -967       0.21       7789.11    64.787     16342     
2772.6     7.63       324        7.63       194        0          254.729    13716      -600       -879       0.21       7788.69    64.832     16353     
2772.8     7.63       324        7.63       219        0          254.76     13717      -600       -778       0.21       7788.24    64.895     16368     
2773       7.63       324        7.62       196        0          254.777    13718      -600       -669       0.19       7787.82    64.947     16381     
2773.2     7.63       324        7.61       79         0          254.789    13719      -600       -549       0.19       7787.38    65         16395     
2773.4     7.63       324        7.58       40         0          254.783    13719      -600       -452       0.21       7786.91    65.071     16412     
2773.6     7.59       322        7.47       37         0          254.782    13719      -600       -328       0.21       7786.33    65.163     16435     
2773.8     7.28       309        7.28       35         0          254.799    13720      -600       -222       0.19       7785.64    65.287     16466     
2774       7.28       309        7.28       36         0          254.815    13722      -600       -88        0.14       7784.67    65.399     16494     
2774.2     7.28       309        7.28       37         0          254.834    13723      -9999      -9999      -9999      -9999      65.514     16522     
2774.4     7.28       309        7.28       38         -9999      254.838    13723      -9999      -9999      -9999      -9999      65.587     16540     
2774.6     7.28       309        7.28       -9999      -9999      254.837    13723      -9999      -9999      -9999      -9999      65.605     16545     
2774.8     7.31       311        7.32       -9999      -9999      254.837    13723      -9999      -9999      -9999      -9999      65.61      16546     
2775       7.32       311        7.32       -9999      -9999      254.829    13723      -9999      -9999      -9999      -9999      65.61      16546     
2775.2     7.32       311        7.18       -9999      -9999      254.835    13723      -9999      -9999      -9999      -9999      65.611     16546     
2775.4     -9999      -9999      -9999      -9999      -9999      254.853    13724      -9999      -9999      -9999      -9999      65.614     16547     
2775.6     -9999      -9999      -9999      -9999      -9999      254.837    13723      -9999      -9999      -9999      -9999      65.614     16547     
2775.8     -9999      -9999      -9999      -9999      -9999      -9999      -9999      -9999      -9999      -9999      -9999      65.618     16548     
