~Version
 VERS              .         2.0                           : CWLS LOG ASCII STANDARD - VERSION 2.0
 WRAP              .         NO                            : ONE LINE PER DEPTH STEP
 DLM               .         SPACE                         : DELIMITING CHARACTER(SPACE TAB OR COMMA)
~Well Information
#_______________________________________________________________________________
#
#PARAMETER_NAME    .UNIT     VALUE                         : DESCRIPTION
#_______________________________________________________________________________
STRT               .M        2696.8                        : First reference value
STOP               .M        2752.2                        : Last reference value
STEP               .M        0.1999996                     : Step increment
NULL               .         -9999                         : Missing value
COMP               .                                       : Company
WELL               .         616                           : Well name
FLD                .                                       : Field
LOC                .                                       : Location
CNTY               .                                       : County
STAT               .                                       : State
CTRY               .                                       : Country
SRVC               .                                       : Service Company
DATE               .                                       : Date
API                .                                       : API number
PROJECT_UPGRADE_TIME .         2021-03-18T21_24_50           : 
group              .         Good                          : 
~Parameter Information Block
#_______________________________________________________________________________
#
#PARAMETER_NAME    .UNIT     VALUE                         : DESCRIPTION
#_______________________________________________________________________________
SET                .         D1808_D                       : 
OTHER              .         Программное обеспечение станции MONITOR-386EX 25/12/99 15_08_10   BGF V52 22/08/01 16_56_30   3.1_SNGF___BGF_N_092049: 
OTHER_10           .         Тарировки_                    : 
OTHER_11           .         RGD.M3/SUT = 0.822396 * RGD.UE + 26.7014: 
OTHER_2            .         Kedr.exe версия 3.4.2.51      : 
OTHER_3            .         KedrData.dll версия 3.4.2.24  : 
OTHER_4            .         Драйвер версия 2.1.0.2        : 
OTHER_5            .         Мнемоники версия 3.3 S        : 
OTHER_6            .         Прибор_ Гранат                : 
OTHER_7            .         Номер прибора_ 1229           : 
OTHER_8            .         Режим_ КСА_Гранат             : 
OTHER_9            .         Форма_ КВА                    : 
PROJECT_UPGRADE_TIME .         2021-03-18T21_24_49           : 
TLFamily_DEPT      .         Measured Depth                : 
TLFamily_METKA     .                                       : 
TLFamily_RCOR      .                                       : 
TLFamily_RGD       .                                       : 
TLFamily_RGD_2     .                                       : 
TLFamily_SPID      .         Spontaneous Potential         : 
TLFamily_TENS      .         Cable Tension                 : 
TLFamily_TIME      .         Time                          : 
group              .         prim                          : 
~Curve Information
#_______________________________________________________________________________
#
#LOGNAME           .UNIT     LOG_ID                        : DESCRIPTION
#_______________________________________________________________________________
DEPT               .M                                      : 1 Глубина, м -    0.0 см 
METKA              .                                       : 3 Метки,  -    0.0 см 
RCOR               .CM/KM                                  : 5 Коррекция по ролику, см/км -    0.0 см 
RGD                .UE                                     : 7 Расход, имп/мин -  232.0 см 
RGD_2              .M3/SUT                                 : 8 Расход, м3/сут -  232.0 см 
SPID               .M/H                                    : 2 Скорость, м/час -    0.0 см 
TENS               .T                                      : 6 Натяжение кабеля, т -    0.0 см 
TIME               .S                                      : 4 Время, сек -    0.0 см 
~Ascii
2696.8000488 -9999      -9999      -9999      -9999      -9999      -9999      -9999     
2697       -9999      -637       -9999      -9999      -208       0.17       5508.06   
2697.2     0          -637       -9999      -9999      -201       0.19       5504.47   
2697.4     0          -637       -9999      -9999      -221       0.19       5500.78   
2697.6     0          -637       -9999      -9999      -195       0.17       5497.19   
2697.8     0          -637       -9999      -9999      -199       0.19       5493.69   
2698       0          -637       -9999      -9999      -196       0.19       5490.2    
2698.2     0          -637       -9999      -9999      -205       0.19       5486.7    
2698.4     0          -637       -9999      -9999      -209       0.19       5483.22   
2698.6     0          -637       -9999      -9999      -206       0.19       5479.72   
2698.8     0          -637       -9999      -9999      -195       0.19       5476.22   
2699       0          -637       -9999      -9999      -203       0.19       5472.53   
2699.2     0          -637       -9999      -9999      -216       0.19       5469.03   
2699.4     0          -637       394        351.03     -210       0.19       5465.55   
2699.6     0          -637       388        346.07     -212       0.19       5461.95   
2699.8     0          -637       392        349.18     -204       0.19       5458.45   
2700       2          -631       409        363.14     -218       0.19       5453.97   
2700.2     0          -631       400        355.28     -192       0.19       5450.47   
2700.4     0          -631       418        370.6      -199       0.19       5446.67   
2700.6     0          -631       416        368.92     -206       0.19       5443.17   
2700.8     0          -631       406        360.36     -216       0.21       5439.69   
2701       0          -631       409        363.34     -195       0.19       5436.19   
2701.2     0          -631       397        352.99     -198       0.17       5432.7    
2701.4     0          -631       397        352.95     -210       0.17       5429.2    
2701.6     0          -631       402        357.65     -216       0.19       5425.7    
2701.8     0          -631       397        352.83     -189       0.19       5422.22   
2702       0          -631       400        355.5      -193       0.19       5418.52   
2702.2     0          -631       398        354.41     -197       0.19       5415.03   
2702.4     0          -631       396        352.05     -200       0.19       5411.53   
2702.6     0          -631       401        356.47     -202       0.17       5407.94   
2702.8     0          -631       406        360.61     -194       0.19       5404.44   
2703       0          -631       401        356.72     -197       0.19       5400.95   
2703.2     0          -631       420        372.06     -195       0.19       5397.45   
2703.4     0          -631       414        367.49     -196       0.19       5393.97   
2703.6     0          -631       413        366.74     -214       0.19       5390.17   
2703.8     0          -631       404        358.69     -206       0.19       5386.67   
2704       0          -631       398        353.91     -216       0.19       5383.19   
2704.2     0          -631       392        349.04     -194       0.19       5379.69   
2704.4     0          -631       403        357.77     -200       0.17       5376.09   
2704.6     0          -631       397        352.86     -204       0.17       5372.59   
2704.8     0          -631       399        354.54     -203       0.19       5369.11   
2705       0          -631       406        360.32     -212       0.19       5365.61   
2705.2     0          -631       400        355.99     -183       0.19       5361.92   
2705.4     0          -631       422        374.05     -211       0.19       5358.42   
2705.6     0          -631       399        354.91     -194       0.19       5354.92   
2705.8     0          -631       403        358.3      -209       0.19       5351.44   
2706       0          -631       408        362.54     -208       0.19       5347.94   
2706.2     0          -631       403        358.09     -211       0.21       5344.45   
2706.4     0          -631       396        352.49     -215       0.19       5340.84   
2706.6     0          -631       394        350.79     -184       0.19       5337.25   
2706.8     0          -631       393        349.79     -193       0.19       5333.56   
2707       0          -631       401        356.08     -196       0.19       5330.06   
2707.2     0          -631       411        364.45     -205       0.19       5326.47   
2707.4     0          -631       420        372.26     -207       0.19       5322.98   
2707.6     0          -631       432        381.81     -206       0.19       5319.48   
2707.8     0          -631       440        388.21     -216       0.19       5316      
2708       0          -631       436        384.9      -206       0.19       5312.41   
2708.2     0          -631       442        389.93     -185       0.19       5308.91   
2708.4     0          -631       434        383.28     -215       0.19       5305.22   
2708.6     1          -631       428        378.63     -205       0.09       5301.72   
2708.8     0          -631       431        381.21     -224       0.19       5298.22   
2709       0          -631       422        373.51     -183       0.19       5294.73   
2709.2     0          -631       418        370.65     -211       0.19       5291.23   
2709.4     0          -631       429        379.43     -194       0.19       5287.73   
2709.6     0          -631       436        385.38     -199       0.19       5284.14   
2709.8     0          -631       438        387.32     -186       0.19       5280.66   
2710       2          -631       443        390.86     -207       0.19       5277.01   
2710.2     0          -622       434        383.85     -201       0.19       5271.88   
2710.4     0          -622       436        385.58     -213       0.19       5268.38   
2710.6     0          -622       439        387.6      -211       0.19       5264.88   
2710.8     0          -622       440        388.73     -215       0.19       5261.39   
2711       0          -622       433        382.49     -184       0.19       5257.8    
2711.2     0          -622       423        374.75     -211       0.19       5254.3    
2711.4     0          -622       414        367.38     -195       0.19       5250.61   
2711.6     0          -622       428        378.53     -205       0.19       5247.02   
2711.8     0          -622       428        378.84     -194       0.19       5243.52   
2712       0          -622       423        374.51     -203       0.19       5240.02   
2712.2     0          -622       425        376.5      -196       0.19       5236.53   
2712.4     0          -622       413        366.23     -202       0.19       5233.03   
2712.6     1          -622       422        373.88     -200       0.19       5229.44   
2712.8     0          -622       415        367.81     -201       0.19       5225.94   
2713       0          -622       404        358.86     -203       0.19       5222.25   
2713.2     0          -622       408        362.45     -217       0.19       5218.75   
2713.4     0          -622       415        368.24     -193       0.19       5215.27   
2713.6     0          -622       414        366.9      -195       0.19       5211.77   
2713.8     0          -622       426        377.4      -195       0.19       5208.28   
2714       0          -622       430        380.65     -193       0.19       5204.69   
2714.2     0          -622       410        363.53     -195       0.19       5201.19   
2714.4     0          -622       412        365.8      -191       0.19       5197.59   
2714.6     0          -622       410        364.12     -207       0.19       5193.91   
2714.8     0          -622       414        367.35     -203       0.19       5190.31   
