~Version
 VERS              .         2.0                           : CWLS LOG ASCII STANDARD - VERSION 2.0
 WRAP              .         NO                            : ONE LINE PER DEPTH STEP
 DLM               .         SPACE                         : DELIMITING CHARACTER(SPACE TAB OR COMMA)
~Well Information
#_______________________________________________________________________________
#
#PARAMETER_NAME    .UNIT     VALUE                         : DESCRIPTION
#_______________________________________________________________________________
STRT               .M        2700.4                        : First reference value
STOP               .M        2756.200056                   : Last reference value
STEP               .M        0.2000002                     : Step increment
NULL               .         -9999                         : Missing value
COMP               .                                       : Company
WELL               .         616                           : Well name
FLD                .                                       : Field
LOC                .                                       : Location
CNTY               .                                       : County
STAT               .                                       : State
CTRY               .                                       : Country
SRVC               .                                       : Service Company
DATE               .                                       : Date
API                .                                       : API number
PROJECT_UPGRADE_TIME .         2021-03-18T21_24_50           : 
group              .         Good                          : 
~Parameter Information Block
#_______________________________________________________________________________
#
#PARAMETER_NAME    .UNIT     VALUE                         : DESCRIPTION
#_______________________________________________________________________________
SET                .         D4405_D_2                     : 
COMM               .                                       : 
OTHER              .         Запись производится в присутствии: 
OTHER_10           .         Максимальная температура      : 
OTHER_11           .         Тип промывочной жидкости      : 
OTHER_12           .         Сопротивление ПЖ (Ом*м) при 20°C: 
OTHER_13           .         Плотность ПЖ(г/см3)           : 
OTHER_14           .         Вязкость ПЖ(с)                : 
OTHER_15           .         Водоотдача ПЖ(см3/30мин)      : 
OTHER_16           .         Уровень ПЖ                    : 
OTHER_17           .         Нефть ПЖ (%)                  : 
OTHER_18           .         Барит ПЖ (%)                  : 
OTHER_19           .         Гематит ПЖ (%)                : 
OTHER_2            .         Заказчик ННСН  ЦДНГ-1         : 
OTHER_20           .         КМЦ ПЖ (%)                    : 
OTHER_21           .         Разгазирование ПЖ (да,нет)    : 
OTHER_22           .         Подъемник                     : 
OTHER_23           .         Лаборатория                   : 
OTHER_24           .         Тип кабеля                    : 
OTHER_25           .         Длина кабеля (м)              : 
OTHER_26           .         Цена последней метки          : 
OTHER_27           .         Цена контрольной метки        : 
OTHER_28           .         Диаметр долота (мм)           : 
OTHER_29           .         Глубина бурения (м)           : 
OTHER_3            .         Площадь                       : 
OTHER_30           .         Искусственный забой (м)       : 
OTHER_31           .         Диаметр колонны (мм)          : 
OTHER_32           .         Толщина колонны (мм)          : 
OTHER_33           .         Башмак колонны (м)            : 
OTHER_34           .         Диаметр НКТ (мм)              : 
OTHER_35           .         Толщина НКТ (мм)              : 
OTHER_36           .         Воронка НКТ (м)               : 
OTHER_37           .         Дата цементожа                : 
OTHER_38           .         Тип, количество(т) и плотность цемента: 
OTHER_39           .         Интервалы перфорации (м)      : 
OTHER_4            .         Категория                     : 
OTHER_40           .         Направление, диаметр (мм)     : 
OTHER_41           .         Направление, глубина (м)      : 
OTHER_42           .         Кондуктор, диаметр (мм)       : 
OTHER_43           .         Кондуктор, глубина (м)        : 
OTHER_44           .         Техническая колонна, диаметр (мм): 
OTHER_45           .         Техническая колонна, глубина (м): 
OTHER_46           .         Эксплуатационная колонна, диаметр (мм): 
OTHER_47           .         Эксплуатационная колонна, глубина (м): 
OTHER_48           .         Программа Кедр-02 версия 3.4  : 
OTHER_49           .         Операционная система Windows NT 5.1 build 2600 Service Pack 2: 
OTHER_5            .         Назначение исследований       : 
OTHER_50           .         Программное обеспечение станции MONITOR-386EX 25/12/99 15_08_10   BGF V54 20/09/05 15_32_17   3.3__BGF_9030071: 
OTHER_51           .         Kedr.exe версия 3.4.2.74      : 
OTHER_52           .         KedrData.dll версия 3.4.2.29  : 
OTHER_53           .         Мнемоники версия 3.18 S       : 
OTHER_54           .         Драйвер версия 2.1.1.4        : 
OTHER_55           .         LasInf.dll 4.3.0.35           : 
OTHER_56           .         Прибор_ КСА-Т4                : 
OTHER_57           .         Номер прибора_ 160            : 
OTHER_58           .         Режим_ КСА-Т4                 : 
OTHER_59           .         Форма_ С.А.Б.                 : 
OTHER_6            .         Альтитуда стола ротора        : 
OTHER_60           .         Тарировки_                    : 
OTHER_61           .         <_techsia_sc_> Дата тарировки температуры 25.05.2010: 
OTHER_62           .         Ручной ввод коэффициентов     : 
OTHER_63           .         TM.DEGC = 0.00402*RTM.E.ACP + -0.994: 
OTHER_64           .         <_techsia_sc_> Дата тарировки давления 25.05.2010: 
OTHER_65           .         Ручной ввод коэффициентов     : 
OTHER_66           .         MN.ATM = (2.27521e-006*TM.DEGC + 0.02078)*(RMN.E.ACP + 6.2*TM.DEGC + -1688): 
OTHER_67           .         <_techsia_sc_> Дата тарировки ГК 25.05.2010: 
OTHER_68           .         Ручной ввод коэффициентов     : 
OTHER_69           .         GR.UR/H = RGR.IMP/MIN / 45.5144: 
OTHER_7            .         Вид исследований 3  6         : 
OTHER_70           .         GK.FLT = 0.1*GR.UR/H[-1] + (1-0.1)*GR.UR/H[0]: 
OTHER_8            .         Начало бурения интервала каротажа: 
OTHER_9            .         Окончание бурения интервала каротажа: 
PROJECT_UPGRADE_TIME .         2021-03-18T21_24_50           : 
PRTY               .         ПП-601-1                      : N партии
SRVC               .         Барковский                    : Начальник партии
TLFamily_DEPT      .         Measured Depth                : 
TLFamily_GK        .         Russian Gamma Ray             : 
TLFamily_LM        .         Casing Collar locator         : 
group              .         second                        : 
~Curve Information
#_______________________________________________________________________________
#
#LOGNAME           .UNIT     LOG_ID                        : DESCRIPTION
#_______________________________________________________________________________
DEPT               .M                                      : Depth curve 
GK                 .мкР/ч                                  : Естественная гамма-активность,мкР/ч 
LM                 .е.ацп                                  : Локатор муфт,е.ацп 
~Ascii
2700.3999023 -9999      -9999     
2700.6     -9999      -9999     
2700.8     -9999      -9999     
2701.000001 -9999      78        
2701.200001 -9999      65.006    
2701.400001 -9999      84.99     
2701.600001 -9999      83.001    
2701.800001 9.97       79.002    
2702.000002 7.831      360.862   
2702.200002 9.469      2817.8    
2702.400002 9.69       70.342    
2702.600002 9.78       84.992    
2702.800002 9.51       99.993    
2703.000003 9.93       77.011    
2703.200003 9.73       65.006    
2703.400003 8.331      75.995    
2703.600003 8.88       76        
2703.800003 9.909      79.998    
2704.000004 11.139     80        
2704.200004 10.26      67.006    
2704.400004 9.221      67        
2704.600004 10.15      87.99     
2704.800004 10.68      128.98    
2705.000005 11.01      91.019    
2705.200005 11.38      74.008    
2705.400005 11.62      88.993    
2705.600005 11.34      90        
2705.800005 10.8       54.018    
2706.000006 10.55      56.999    
2706.200006 10.44      52.002    
2706.400006 11.25      56.998    
2706.600006 11.14      57        
2706.800006 10.99      52.002    
2707.000007 10.92      50.001    
2707.200007 10.48      68.991    
2707.400007 11.25      57.006    
2707.600007 11.78      62.997    
2707.800007 11.51      68.997    
2708.000008 9.621      60.004    
2708.200008 10.899     60        
2708.400008 12.329     71.994    
2708.600008 11.271     91.99     
2708.800008 11.95      72.01     
2709.000009 11.4       60.006    
2709.200009 11.27      73.993    
2709.400009 11.73      58.008    
2709.600009 11.93      69.994    
2709.800009 10.96      68.001    
2710.00001 11.07      64.002    
2710.20001 10.13      87.988    
2710.40001 9.43       56.016    
2710.60001 8.85       69.993    
2710.80001 8.22       66.002    
2711.000011 10.189     91.987    
2711.200011 15.288     62.015    
2711.400011 15.09      49.006    
2711.600011 12.421     68.99     
2711.800011 10.991     70        
2712.000012 10.44      56.007    
2712.200012 13.558     66.995    
2712.400012 14.35      69.999    
2712.600012 14.26      95.987    
2712.800012 12.241     81.007    
2713.000013 7.892      62.009    
2713.200013 7.14       232.917   
2713.400013 6.83       1355.453  
2713.600013 7.16       54.634    
2713.800013 7.18       62.996    
2714.000014 7.69       63        
2714.200014 7.89       59.002    
2714.400014 8.26       53.003    
2714.600014 10.259     54.999    
2714.800014 15.088     56        
2715.000015 14.9       54.001    
2715.200015 14.27      50.002    
2715.400015 10.832     49        
2715.600015 9.161      62.993    
2715.800015 9.65       85.989    
2716.000016 10.02      97.994    
2716.200016 9.95       106.996   
2716.400016 9.16       92.007    
2716.600016 10.12      82.005    
2716.800016 9.62       90.996    
2717.000017 9.01       154.969   
2717.200017 10.809     86.034    
2717.400017 9.731      77.004    
2717.600017 10.02      81.998    
2717.800017 9.56       87.997    
2718.000018 10.52      67.01     
2718.200018 9.6        67        
2718.400018 10.849     56.005    
2718.600018 10.96      67.994    
2718.800018 10.35      97.985    
2719.000019 10.16      48.024    
2719.200019 11.12      55.996    
2719.400019 9.601      120.968   
2719.600019 10.26      97.012    
2719.800019 9.89       171.963   
2720.00002 9.36       312.931   
2720.20002 8.94       75.116    
2720.40002 9.12       93.991    
2720.60002 9.91       67.013    
2720.80002 10.08      80.993    
2721.000021 10.04      69.006    
2721.200021 10.59      61.004    
2721.400021 11.16      59.001    
2721.600021 11.64      62.998    
2721.800021 11.29      59.002    
2722.000022 10.96      62.998    
2722.200022 10.9       59.002    
2722.400022 10.66      70.994    
2722.600022 9.051      59.006    
2722.800022 7.031      74.992    
2723.000023 7.1        96.989    
2723.200023 7.07       111.993   
2723.400023 6.42       176.968   
2723.600023 7.4        178.999   
2723.800023 7.25       166.006   
2724.000024 6.94       1970.122  
2724.200024 7.67       1228.361  
2724.400024 8.22       193.504   
2724.600024 9.16       175.009   
2724.800024 9.18       171.002   
2725.000025 8.41       172       
2725.200025 8.31       98.036    
2725.400025 8.31       108.995   
2725.600025 8.33       65.021    
2725.800025 7.94       83.991    
2726.000026 7.91       47.018    
2726.200026 7.8        44.001    
2726.400026 8.13       169.939   
2726.600026 8.41       139.015   
2726.800026 9.949      108.015   
2727.000027 10.81      76.016    
2727.200027 10.81      77.999    
2727.400027 10.83      83.997    
2727.600027 11.12      126.979   
2727.800027 10.66      98.014    
2728.000028 10.96      184.958   
2728.200028 9.011      86.048    
2728.400028 7.431      83.001    
2728.600028 7.12       70.006    
2728.800028 7.12       151.96    
2729.000029 7.12       159.996   
2729.200029 6.61       157.001   
2729.400029 6.96       84.035    
2729.600029 6.66       113.985   
2729.800029 6.55       81.016    
2730.00003 6.64       53.014    
2730.20003 7.45       86.983    
2730.40003 7.25       109.989   
2730.60003 7.25       52.028    
2730.80003 7.67       41.005    
2731.000031 7.34       113.965   
2731.200031 7.95       124.995   
2731.400031 7.65       93.016    
2731.600031 7.29       39.026    
2731.800031 7.51       90.975    
2732.000032 7.91       101.995   
2732.200032 7.69       101       
2732.400032 8.809      115.993   
2732.600032 9.18       24.045    
2732.800032 8.92       91.967    
2733.000033 8.17       144.974   
2733.200033 7.96       121.012   
2733.400033 7.84       74.023    
2733.600033 8.48       61.006    
2733.800033 8.59       212.926   
2734.000034 8.41       119.046   
2734.200034 7.8        91.014    
2734.400034 7.27       102.994   
2734.600034 9.029      150.977   
2734.800034 8.17       115.017   
2735.000035 6.571      116.999   
2735.200035 6.06       3230.487  
2735.400035 7.579      2812.204  
2735.600035 7.56       84.325    
2735.800035 7.58       53.015    
2736.000036 7.23       206.925   
2736.200036 6.85       103.051   
2736.400036 7.36       62.02     
2736.600036 7.49       201.932   
2736.800036 7.74       227.987   
2737.000037 8.769      86.069    
2737.200037 8.46       216.936   
2737.400037 8.5        190.013   
2737.600037 7.82       79.054    
2737.800037 8.04       202.94    
2738.000038 7.83       182.01    
2738.200038 8.77       72.053    
2738.400038 11.289     194.94    
2738.600038 12.519     196       
2738.800038 13.29      60.066    
2739.000039 13.12      265.9     
2739.200039 13.8       159.052   
2739.400039 14.06      86.035    
2739.600039 14.5       274.908   
2739.800039 13.91      83.093    
2740.00004 13.34      191.947   
2740.20004 14.35      163.014   
2740.40004 15.16      87.037    
2740.60004 14.68      217.936   
2740.80004 12.441     108.053   
2741.000041 12.85      276.918   
2741.200041 10.811     161.056   
2741.400041 10.26      292.936   
2741.600041 11.369     246.023   
2741.800041 11.45      269.988   
2742.000042 11.49      252.009   
2742.200042 9.561      328.963   
2742.400042 9.67       191.067   
2742.600042 10.13      322.936   
2742.800042 9.93       267.027   
2743.000043 9.05       338.965   
2743.200043 9.49       195.07    
2743.400043 9.42       364.918   
2743.600043 10.44      136.111   
2743.800043 11.29      327.907   
2744.000044 10.39      256.035   
2744.200044 11.01      397.931   
2744.400044 8.941      344.026   
2744.600044 8.85       134.102   
2744.800044 9.47       327.906   
2745.000045 10.15      397.966   
2745.200045 10.39      292.051   
2745.400045 10.57      314.989   
2745.600045 10.92      324.995   
2745.800045 10.46      347.989   
2746.000046 9.58       289.029   
2746.200046 8.57       489.903   
2746.400046 10.389     4396.105  
2746.600046 12.039     372.952   
2746.800046 10.481     348.011   
2747.000047 10.77      423.963   
2747.200047 10.99      526.95    
2747.400047 10.52      370.076   
