~Version
 VERS              .         2.0                           : CWLS LOG ASCII STANDARD - VERSION 2.0
 WRAP              .         NO                            : ONE LINE PER DEPTH STEP
 DLM               .         SPACE                         : DELIMITING CHARACTER(SPACE TAB OR COMMA)
~Well Information
#_______________________________________________________________________________
#
#PARAMETER_NAME    .UNIT     VALUE                         : DESCRIPTION
#_______________________________________________________________________________
STRT               .M        2654.8                        : First reference value
STOP               .M        2754.99995                    : Last reference value
STEP               .M        0.1999999                     : Step increment
NULL               .         -9999                         : Missing value
COMP               .                                       : Company
WELL               .         616                           : Well name
FLD                .                                       : Field
LOC                .                                       : Location
CNTY               .                                       : County
STAT               .                                       : State
CTRY               .                                       : Country
SRVC               .                                       : Service Company
DATE               .                                       : Date
API                .                                       : API number
PROJECT_UPGRADE_TIME .         2021-03-18T21_24_50           : 
group              .         Good                          : 
~Parameter Information Block
#_______________________________________________________________________________
#
#PARAMETER_NAME    .UNIT     VALUE                         : DESCRIPTION
#_______________________________________________________________________________
SET                .         D4404_D_2                     : 
COMM               .                                       : 
OTHER              .         Запись производится в присутствии: 
OTHER_10           .         Максимальная температура      : 
OTHER_11           .         Тип промывочной жидкости      : 
OTHER_12           .         Сопротивление ПЖ (Ом*м) при 20°C: 
OTHER_13           .         Плотность ПЖ(г/см3)           : 
OTHER_14           .         Вязкость ПЖ(с)                : 
OTHER_15           .         Водоотдача ПЖ(см3/30мин)      : 
OTHER_16           .         Уровень ПЖ                    : 
OTHER_17           .         Нефть ПЖ (%)                  : 
OTHER_18           .         Барит ПЖ (%)                  : 
OTHER_19           .         Гематит ПЖ (%)                : 
OTHER_2            .         Заказчик ННСН  ЦДНГ-1         : 
OTHER_20           .         КМЦ ПЖ (%)                    : 
OTHER_21           .         Разгазирование ПЖ (да,нет)    : 
OTHER_22           .         Подъемник                     : 
OTHER_23           .         Лаборатория                   : 
OTHER_24           .         Тип кабеля                    : 
OTHER_25           .         Длина кабеля (м)              : 
OTHER_26           .         Цена последней метки          : 
OTHER_27           .         Цена контрольной метки        : 
OTHER_28           .         Диаметр долота (мм)           : 
OTHER_29           .         Глубина бурения (м)           : 
OTHER_3            .         Площадь                       : 
OTHER_30           .         Искусственный забой (м)       : 
OTHER_31           .         Диаметр колонны (мм)          : 
OTHER_32           .         Толщина колонны (мм)          : 
OTHER_33           .         Башмак колонны (м)            : 
OTHER_34           .         Диаметр НКТ (мм)              : 
OTHER_35           .         Толщина НКТ (мм)              : 
OTHER_36           .         Воронка НКТ (м)               : 
OTHER_37           .         Дата цементожа                : 
OTHER_38           .         Тип, количество(т) и плотность цемента: 
OTHER_39           .         Интервалы перфорации (м)      : 
OTHER_4            .         Категория                     : 
OTHER_40           .         Направление, диаметр (мм)     : 
OTHER_41           .         Направление, глубина (м)      : 
OTHER_42           .         Кондуктор, диаметр (мм)       : 
OTHER_43           .         Кондуктор, глубина (м)        : 
OTHER_44           .         Техническая колонна, диаметр (мм): 
OTHER_45           .         Техническая колонна, глубина (м): 
OTHER_46           .         Эксплуатационная колонна, диаметр (мм): 
OTHER_47           .         Эксплуатационная колонна, глубина (м): 
OTHER_48           .         Программа Кедр-02 версия 3.4  : 
OTHER_49           .         Операционная система Windows NT 5.1 build 2600 Service Pack 2: 
OTHER_5            .         Назначение исследований       : 
OTHER_50           .         Программное обеспечение станции MONITOR-386EX 25/12/99 15_08_10   BGF V54 20/09/05 15_32_17   3.3__BGF_9030071: 
OTHER_51           .         Kedr.exe версия 3.4.2.74      : 
OTHER_52           .         KedrData.dll версия 3.4.2.29  : 
OTHER_53           .         Мнемоники версия 3.18 S       : 
OTHER_54           .         Драйвер версия 2.1.1.4        : 
OTHER_55           .         LasInf.dll 4.3.0.35           : 
OTHER_56           .         Прибор_ КСА-Т4                : 
OTHER_57           .         Номер прибора_ 160            : 
OTHER_58           .         Режим_ КСА-Т4                 : 
OTHER_59           .         Форма_ С.А.Б.                 : 
OTHER_6            .         Альтитуда стола ротора        : 
OTHER_60           .         Тарировки_                    : 
OTHER_61           .         <_techsia_sc_> Дата тарировки температуры 25.05.2010: 
OTHER_62           .         Ручной ввод коэффициентов     : 
OTHER_63           .         TM.DEGC = 0.00402*RTM.E.ACP + -0.994: 
OTHER_64           .         <_techsia_sc_> Дата тарировки давления 25.05.2010: 
OTHER_65           .         Ручной ввод коэффициентов     : 
OTHER_66           .         MN.ATM = (2.27521e-006*TM.DEGC + 0.02078)*(RMN.E.ACP + 6.2*TM.DEGC + -1688): 
OTHER_67           .         <_techsia_sc_> Дата тарировки ГК 25.05.2010: 
OTHER_68           .         Ручной ввод коэффициентов     : 
OTHER_69           .         GR.UR/H = RGR.IMP/MIN / 45.5144: 
OTHER_7            .         Вид исследований 3  6         : 
OTHER_70           .         GK.FLT = 0.1*GR.UR/H[-1] + (1-0.1)*GR.UR/H[0]: 
OTHER_8            .         Начало бурения интервала каротажа: 
OTHER_9            .         Окончание бурения интервала каротажа: 
PROJECT_UPGRADE_TIME .         2021-03-18T21_24_50           : 
PRTY               .         ПП-601-1                      : N партии
SRVC               .         Барковский                    : Начальник партии
TLFamily_DEPT      .         Measured Depth                : 
TLFamily_LM        .         Casing Collar locator         : 
TLFamily_MN        .                                       : 
TLFamily_TM        .         Temperature                   : 
group              .         second                        : 
~Curve Information
#_______________________________________________________________________________
#
#LOGNAME           .UNIT     LOG_ID                        : DESCRIPTION
#_______________________________________________________________________________
DEPT               .M                                      : Depth curve 
LM                 .е.ацп                                  : Локатор муфт,е.ацп 
MN                 .атм                                    : 12 Давление, атм. -  160.0 см 
TM                 .град.C                                 : Термограмма по стволу скважины,град.C 
~Ascii
2654.8000488 -9999      -9999      -9999     
2655       -9999      -9999      -9999     
2655.2     254.012    -9999      -9999     
2655.4     302.999    -9999      -9999     
2655.6     300.049    -9999      -9999     
2655.8     501.936    -9999      -9999     
2655.999999 242.088    -9999      -9999     
2656.199999 4693.587   -9999      -9999     
2656.399999 3001.478   -9999      -9999     
2656.599999 863.873    238.698    -9999     
2656.799999 345.974    238.768    65.967    
2656.999999 239.002    238.691    65.933    
2657.199999 247.971    238.675    65.903    
2657.399999 129.024    238.711    65.873    
2657.599999 226.977    238.686    65.84     
2657.799999 134.016    238.745    65.818    
2657.999998 197.982    238.804    65.79     
2658.199998 124.014    238.82     65.763    
2658.399998 183.01     238.853    65.733    
2658.599998 223.997    238.874    65.704    
2658.799998 210.007    238.848    65.677    
2658.999998 236.988    238.862    65.638    
2659.199998 187.993    238.854    65.596    
2659.399998 158.008    238.86     65.564    
2659.599998 189.995    238.902    65.541    
2659.799998 170.984    238.926    65.507    
2659.999997 107.029    238.969    65.471    
2660.199997 226.006    238.999    65.439    
2660.399997 248.979    238.993    65.396    
2660.599997 165        239.005    65.366    
2660.799997 167.006    239.005    65.332    
2660.999997 193.016    239.01     65.305    
2661.199997 256.987    239.029    65.272    
2661.399997 203.981    239.051    65.235    
2661.599997 128.022    239.067    65.201    
2661.799997 215.979    239.093    65.167    
2661.999996 132.002    239.119    65.129    
2662.199996 139.995    239.135    65.096    
2662.399996 118.009    239.151    65.068    
2662.599996 153.995    239.159    65.03     
2662.799996 132.991    239.161    65        
2662.999996 97.999     239.176    64.96     
2663.199996 92.999     239.2      64.933    
2663.399996 89.017     239.206    64.89     
2663.599996 157.03     239.24     64.851    
2663.799996 280.98     239.258    64.819    
2663.999995 199.011    239.274    64.783    
2664.199995 243.987    239.309    64.741    
2664.399995 189.029    239.347    64.714    
2664.599995 307.985    239.345    64.678    
2664.799995 248.005    239.365    64.65     
2664.999995 266.977    239.372    64.608    
2665.199995 173.022    239.406    64.569    
2665.399995 261.975    239.417    64.508    
2665.599995 159.236    239.431    64.45     
2665.799995 5202.206   239.447    64.411    
2665.999994 1961.655   239.464    64.383    
2666.199994 553.924    239.476    64.345    
2666.399994 243.966    239.488    64.289    
2666.599994 105.015    239.491    64.23     
2666.799994 165.994    239.51     64.192    
2666.999994 142.993    239.506    64.148    
2667.199994 113.991    239.504    64.104    
2667.399994 77.007     239.53     64.078    
2667.599994 106.001    239.555    64.036    
2667.799994 109.005    239.57     63.997    
2667.999993 130.016    239.584    63.961    
2668.199993 193.979    239.599    63.918    
2668.399993 109.018    239.614    63.881    
2668.599993 181.987    239.626    63.841    
2668.799993 127.996    239.641    63.791    
2668.999993 110.996    239.662    63.743    
2669.199993 93.996     239.678    63.692    
2669.399993 76.999     239.695    63.644    
2669.599993 74.005     239.715    63.595    
2669.799993 92.998     239.728    63.54     
2669.999992 85.992     239.742    63.497    
2670.199992 55.012     239.757    63.459    
2670.399992 101.998    239.772    63.417    
2670.599992 93.01      239.788    63.38     
2670.799992 131.996    239.802    63.344    
2670.999992 113.99     239.835    63.297    
2671.199992 74.998     239.833    63.236    
2671.399992 68.002     239.856    63.181    
2671.599992 77.993     239.873    63.129    
2671.799992 51.011     239.878    63.09     
2671.999991 95.004     239.908    63.077    
2672.199991 113.034    239.923    63.041    
2672.399991 251.988    239.937    62.998    
2672.599991 203.996    239.949    62.95     
2672.799991 189.019    239.96     62.888    
2672.999991 266.995    239.972    62.825    
2673.199991 247.974    240.003    62.773    
2673.399991 143.024    240.001    62.725    
2673.599991 241.012    240.033    62.676    
2673.799991 287.994    240.041    62.635    
2673.99999 265.018    240.062    62.597    
2674.19999 336.998    240.076    62.548    
2674.39999 327.982    240.103    62.502    
2674.59999 254.975    240.103    62.45     
2674.79999 152.002    240.117    62.411    
2674.99999 162.018    240.143    62.362    
2675.19999 234.996    240.159    62.304    
2675.39999 217.068    240.176    62.249    
2675.59999 493.258    240.188    62.203    
2675.79999 5613.005   240.199    62.141    
2675.999989 1562.753   240.233    62.084    
2676.199989 556.95     240.237    62.038    
2676.399989 351.991    240.256    61.993    
2676.599989 317.018    240.277    61.959    
2676.799989 390.965    240.293    61.922    
2676.999989 248.008    240.308    61.891    
2677.199989 279.069    240.34     61.843    
2677.399989 559.025    240.355    61.794    
2677.599989 659.964    240.368    61.745    
2677.799989 514.058    240.377    61.691    
2677.999988 747.955    240.399    61.646    
2678.199988 565.976    240.417    61.596    
2678.399988 468.967    240.437    61.545    
2678.599988 333.98     240.454    61.485    
2678.799988 251.005    240.466    61.434    
2678.999988 270.981    240.479    61.38     
2679.199988 195.005    240.493    61.328    
2679.399988 216.974    240.507    61.289    
2679.599988 113.006    240.521    61.248    
2679.799988 139.012    240.553    61.189    
2679.999987 188.994    240.572    61.132    
2680.199987 162.995    240.591    61.075    
2680.399987 142.007    240.593    61.033    
2680.599987 171.987    240.63     60.985    
2680.799987 120        240.642    60.957    
2680.999987 119.991    240.653    60.891    
2681.199987 83.004     240.67     60.834    
2681.399987 101.026    240.689    60.784    
2681.599987 205.01     240.712    60.726    
2681.799987 245.003    240.724    60.67     
2681.999986 256.98     240.747    60.618    
2682.199986 176.019    240.75     60.566    
2682.399986 254.992    240.785    60.523    
2682.599986 221.025    240.783    60.469    
2682.799986 322.973    240.811    60.424    
2682.999986 213.015    240.822    60.366    
2683.199986 274.995    240.836    60.308    
2683.399986 255.001    240.871    60.265    
2683.599986 259.99     240.886    60.225    
2683.799986 220.994    240.9      60.187    
2683.999985 196.989    240.935    60.14     
2684.199985 152.997    240.945    60.099    
2684.399985 140.013    240.959    60.045    
2684.599985 191.036    240.969    59.973    
2684.799985 336.976    240.982    59.906    
2684.999985 240.079    241.016    59.86     
2685.199985 562.654    241.01     59.814    
2685.399985 3217.536   241.036    59.764    
2685.599985 1335.764   241.054    59.7      
2685.799985 377.933    241.074    59.645    
2685.999984 104.991    241.103    59.605    
2686.199984 69.004     241.113    59.561    
2686.399984 85.996     241.125    59.507    
2686.599984 70.999     241.145    59.419    
2686.799984 66.001     241.163    59.35     
2686.999984 70.999     241.179    59.296    
2687.199984 65.008     241.193    59.247    
2687.399984 97         241.206    59.195    
2687.599984 95.001     241.219    59.137    
2687.799984 97.991     241.235    59.077    
2687.999983 62.018     241.259    59.013    
2688.199983 133.989    241.27     58.936    
2688.399983 87.994     241.281    58.849    
2688.599983 63.007     241.294    58.751    
2688.799983 90         241.309    58.669    
2688.999983 90.012     241.322    58.591    
2689.199983 139.006    241.337    58.494    
2689.399983 164.99     241.349    58.4      
2689.599983 123.994    241.355    58.301    
2689.799983 97.992     241.364    58.216    
2689.999982 66.002     241.393    58.133    
2690.199982 73.998     241.405    58.07     
2690.399982 64.01      241.414    57.995    
