~Version
 VERS              .         2.0                           : CWLS LOG ASCII STANDARD - VERSION 2.0
 WRAP              .         NO                            : ONE LINE PER DEPTH STEP
 DLM               .         SPACE                         : DELIMITING CHARACTER(SPACE TAB OR COMMA)
~Well Information
#_______________________________________________________________________________
#
#PARAMETER_NAME    .UNIT     VALUE                         : DESCRIPTION
#_______________________________________________________________________________
STRT               .M        2664                          : First reference value
STOP               .M        2769.2                        : Last reference value
STEP               .M        0.1999999                     : Step increment
NULL               .         -9999                         : Missing value
COMP               .                                       : Company
WELL               .         616                           : Well name
FLD                .                                       : Field
LOC                .                                       : Location
CNTY               .                                       : County
STAT               .                                       : State
CTRY               .                                       : Country
SRVC               .                                       : Service Company
DATE               .                                       : Date
API                .                                       : API number
PROJECT_UPGRADE_TIME .         2021-03-18T21_24_50           : 
group              .         Good                          : 
~Parameter Information Block
#_______________________________________________________________________________
#
#PARAMETER_NAME    .UNIT     VALUE                         : DESCRIPTION
#_______________________________________________________________________________
SET                .         D1161_D                       : 
OTHER              .         Программное обеспечение станции MONITOR-386EX 25/12/99 15_08_10   BGF V52 22/08/01 16_56_30   3.2_BGF_N_3070031: 
OTHER_10           .         Тарировки_                    : 
OTHER_11           .         TM.GRD = 0.00403*TM$.UE + -1.19: 
OTHER_12           .         MN.ATM = (7.1e-006*TM.GRD + 0.02017)*(MN$.UE + -3.03*TM.GRD + -1833): 
OTHER_13           .         Id error                      : 
OTHER_2            .         Kedr.exe версия 3.4.2.51      : 
OTHER_3            .         KedrData.dll версия 3.4.2.24  : 
OTHER_4            .         Драйвер версия 2.1.1.8        : 
OTHER_5            .         Мнемоники версия 3.3 S        : 
OTHER_6            .         Прибор_ КСА-М1                : 
OTHER_7            .         Номер прибора_ 265            : 
OTHER_8            .         Режим_ КСА-М1                 : 
OTHER_9            .         Форма_ ТЕРМОМЕТР              : 
PROJECT_UPGRADE_TIME .         2021-03-18T21_24_49           : 
TLFamily_DEPT      .         Measured Depth                : 
TLFamily_GK        .         Gamma Ray                     : 
TLFamily_GK$       .                                       : 
TLFamily_LM        .         Casing Collar locator         : 
TLFamily_METKA     .                                       : 
TLFamily_MN        .                                       : 
TLFamily_MN$       .                                       : 
TLFamily_RCOR      .                                       : 
TLFamily_SPID      .         Spontaneous Potential         : 
TLFamily_STD       .                                       : 
TLFamily_TENS      .         Cable Tension                 : 
TLFamily_TIME      .         Time                          : 
TLFamily_TM        .         Temperature                   : 
TLFamily_TM$       .         Temperature                   : 
TLFamily_VGD       .         Gas Volume                    : 
group              .         prim                          : 
~Curve Information
#_______________________________________________________________________________
#
#LOGNAME           .UNIT     LOG_ID                        : DESCRIPTION
#_______________________________________________________________________________
DEPT               .M                                      : 1 Глубина, м -    0.0 см 
GK                 .MKR/H                                  : 15 Гамма-активность, мкр./ч -  110.0 см 
GK$                .UE                                     : 12 Гамма-активность, усл.ед. -  110.0 см 
LM                 .                                       : 10 Локатор муфт,  -   20.0 см 
METKA              .                                       : 3 Метки,  -    0.0 см 
MN                 .ATM                                    : 14 Давление, атм. -  160.0 см 
MN$                .UE                                     : 8 Давление, усл.ед. -  160.0 см 
RCOR               .CM/KM                                  : 5 Коррекция по ролику, см/км -    0.0 см 
SPID               .M/H                                    : 2 Скорость, м/час -    0.0 см 
STD                .                                       : 11 Приток,  -  170.0 см 
TENS               .T                                      : 6 Натяжение кабеля, т -    0.0 см 
TIME               .S                                      : 4 Время, сек -    0.0 см 
TM                 .GRD                                    : 13 Температура, °C -  180.0 см 
TM$                .UE                                     : 7 Температура, усл.ед. -  180.0 см 
VGD                .                                       : 9 Влагомер,  -  170.0 см 
~Ascii
# ...
2713       4.61       204        1          0          251.992    14217      -1400      -305       32373      0          16772.62   88.59      22278      6498      
2713.2     4.72       201        1          1          252.013    14218      -1400      -303       32373      0          16770.25   88.601     22281      6497      
2713.4     4.91       209        1390       0          252.034    14219      -1400      -307       32373      0          16767.88   88.61      22283      6497      
2713.6     5.07       211        1          0          252.055    14220      -1400      -307       32373      0          16765.52   88.615     22284      6497      
2713.8     5.77       215        1          0          252.076    14221      -1400      -302       32373      0          16763.04   88.623     22286      6497      
2714       6.72       264        1          0          252.097    14222      -1400      -305       32374      0          16760.67   88.631     22288      6497      
2714.2     7.09       311        1          0          252.118    14223      -1400      -297       32372      0          16758.3    88.641     22291      6497      
2714.4     6.48       297        1          0          252.139    14224      -1400      -301       32372      0          16755.83   88.651     22293      6496      
2714.6     6.2        259        1          0          252.155    14225      -1400      -305       32373      0          16753.49   88.657     22295      6497      
2714.8     6.49       272        1          0          252.165    14225      -1400      -298       32374      0          16751.2    88.663     22296      6496      
2715       6.63       286        1          0          252.202    14227      -1400      -301       32373      0          16748.83   88.67      22298      6496      
2715.2     6.39       280        1          0          252.217    14228      -1400      -300       32374      0          16746.32   88.679     22300      6496      
2715.4     5.89       254        1          0          252.223    14228      -1400      -307       32373      0          16743.98   88.686     22302      6496      
2715.6     5.87       245        1          0          252.244    14229      -1400      -303       32373      0          16741.62   88.693     22303      6495      
2715.8     6.4        263        1          0          252.265    14230      -1400      -303       32372      0          16739.25   88.703     22306      6495      
2716       7.47       308        1          0          252.291    14231      -1400      -302       32373      0          16736.88   88.713     22309      6495      
2716.2     8.78       370        1          0          252.307    14232      -1400      -303       32373      0          16734.51   88.719     22310      6495      
2716.4     9.4        406        1          0          252.328    14233      -1400      -301       32373      0          16732.11   88.727     22312      6494      
2716.6     8.95       387        1          0          252.349    14234      -1400      -310       32372      0          16729.67   88.735     22314      6494      
2716.8     8.38       358        1          0          252.384    14236      -1400      -306       32373      0          16727.3    88.743     22316      6494      
2717       8.39       364        1          0          252.407    14237      -1400      -301       32373      0          16724.93   88.756     22319      6494      
2717.2     7.38       322        1          0          252.417    14237      -1400      -303       32373      0          16722.45   88.768     22322      6494      
2717.4     6.05       285        1          0          252.433    14238      -1400      -301       32373      0          16720.09   88.784     22326      6493      
2717.6     5.53       235        1          0          252.454    14239      -1400      -295       32373      0          16717.75   88.792     22328      6492      
2717.8     5.83       251        1          0          252.475    14240      -1400      -293       32373      0          16715.46   88.801     22330      6493      
2718       5.47       245        1          0          252.496    14241      -1400      -297       32373      0          16712.98   88.815     22334      6493      
2718.2     5.2        229        1          0          252.517    14242      -1400      -304       32373      0          16710.58   88.825     22336      6492      
2718.4     5.29       216        1          0          252.538    14243      -1400      -300       32373      0          16708.25   88.836     22339      6491      
2718.6     5.37       237        1          0          252.559    14244      -1400      -297       32373      0          16705.77   88.846     22341      6492      
2718.8     4.97       228        1          0          252.581    14245      -1400      -308       32373      0          16703.38   88.86      22345      6491      
2719       4.67       197        1          0          252.602    14246      -1400      -302       32373      0          16701.07   88.88      22350      6490      
2719.2     4.86       202        1          0          252.617    14247      -1400      -302       32373      0          16698.72   88.899     22355      6488      
2719.4     5.14       218        1          0          252.646    14248      -1400      -304       32373      0          16696.23   88.934     22363      6487      
2719.6     5.25       223        1          0          252.648    14248      -1400      -300       32372      0          16693.85   88.997     22379      6486      
2719.8     5.32       227        1          0          252.691    14250      -1400      -299       32373      0          16691.46   89.102     22405      6486      
2720       5.3        229        1          2          252.712    14251      -1400      -306       32373      0          16688.87   89.14      22414      6485      
2720.2     5.15       220        1          0          252.733    14252      -1400      -303       32372      0          16686.38   89.158     22419      6485      
2720.4     5.18       222        1          0          252.754    14253      -1400      -300       32373      0          16684.03   89.175     22423      6485      
2720.6     5.14       220        1          0          252.776    14254      -1400      -295       32373      0          16681.72   89.191     22427      6484      
2720.8     5.12       218        1          0          252.797    14255      -1400      -298       32373      0          16679.23   89.208     22431      6485      
2721       5.24       223        1          0          252.818    14256      -1400      -300       32372      0          16676.85   89.23      22437      6484      
2721.2     5.39       230        1          0          252.839    14257      -1400      -295       32373      0          16674.57   89.251     22442      6484      
2721.4     5.44       237        1          0          252.85     14257      -1400      -307       32373      0          16672.05   89.267     22446      6481      
2721.6     4.91       212        1          0          252.871    14258      -1400      -304       32373      0          16669.7    89.279     22449      6483      
2721.8     4.67       196        1          0          252.897    14260      -1400      -300       32372      0          16667.32   89.292     22452      6483      
2722       5.29       225        1          0          252.923    14261      -1400      -296       32373      0          16664.93   89.296     22453      6483      
2722.2     5.51       236        1          0          252.945    14262      -1400      -306       32373      0          16662.45   89.302     22455      6482      
2722.4     5.48       232        1          0          252.95     14262      -1400      -303       32373      0          16660.06   89.316     22458      6482      
2722.6     5.95       254        1          0          252.95     14262      -1400      -299       32372      0          16657.75   89.327     22461      6482      
