~Version
 VERS              .         2.0                           : CWLS LOG ASCII STANDARD - VERSION 2.0
 WRAP              .         NO                            : ONE LINE PER DEPTH STEP
 DLM               .         SPACE                         : DELIMITING CHARACTER(SPACE TAB OR COMMA)
~Well Information
#_______________________________________________________________________________
#
#PARAMETER_NAME    .UNIT     VALUE                         : DESCRIPTION
#_______________________________________________________________________________
STRT               .M        2666.2                        : First reference value
STOP               .M        2778.8                        : Last reference value
STEP               .M        0.2000002                     : Step increment
NULL               .         -9999                         : Missing value
COMP               .                                       : Company
WELL               .         616                           : Well name
FLD                .                                       : Field
LOC                .                                       : Location
CNTY               .                                       : County
STAT               .                                       : State
CTRY               .                                       : Country
SRVC               .                                       : Service Company
DATE               .                                       : Date
API                .                                       : API number
PROJECT_UPGRADE_TIME .         2021-03-18T21_24_50           : 
group              .         Good                          : 
~Parameter Information Block
#_______________________________________________________________________________
#
#PARAMETER_NAME    .UNIT     VALUE                         : DESCRIPTION
#_______________________________________________________________________________
SET                .         D0400_D                       : 
OTHER              .         Прибор_ АКП4_90               : 
OTHER_2            .         Номер прибора_ 56             : 
OTHER_3            .         Режим_ АКП4_90 - все каналы   : 
OTHER_4            .         Форма_ Г-1                    : 
OTHER_5            .         Тарировки_                    : 
OTHER_6            .         TM.GRD = 0.00379*TM$.UE + 7.11: 
OTHER_7            .         MN.ATM = (8e-006*TM.GRD + 0.02)*(MN$.UE + -8*TM.GRD + -1800): 
OTHER_8            .         GK.MKR/H = GK$.UE / 57.17 + 0 : 
PROJECT_UPGRADE_TIME .         2021-03-18T21_24_49           : 
TLFamily_DEPT      .         Measured Depth                : 
TLFamily_GK        .         Gamma Ray                     : 
TLFamily_GK$       .                                       : 
TLFamily_LM        .         Casing Collar locator         : 
TLFamily_METKA     .                                       : 
TLFamily_METKA_1   .                                       : 
TLFamily_MN        .                                       : 
TLFamily_MN$       .                                       : 
TLFamily_RCOR      .                                       : 
TLFamily_SPID      .         Spontaneous Potential         : 
TLFamily_TIME      .         Time                          : 
TLFamily_TM        .         Temperature                   : 
TLFamily_TM$       .         Temperature                   : 
group              .         second                        : 
~Curve Information
#_______________________________________________________________________________
#
#LOGNAME           .UNIT     LOG_ID                        : DESCRIPTION
#_______________________________________________________________________________
DEPT               .M                                      : 1 Глубина, м -    0.0 см 
GK                 .MKR/H                                  : 12 Гамма-активность, мкр./ч -   65.0 см 
GK$                .UE                                     : 9 Гамма-активность, усл.ед. -   65.0 см 
LM                 .                                       : 8 Локатор муфт,  -   30.0 см 
METKA              .                                       : 3 Метки,  -    0.0 см 
METKA_1            .                                       : 13 Маркеры - 65 см 
MN                 .ATM                                    : 11 Давление, атм. -  140.0 см 
MN$                .UE                                     : 7 Давление, усл.ед. -  140.0 см 
RCOR               .CM/KM                                  : 5 Коррекция по ролику, см/км -    0.0 см 
SPID               .M/H                                    : 2 Скорость, м/час -    0.0 см 
TIME               .S                                      : 4 Время, сек -    0.0 см 
TM                 .GRD                                    : 10 Температура, °C -  145.0 см 
TM$                .UE                                     : 6 Температура, усл.ед. -  145.0 см 
~Ascii
# ...
2755.8     7.63       417        842        0          0          266.741    15380      0          -300       2418.58    85.502     20684     
2756       7.58       448        1063       0          0          266.754    15381      0          -300       2415.99    85.51      20686     
2756.2     7.47       437        1909       0          0          266.76     15381      0          -300       2413.53    85.518     20688     
2756.4     7.22       444        4612       0          0          266.774    15382      0          -300       2410.95    85.525     20690     
2756.6     6.78       436        708        0          0          266.801    15383      0          -280       2408.49    85.533     20692     
2756.8     6.63       380        756        0          0          266.814    15384      0          -280       2405.92    85.54      20694     
2757       6.7        373        898        0          0          266.82     15384      0          -300       2403.47    85.548     20696     
2757.2     6.9        370        942        0          0          266.848    15385      0          -300       2400.9     85.552     20697     
2757.4     7.14       384        1208       0          0          266.862    15386      0          -260       2398.36    85.558     20699     
2757.6     7.53       398        869        0          0          266.854    15386      0          -280       2395.87    85.56      20699     
2757.8     7.63       441        800        0          0          266.847    15385      0          -320       2393.4     85.568     20701     
2758       7.48       443        723        0          0          266.874    15387      0          -260       2390.86    85.574     20703     
2758.2     7.35       420        707        0          0          266.894    15388      0          -320       2388.27    85.578     20704     
2758.4     7.46       415        846        0          0          266.949    15390      0          -320       2385.78    85.587     20706     
2758.6     7.6        430        937        0          0          266.962    15391      0          -260       2383.25    85.593     20708     
2758.8     7.58       435        894        0          0          266.941    15390      0          -260       2380.76    85.598     20709     
2759       7.57       449        911        0          0          266.975    15392      0          -260       2378.24    85.605     20711     
2759.2     7.3        438        724        0          0          267.008    15393      0          -280       2375.79    85.612     20713     
2759.4     7.26       403        709        0          0          267.01     15393      0          -260       2373.22    85.619     20715     
2759.6     7.52       416        878        0          0          267.002    15393      0          -290       2370.7     85.616     20714     
2759.8     7.28       449        971        1          0          267.032    15394      0          -260       2368.19    85.627     20717     
2760       6.73       427        1375       0          0          267.084    15397      0          -320       2364.84    85.635     20719     
2760.2     6.6        375        986        0          0          267.073    15396      0          -300       2362.28    85.638     20720     
2760.4     6.64       382        698        0          0          267.084    15397      0          -320       2359.69    85.643     20721     
2760.6     6.39       383        895        0          0          267.097    15398      0          -300       2357.24    85.65      20723     
2760.8     5.99       365        970        0          0          267.124    15399      0          -260       2354.68    85.65      20723     
2761       5.7        342        913        0          0          267.144    15400      0          -280       2352.23    85.658     20725     
2761.2     5.63       309        881        0          0          267.144    15400      0          -320       2349.66    85.665     20727     
2761.4     5.94       291        1179       0          0          267.102    15398      0          -300       2347.2     85.673     20729     
2761.6     6.51       334        1063       0          0          267.109    15398      0          -260       2344.61    85.677     20730     
2761.8     6.95       380        1077       0          0          267.102    15398      0          -280       2342.16    85.682     20731     
2762       7.24       384        1176       0          0          267.15     15400      0          -260       2339.57    85.691     20734     
2762.2     7.52       428        795        0          0          267.163    15401      0          -280       2337.14    85.693     20734     
2762.4     7.38       457        917        0          0          267.156    15401      0          -320       2334.56    85.698     20736     
2762.6     6.94       423        1403       0          0          267.183    15402      0          -300       2332.1     85.708     20738     
2762.8     6.67       392        1246       0          0          267.203    15403      0          -260       2329.53    85.715     20740     
2763       6.72       344        1531       0          0          267.203    15403      0          -300       2326.93    85.716     20740     
2763.2     7.26       371        7215       0          0          267.237    15405      0          -320       2324.46    85.718     20741     
2763.4     7.65       441        2108       0          0          267.244    15405      0          -320       2321.88    85.723     20742     
2763.6     7.61       438        1079       0          0          267.25     15405      0          -260       2319.42    85.733     20745     
2763.8     7.61       432        902        0          0          267.284    15407      0          -260       2316.85    85.735     20745     
2764       7.57       447        1053       0          0          267.311    15408      0          -260       2314.41    85.745     20748     
2764.2     7.39       439        981        0          0          267.304    15408      0          -260       2311.82    85.749     20749     
2764.4     7.25       417        1418       0          0          267.339    15410      0          -280       2309.24    85.756     20751     
2764.6     7.24       414        1645       0          0          267.324    15409      0          -320       2306.78    85.764     20753     
2764.8     7.32       402        1633       0          0          267.317    15409      0          -320       2304.32    85.768     20754     
2765       7.47       418        1744       0          0          267.365    15411      0          -300       2301.75    85.771     20755     
2765.2     7.47       441        1071       0          0          267.392    15412      0          -300       2299.18    85.775     20756     
2765.4     7.45       415        1234       0          0          267.427    15414      0          -280       2296.71    85.779     20757     
2765.6     7.69       406        985        0          0          267.419    15414      0          -275       2294.18    85.783     20758     
2765.8     8.01       439        985        0          0          267.426    15414      0          -300       2291.69    85.79      20760     
2766       7.9        483        943        0          0          267.439    15415      0          -320       2289.24    85.797     20762     
2766.2     7.47       471        1068       0          0          267.488    15417      0          -280       2286.66    85.801     20763     
2766.4     7.07       435        1167       0          0          267.508    15418      0          -320       2284.07    85.806     20764     
2766.6     6.71       413        1006       0          0          267.501    15418      0          -320       2281.62    85.806     20764     
2766.8     6.45       388        1145       0          0          267.542    15420      0          -275       2279.09    85.812     20766     
