~Version
 VERS              .         2.0                           : CWLS LOG ASCII STANDARD - VERSION 2.0
 WRAP              .         NO                            : ONE LINE PER DEPTH STEP
 DLM               .         SPACE                         : DELIMITING CHARACTER(SPACE TAB OR COMMA)
~Well Information
#_______________________________________________________________________________
#
#PARAMETER_NAME    .UNIT     VALUE                         : DESCRIPTION
#_______________________________________________________________________________
STRT               .M        2668.8                        : First reference value
STOP               .M        2773                          : Last reference value
STEP               .M        0.1999999                     : Step increment
NULL               .         -9999                         : Missing value
COMP               .                                       : Company
WELL               .         616                           : Well name
FLD                .                                       : Field
LOC                .                                       : Location
CNTY               .                                       : County
STAT               .                                       : State
CTRY               .                                       : Country
SRVC               .                                       : Service Company
DATE               .                                       : Date
API                .                                       : API number
PROJECT_UPGRADE_TIME .         2021-03-18T21_24_50           : 
group              .         Good                          : 
~Parameter Information Block
#_______________________________________________________________________________
#
#PARAMETER_NAME    .UNIT     VALUE                         : DESCRIPTION
#_______________________________________________________________________________
SET                .         D0403_D                       : 
OTHER              .         Прибор_ АКП4_90               : 
OTHER_2            .         Номер прибора_ 56             : 
OTHER_3            .         Режим_ АКП4_90 - все каналы   : 
OTHER_4            .         Форма_ Г-1                    : 
OTHER_5            .         Тарировки_                    : 
OTHER_6            .         TM.GRD = 0.00379*TM$.UE + 7.11: 
OTHER_7            .         MN.ATM = (8e-006*TM.GRD + 0.02)*(MN$.UE + -8*TM.GRD + -1800): 
OTHER_8            .         GK.MKR/H = GK$.UE / 57.17 + 0 : 
PROJECT_UPGRADE_TIME .         2021-03-18T21_24_49           : 
TLFamily_DEPT      .         Measured Depth                : 
TLFamily_GK        .         Gamma Ray                     : 
TLFamily_GK$       .                                       : 
TLFamily_LM        .         Casing Collar locator         : 
TLFamily_METKA     .                                       : 
TLFamily_METKA_1   .                                       : 
TLFamily_MN        .                                       : 
TLFamily_MN$       .                                       : 
TLFamily_RCOR      .                                       : 
TLFamily_SPID      .         Spontaneous Potential         : 
TLFamily_TIME      .         Time                          : 
TLFamily_TM        .         Temperature                   : 
TLFamily_TM$       .         Temperature                   : 
group              .         second                        : 
~Curve Information
#_______________________________________________________________________________
#
#LOGNAME           .UNIT     LOG_ID                        : DESCRIPTION
#_______________________________________________________________________________
DEPT               .M                                      : 1 Глубина, м -    0.0 см 
GK                 .MKR/H                                  : 12 Гамма-активность, мкр./ч -   65.0 см 
GK$                .UE                                     : 9 Гамма-активность, усл.ед. -   65.0 см 
LM                 .                                       : 8 Локатор муфт,  -   30.0 см 
METKA              .                                       : 3 Метки,  -    0.0 см 
METKA_1            .                                       : 13 Маркеры - 65 см 
MN                 .ATM                                    : 11 Давление, атм. -  140.0 см 
MN$                .UE                                     : 7 Давление, усл.ед. -  140.0 см 
RCOR               .CM/KM                                  : 5 Коррекция по ролику, см/км -    0.0 см 
SPID               .M/H                                    : 2 Скорость, м/час -    0.0 см 
TIME               .S                                      : 4 Время, сек -    0.0 см 
TM                 .GRD                                    : 10 Температура, °C -  145.0 см 
TM$                .UE                                     : 6 Температура, усл.ед. -  145.0 см 
~Ascii
# ...
2691.2     5.83       358        454        0          0          259.244    15012      0          -300       2562.52    83.741     20219     
2691.4     5.87       314        455        0          0          259.222    15011      0          -320       2560.07    83.751     20222     
2691.6     6.01       333        431        0          0          259.256    15013      0          -260       2557.62    83.767     20226     
2691.8     6.09       340        506        0          0          259.303    15015      0          -260       2555.22    83.778     20229     
2692       6.07       357        484        0          0          259.316    15016      0          -280       2552.75    83.789     20232     
2692.2     6.06       342        416        0          0          259.343    15017      0          -260       2550.3     83.801     20235     
2692.4     6.06       350        408        0          0          259.321    15016      0          -260       2547.88    83.812     20238     
2692.6     6.01       350        409        0          0          259.355    15018      0          -320       2545.54    83.823     20241     
2692.8     5.99       337        492        0          0          259.383    15019      0          -300       2543.09    83.831     20243     
2693       5.97       352        405        0          0          259.382    15019      0          -320       2540.64    83.835     20244     
2693.2     5.84       344        479        0          0          259.402    15020      0          -320       2538.19    83.849     20248     
2693.4     5.72       336        468        0          0          259.415    15021      0          -290       2535.82    83.857     20250     
2693.6     5.68       317        452        0          0          259.422    15021      0          -320       2533.44    83.865     20252     
2693.8     5.86       307        509        0          0          259.468    15023      0          -320       2530.99    83.873     20254     
2694       6.21       336        443        0          0          259.483    15024      0          -280       2528.56    83.884     20257     
2694.2     6.44       353        518        0          0          259.516    15026      0          -300       2526.11    83.894     20260     
2694.4     6.65       360        476        0          0          259.523    15026      0          -320       2523.66    83.903     20262     
2694.6     6.9        386        457        0          0          259.556    15028      0          -320       2521.34    83.911     20264     
2694.8     7.06       378        435        0          0          259.583    15029      0          -290       2518.84    83.926     20268     
2695       7.42       401        447        0          0          259.603    15030      0          -320       2516.45    83.933     20270     
2695.2     7.74       445        494        0          0          259.603    15030      0          -260       2514.01    83.941     20272     
2695.4     7.66       462        377        0          0          259.609    15030      0          -280       2511.64    83.947     20274     
2695.6     7.3        433        367        0          0          259.615    15031      0          -320       2509.23    83.96      20277     
2695.8     7.04       418        437        0          0          259.684    15034      0          -305       2506.87    83.967     20279     
2696       6.79       415        575        0          0          259.683    15034      0          -320       2504.38    83.975     20281     
2696.2     6.35       336        885        0          0          259.714    15036      0          -280       2501.92    83.983     20283     
2696.4     6.78       346        4091       0          0          259.716    15036      0          -300       2499.58    83.994     20286     
2696.6     7.43       373        4950       0          0          259.723    15036      0          -320       2497.01    83.999     20287     
2696.8     7.58       435        453        0          0          259.763    15038      0          -320       2494.68    84.012     20291     
2697       7.49       439        413        0          0          259.804    15040      0          -280       2492.24    84.024     20294     
2697.2     7.29       436        674        0          0          259.808    15040      0          -290       2489.86    84.032     20296     
2697.4     7.19       419        374        0          0          259.823    15041      0          -320       2487.45    84.044     20299     
2697.6     7.26       402        443        0          0          259.823    15041      0          -260       2485.04    84.053     20302     
2697.8     7.34       413        513        0          0          259.87     15043      0          -280       2482.59    84.07      20306     
2698       7.48       411        424        0          0          259.862    15043      0          -320       2480.15    84.086     20310     
2698.2     7.65       419        346        0          0          259.881    15044      0          -260       2477.8     84.103     20315     
2698.4     7.73       447        406        0          0          259.929    15046      0          -320       2475.38    84.111     20317     
2698.6     7.49       464        397        1          0          259.922    15046      0          -260       2472.94    84.123     20320     
2698.8     7.15       429        628        0          0          259.942    15047      0          -320       2470.49    84.132     20322     
2699       7.19       381        471        0          0          259.961    15048      0          -320       2468.06    84.146     20326     
2699.2     7.54       408        409        0          0          259.995    15050      0          -320       2465.74    84.159     20330     
2699.4     7.73       437        460        0          0          260.007    15050      0          -320       2463.29    84.18      20335     
2699.6     7.81       436        1903       0          0          259.99     15049      0          -320       2460.84    84.191     20338     
2699.8     7.83       464        551        1          0          259.999    15050      0          -300       2458.52    84.2       20340     
2700       7.59       462        454        0          0          260.067    15053      0          -320       2455.32    84.216     20345     
2700.2     7.29       421        486        0          0          260.108    15055      0          -320       2452.88    84.225     20347     
2700.4     7.33       399        482        0          0          260.1      15055      0          -305       2450.39    84.238     20350     
2700.6     7.59       418        490        0          0          260.1      15055      0          -320       2447.98    84.246     20353     
2700.8     7.88       431        514        0          0          260.119    15056      0          -280       2445.53    84.263     20357     
2701       8.11       445        449        0          0          260.159    15058      0          -320       2443.1     84.282     20362     
2701.2     8.18       476        456        0          0          260.152    15058      0          -320       2440.65    84.29      20364     
2701.4     8.09       468        565        0          0          260.178    15059      0          -320       2438.33    84.302     20367     
2701.6     7.99       470        464        0          0          260.164    15058      0          -280       2435.89    84.322     20373     
2701.8     7.76       470        416        0          0          260.213    15061      0          -320       2433.44    84.335     20376     
2702       7.56       430        475        1          0          260.217    15061      0          -320       2431.09    84.354     20381     
2702.2     7.6        428        537        0          0          260.25     15063      0          -260       2428.68    84.372     20386     
