~Version
 VERS              .         2.0                           : CWLS LOG ASCII STANDARD - VERSION 2.0
 WRAP              .         NO                            : ONE LINE PER DEPTH STEP
 DLM               .         SPACE                         : DELIMITING CHARACTER(SPACE TAB OR COMMA)
~Well Information
#_______________________________________________________________________________
#
#PARAMETER_NAME    .UNIT     VALUE                         : DESCRIPTION
#_______________________________________________________________________________
STRT               .M        5.8                           : First reference value
STOP               .M        2774.6                        : Last reference value
STEP               .M        0.2                           : Step increment
NULL               .         -9999                         : Missing value
COMP               .                                       : Company
WELL               .         616                           : Well name
FLD                .                                       : Field
LOC                .                                       : Location
CNTY               .                                       : County
STAT               .                                       : State
CTRY               .                                       : Country
SRVC               .                                       : Service Company
DATE               .                                       : Date
API                .                                       : API number
PROJECT_UPGRADE_TIME .         2021-03-18T21_24_50           : 
group              .         Good                          : 
~Parameter Information Block
#_______________________________________________________________________________
#
#PARAMETER_NAME    .UNIT     VALUE                         : DESCRIPTION
#_______________________________________________________________________________
SET                .         D1747_D                       : 
OTHER              .         Программное обеспечение станции MONITOR-386EX 25/12/99 15_08_10   BGF V52 22/08/01 16_56_30   3.1_SNGF___BGF_N_111239: 
OTHER_10           .         Тарировки_                    : 
OTHER_11           .         <_techsia_sc_> Постоянная времени фильтра ГК  3.0 сек, kf=0.016529: 
OTHER_12           .         <_techsia_sc_> Постоянная времени фильтра ННК  3.0 сек, kf=0.016529: 
OTHER_13           .         GK.MKR/H = GK$.IMP/476        : 
OTHER_14           .         WSAT.PERC = -12.5 + 78.0 * (NKT2$.IMP / NKT1$.IMP) * 1731/33716: 
OTHER_15           .         NKT2.PRIV = NKT2$.IMP/33716   : 
OTHER_16           .         NKT1.PRIV = NKT1$.IMP/1731    : 
OTHER_2            .         Kedr.exe версия 3.3.2.32      : 
OTHER_3            .         KedrData.dll версия 3.3.2.17  : 
OTHER_4            .         Драйвер версия 2.1.1.9        : 
OTHER_5            .         Мнемоники версия 3.2 S        : 
OTHER_6            .         Прибор_ СРК-73Ц-1N            : 
OTHER_7            .         Номер прибора_ 906            : 
OTHER_8            .         Режим_ с локатором            : 
OTHER_9            .         Форма_ 623-1                  : 
PROJECT_UPGRADE_TIME .         2021-03-18T21_24_49           : 
TLFamily_DEPT      .         Measured Depth                : 
TLFamily_GK        .         Gamma Ray                     : 
TLFamily_GK$       .                                       : 
TLFamily_LM        .         Casing Collar locator         : 
TLFamily_METKA     .                                       : 
TLFamily_NKT1      .         Neutron Far                   : 
TLFamily_NKT1$     .         Neutron Far                   : 
TLFamily_NKT2      .         Neutron Near                  : 
TLFamily_NKT2$     .         Neutron Near                  : 
TLFamily_RCOR      .                                       : 
TLFamily_SPID      .         Spontaneous Potential         : 
TLFamily_TENS      .         Cable Tension                 : 
TLFamily_TIME      .         Time                          : 
TLFamily_WSAT      .         Neutron Porosity              : 
group              .         prim                          : 
~Curve Information
#_______________________________________________________________________________
#
#LOGNAME           .UNIT     LOG_ID                        : DESCRIPTION
#_______________________________________________________________________________
DEPT               .M                                      : 1 Глубина, м -    0.0 см 
GK                 .MKR/H                                  : 11 Гамма-активность, мкр./ч -   97.0 см 
GK$                .IMP                                    : 9 Гамма-активность, имп/мин -   97.0 см 
LM                 .                                       : 10 Локатор муфт,  -   27.0 см 
METKA              .                                       : 3 Метки,  -    0.0 см 
NKT1               .PRIV                                   : 14 Большой зонд приведенный,  -  278.0 см 
NKT1$              .IMP                                    : 8 Большой зонд, имп/мин -  278.0 см 
NKT2               .PRIV                                   : 13 Малый зонд приведенный,  -  289.0 см 
NKT2$              .IMP                                    : 7 Малый зонд, имп/мин -  289.0 см 
RCOR               .CM/KM                                  : 5 Коррекция по ролику, см/км -    0.0 см 
SPID               .M/H                                    : 2 Скорость, м/час -    0.0 см 
TENS               .T                                      : 6 Натяжение кабеля, т -    0.0 см 
TIME               .S                                      : 4 Время, сек -    0.0 см 
WSAT               .PERC                                   : 12 Водонасыщенная пористость, % -  284.0 см 
~Ascii
# ...
557        3.87       1841       42         0          0.76       1312.5     0.7        23452.67   -463       -700       0          27100.37   26.75     
557.2      3.91       1863       87         0          0.72       1245.78    0.69       23397.95   -463       -700       0          27099.32   27.72     
557.4      3.82       1819       46         0          0.7        1216.08    0.68       22983.34   -463       -685       0          27098.32   27.47     
557.6      3.66       1741       65         0          0.74       1276.99    0.7        23584.72   -463       -700       0          27097.26   28.42     
557.8      3.55       1687       15         0          0.7        1205.67    0.69       23404.98   -463       -700       0          27096.26   27.09     
558        3.59       1711       49         0          0.69       1196.95    0.69       23372.74   -463       -700       0          27095.24   27.94     
558.2      3.77       1796       78         0          0.66       1139.62    0.69       23314.71   -463       -641       0          27094.21   25.81     
558.4      3.81       1814       52         0          0.7        1209.08    0.7        23727.53   -463       -700       0          27093.16   26.08     
558.6      3.84       1829       29         0          0.76       1309.53    0.71       24073.26   -463       -700       0          27092.11   27.88     
558.8      3.77       1796       96         0          0.72       1247.12    0.71       23998.18   -463       -690       0          27091.11   27.15     
559        3.89       1854       77         0          0.75       1295.49    0.72       24174.18   -463       -700       0          27090.05   26.21     
559.2      4.07       1935       36         0          0.74       1285.96    0.7        23720.4    -463       -766       0          27089      24.85     
559.4      4.08       1940       94         0          0.64       1103.5     0.7        23473.84   -463       -700       0          27088      23.69     
559.6      3.95       1882       80         0          0.71       1233.71    0.69       23386.74   -463       -700       0          27087      26.17     
559.8      3.85       1833       39         1          0.74       1275.96    0.72       24125.55   -463       -700       0          27086      29.2      
560        4.1        1952       79         0          0.75       1301.56    0.73       24519.92   -463       -700       0          27085.01   30.66     
560.2      4.03       1919       43         0          0.7        1210.95    0.72       24125.42   -464       -695       0          27084      29.63     
560.4      3.97       1890       53         0          0.7        1206.43    0.71       24038.21   -464       -700       0          27082.99   29.66     
560.6      3.87       1840       45         0          0.72       1246.62    0.71       23846.72   -464       -700       0          27081.89   28.43     
560.8      3.67       1745       52         0          0.7        1214.58    0.71       23951.87   -464       -700       0          27080.83   28.95     
561        3.3        1573       35         0          0.66       1147.97    0.71       23798.59   -464       -700       0          27079.83   28.31     
561.2      3.47       1652       68         0          0.67       1161.05    0.72       24357.96   -464       -700       0          27078.83   32.5      
561.4      3.36       1600       32         0          0.67       1167.03    0.72       24347.53   -464       -700       0          27077.8    32.67     
561.6      3.59       1710       41         0          0.68       1184.34    0.71       23956.13   -464       -700       0          27076.78   30.2      
561.8      3.63       1729       92         0          0.73       1261.14    0.7        23723.1    -464       -641       0          27075.72   28.07     
562        3.64       1732       52         0          0.74       1283.9     0.71       23861      -464       -740       0          27074.72   30.44     
562.2      3.68       1753       36         0          0.78       1349.59    0.71       23778.7    -464       -700       0          27073.7    30.75     
562.4      3.9        1856       43         0          0.72       1244.39    0.71       23870.41   -464       -695       0          27072.69   29.44     
562.6      4.27       2034       72         0          0.78       1347.78    0.71       23964.6    -464       -700       0          27071.67   27.69     
562.8      4.12       1959       41         0          0.68       1175.01    0.71       23808.15   -464       -700       0          27070.64   24.52     
563        4.36       2077       61         0          0.71       1226.42    0.7        23580.94   -464       -700       0          27069.62   27.04     
563.2      4.2        2000       72         0          0.7        1211.21    0.7        23525.7    -464       -700       0          27068.59   25.92     
563.4      3.9        1856       42         0          0.65       1119.83    0.7        23548.57   -464       -654       0          27067.54   24.81     
563.6      4.01       1910       38         0          0.62       1070.2     0.69       23326.53   -464       -700       0          27066.51   23.61     
563.8      4.06       1933       36         0          0.58       1002.71    0.69       23153.81   -464       -700       0          27065.48   23.8      
564        3.69       1758       85         0          0.56       963.81     0.7        23509.13   -464       -700       0          27064.46   24.32     
564.2      3.78       1798       38         0          0.59       1014.35    0.68       23070.83   -464       -700       0          27063.46   24.4      
564.4      3.65       1737       39         0          0.59       1025.87    0.68       22987.64   -464       -700       0          27062.4    24.87     
564.6      3.38       1609       20         0          0.6        1042.02    0.69       23188.98   -464       -686       0          27061.38   22.79     
564.8      3.49       1660       2249       0          0.61       1053.36    0.68       22828.85   -464       -700       0          27060.3    23.83     
565        3.67       1745       305        0          0.62       1080       0.69       23146.85   -464       -700       0          27059.3    24.16     
565.2      3.61       1720       29         0          0.73       1259.28    0.68       23091.05   -464       -700       0          27058.3    23.53     
565.4      3.97       1887       28         0          0.75       1295.94    0.69       23347.87   -464       -700       0          27057.25   26.95     
565.6      3.76       1791       47         0          0.8        1381.23    0.69       23352.54   -464       -700       0          27056.25   25.62     
565.8      3.72       1772       36         0          0.84       1455.31    0.69       23377.66   -464       -700       0          27055.26   27.26     
566        3.96       1886       23         0          0.83       1432.38    0.71       23777.05   -464       -700       0          27054.24   28.25     
566.2      3.96       1884       40         0          0.73       1267.86    0.71       23885.03   -464       -698       0          27053.19   26.72     
566.4      3.74       1780       16         0          0.75       1301.47    0.71       23774.23   -464       -700       0          27052.14   30.17     
566.6      3.88       1848       33         0          0.7        1215       0.7        23663.84   -464       -699       0          27051.09   28.41     
566.8      3.79       1803       29         0          0.69       1189.58    0.71       23825.93   -464       -669       0          27050.09   26.8      
567        3.76       1792       31         0          0.64       1101.07    0.69       23334.27   -464       -700       0          27049.03   23.43     
567.2      3.8        1808       57         0          0.63       1092.15    0.69       23360.68   -464       -700       0          27047.97   22.43     
