~Version
 VERS              .         2.0                           : CWLS LOG ASCII STANDARD - VERSION 2.0
 WRAP              .         NO                            : ONE LINE PER DEPTH STEP
 DLM               .         SPACE                         : DELIMITING CHARACTER(SPACE TAB OR COMMA)
~Well Information
#_______________________________________________________________________________
#
#PARAMETER_NAME    .UNIT     VALUE                         : DESCRIPTION
#_______________________________________________________________________________
STRT               .M        2666.2                        : First reference value
STOP               .M        2778.8                        : Last reference value
STEP               .M        0.2000002                     : Step increment
NULL               .         -9999                         : Missing value
COMP               .                                       : Company
WELL               .         616                           : Well name
FLD                .                                       : Field
LOC                .                                       : Location
CNTY               .                                       : County
STAT               .                                       : State
CTRY               .                                       : Country
SRVC               .                                       : Service Company
DATE               .                                       : Date
API                .                                       : API number
PROJECT_UPGRADE_TIME .         2021-03-18T21_24_50           : 
group              .         Good                          : 
~Parameter Information Block
#_______________________________________________________________________________
#
#PARAMETER_NAME    .UNIT     VALUE                         : DESCRIPTION
#_______________________________________________________________________________
SET                .         D0400_D                       : 
OTHER              .         Прибор_ АКП4_90               : 
OTHER_2            .         Номер прибора_ 56             : 
OTHER_3            .         Режим_ АКП4_90 - все каналы   : 
OTHER_4            .         Форма_ Г-1                    : 
OTHER_5            .         Тарировки_                    : 
OTHER_6            .         TM.GRD = 0.00379*TM$.UE + 7.11: 
OTHER_7            .         MN.ATM = (8e-006*TM.GRD + 0.02)*(MN$.UE + -8*TM.GRD + -1800): 
OTHER_8            .         GK.MKR/H = GK$.UE / 57.17 + 0 : 
PROJECT_UPGRADE_TIME .         2021-03-18T21_24_49           : 
TLFamily_DEPT      .         Measured Depth                : 
TLFamily_GK        .         Gamma Ray                     : 
TLFamily_GK$       .                                       : 
TLFamily_LM        .         Casing Collar locator         : 
TLFamily_METKA     .                                       : 
TLFamily_METKA_1   .                                       : 
TLFamily_MN        .                                       : 
TLFamily_MN$       .                                       : 
TLFamily_RCOR      .                                       : 
TLFamily_SPID      .         Spontaneous Potential         : 
TLFamily_TIME      .         Time                          : 
TLFamily_TM        .         Temperature                   : 
TLFamily_TM$       .         Temperature                   : 
group              .         second                        : 
~Curve Information
#_______________________________________________________________________________
#
#LOGNAME           .UNIT     LOG_ID                        : DESCRIPTION
#_______________________________________________________________________________
DEPT               .M                                      : 1 Глубина, м -    0.0 см 
GK                 .MKR/H                                  : 12 Гамма-активность, мкр./ч -   65.0 см 
GK$                .UE                                     : 9 Гамма-активность, усл.ед. -   65.0 см 
LM                 .                                       : 8 Локатор муфт,  -   30.0 см 
METKA              .                                       : 3 Метки,  -    0.0 см 
METKA_1            .                                       : 13 Маркеры - 65 см 
MN                 .ATM                                    : 11 Давление, атм. -  140.0 см 
MN$                .UE                                     : 7 Давление, усл.ед. -  140.0 см 
RCOR               .CM/KM                                  : 5 Коррекция по ролику, см/км -    0.0 см 
SPID               .M/H                                    : 2 Скорость, м/час -    0.0 см 
TIME               .S                                      : 4 Время, сек -    0.0 см 
TM                 .GRD                                    : 10 Температура, °C -  145.0 см 
TM$                .UE                                     : 6 Температура, усл.ед. -  145.0 см 
~Ascii
# ...
2767       6.22       375        844        0          0          267.574    15421      0          -280       2276.6     85.816     20767     
2767.2     6.2        342        2611       0          0          267.562    15421      0          -260       2274.15    85.817     20767     
2767.4     6.39       345        1561       0          0          267.631    15424      0          -320       2271.57    85.825     20769     
2767.6     6.47       373        1486       0          0          267.63     15424      0          -260       2269.11    85.828     20770     
2767.8     6.64       345        962        0          0          267.623    15424      0          -300       2266.53    85.83      20770     
2768       6.92       378        1257       0          0          267.658    15425      0          -260       2264.08    85.832     20771     
2768.2     6.78       419        784        0          0          267.682    15427      0          -320       2261.51    85.828     20770     
2768.4     6.51       393        2965       0          0          267.665    15426      0          -260       2258.95    85.832     20771     
2768.6     6.44       365        1724       0          0          267.712    15428      0          -260       2256.47    85.842     20774     
2768.8     6.58       356        970        0          0          267.719    15428      0          -300       2253.88    85.843     20774     
2769       6.86       364        1131       0          0          267.712    15428      0          -260       2251.44    85.843     20774     
2769.2     7.24       375        935        0          0          267.74     15429      0          -280       2248.86    85.847     20775     
2769.4     7.5        410        1328       0          0          267.815    15433      0          -320       2246.41    85.851     20776     
2769.6     7.57       436        1455       0          0          267.767    15431      0          -300       2243.82    85.851     20776     
2769.8     7.28       457        1626       1          0          267.805    15432      0          -280       2241.36    85.854     20777     
2770       7.02       412        2136       0          0          267.843    15434      0          -260       2238.91    85.855     20777     
2770.2     6.92       403        1199       0          0          267.815    15433      0          -280       2236.46    85.851     20776     
2770.4     6.82       401        954        0          0          267.85     15435      0          -320       2233.97    85.855     20777     
2770.6     6.92       373        1450       0          0          267.884    15436      0          -280       2231.42    85.851     20776     
2770.8     6.98       401        1224       0          0          267.857    15435      0          -280       2228.96    85.847     20775     
2771       6.81       415        1024       0          0          267.905    15437      0          -260       2226.51    85.847     20775     
2771.2     6.61       395        1378       0          0          267.947    15439      0          -300       2223.94    85.84      20773     
2771.4     6.46       381        1449       0          0          267.9      15437      0          -320       2221.48    85.825     20769     
2771.6     6.42       365        1414       0          0          267.942    15439      0          -320       2218.9     85.813     20766     
2771.8     6.72       337        1190       0          0          267.998    15442      0          -260       2216.46    85.82      20768     
2772       7.33       354        961        0          0          267.931    15439      0          -280       2214.01    85.867     20780     
2772.2     8.07       398        1003       0          0          267.972    15441      0          -320       2211.42    85.878     20783     
2772.4     8.49       461        1335       0          0          268.02     15443      0          -280       2208.84    85.888     20786     
2772.6     8.55       492        1088       0          0          267.957    15440      0          -260       2206.4     85.9       20789     
2772.8     8.51       490        1318       0          0          267.977    15441      0          -213       2203.81    85.912     20792     
2773       8.4        494        2406       0          0          268.08     15446      0          -260       2201.22    85.923     20795     
2773.2     8.47       465        3009       0          0          268.017    15443      0          -275       2198.73    85.932     20797     
2773.4     8.65       478        1048       0          0          268.058    15445      0          -260       2196.18    85.942     20800     
2773.6     8.6        508        666        0          0          268.16     15450      0          -260       2193.6     85.95      20802     
2773.8     8.61       486        188        0          0          268.119    15448      0          -260       2191.17    85.957     20804     
2774       8.46       508        179        0          0          268.139    15449      0          -320       2188.6     85.965     20806     
2774.2     8.37       482        179        0          0          268.235    15454      0          -260       2186.14    85.972     20808     
2774.4     8.59       458        179        0          0          268.132    15449      0          -260       2183.58    85.98      20810     
2774.6     8.73       492        180        0          0          268.158    15450      0          -300       2181.01    85.998     20815     
2774.8     8.7        505        180        0          0          268.273    15456      0          -320       2178.56    86.022     20821     
2775       8.6        498        181        0          0          268.197    15452      0          -280       2175.98    86.025     20822     
2775.2     8.61       490        181        0          0          268.218    15453      0          -320       2173.55    86.029     20823     
2775.4     8.59       496        182        0          0          268.342    15459      0          -300       2171.09    86.035     20825     
2775.6     8.45       500        180        0          0          268.203    15452      0          -260       2168.52    86.041     20826     
2775.8     8.12       489        183        0          0          268.196    15452      0          -280       2166.07    86.044     20827     
2776       8.08       461        182        0          0          268.292    15457      0          -300       2163.63    86.052     20829     
2776.2     8.4        447        181        0          0          268.175    15451      0          -300       2161.06    86.056     20830     
2776.4     8.7        466        182        0          0          268.161    15450      0          -260       2158.49    86.059     20831     
2776.6     8.56       519        182        0          0          268.36     15460      0          -300       2155.91    86.063     20832     
2776.8     8.07       519        191        0          0          268.242    15454      0          -260       2153.34    86.071     20834     
2777       8.06       443        189        0          0          268.215    15453      0          -260       2150.64    86.075     20835     
2777.2     8.35       445        184        0          0          268.422    15463      0          -260       2147.68    86.078     20836     
2777.4     8.42       482        188        0          0          268.256    15455      0          -130       2144.21    86.083     20837     
2777.6     8.39       475        196        -9999      0          268.179    15451      -9999      -9999      -9999      86.09      20839     
2777.8     8.54       476        -9999      -9999      0          268.42     15463      -9999      -9999      -9999      86.097     20841     
2778       8.73       500        -9999      -9999      0          268.178    15451      -9999      -9999      -9999      86.101     20842     
