~Version
 VERS              .         2.0                           : CWLS LOG ASCII STANDARD - VERSION 2.0
 WRAP              .         NO                            : ONE LINE PER DEPTH STEP
 DLM               .         SPACE                         : DELIMITING CHARACTER(SPACE TAB OR COMMA)
~Well Information
#_______________________________________________________________________________
#
#PARAMETER_NAME    .UNIT     VALUE                         : DESCRIPTION
#_______________________________________________________________________________
STRT               .M        0.2                           : First reference value
STOP               .M        2774.2                        : Last reference value
STEP               .M        0.2                           : Step increment
NULL               .         -9999                         : Missing value
COMP               .                                       : Company
WELL               .         616                           : Well name
FLD                .                                       : Field
LOC                .                                       : Location
CNTY               .                                       : County
STAT               .                                       : State
CTRY               .                                       : Country
SRVC               .                                       : Service Company
DATE               .                                       : Date
API                .                                       : API number
PROJECT_UPGRADE_TIME .         2021-03-18T21_24_50           : 
group              .         Good                          : 
~Parameter Information Block
#_______________________________________________________________________________
#
#PARAMETER_NAME    .UNIT     VALUE                         : DESCRIPTION
#_______________________________________________________________________________
SET                .         D1799_D_2                     : 
NPR                .                                       : 
OTHER              .         Программное обеспечение станции MONITOR-386EX 25/12/99 15_08_10   BGF V52 22/08/01 16_56_30   3.1_SNGF___BGF_N_092049: 
OTHER_10           .         Тарировки_                    : 
OTHER_11           .         TM.GRD = 0.00403*TM$.UE + -1.07: 
OTHER_12           .         MN.ATM = (9.34907e-006*TM.GRD + 0.02171)*(MN$.UE + -7.93*TM.GRD + -1787): 
OTHER_13           .         GK.MKR/H = LM. / 42.4676      : 
OTHER_14           .         GK.FLT = 0.1*GK.MKR/H[-1] + (1-0.1)*GK.MKR/H[0]: 
OTHER_2            .         Kedr.exe версия 3.4.2.51      : 
OTHER_3            .         KedrData.dll версия 3.4.2.24  : 
OTHER_4            .         Драйвер версия 2.1.1.3        : 
OTHER_5            .         Мнемоники версия 3.3 S        : 
OTHER_6            .         Прибор_ КСА-Т4                : 
OTHER_7            .         Номер прибора_ 03             : 
OTHER_8            .         Режим_ КСА-Т4                 : 
OTHER_9            .         Форма_ КВА.                   : 
PR                 .                                       : 
PROJECT_UPGRADE_TIME .         2021-03-18T21_24_49           : 
PRTY               .         ПП-603-1                      : N партии
SRV                .                                       : 
SRVC               .         Карпов                        : Начальник партии
TLFamily_DEPT      .         Measured Depth                : 
TLFamily_LM        .         Casing Collar locator         : 
TLFamily_MN        .                                       : 
TLFamily_TM        .         Temperature                   : 
group              .         second                        : 
~Curve Information
#_______________________________________________________________________________
#
#LOGNAME           .UNIT     LOG_ID                        : DESCRIPTION
#_______________________________________________________________________________
DEPT               .M                                      : Depth curve 
LM                 .е.ацп                                  : Локатор муфт,е.ацп 
MN                 .атм                                    : Манометрия, атм 
TM                 .град.C                                 : Термограмма по стволу скважины,град.C 
~Ascii
# ...
2184.2     1128.947   196.084    56.454    
2184.4     805.973    196.1      56.454    
2184.6     642.992    196.113    56.454    
2184.8     594.985    196.134    56.454    
2185       501.007    196.155    56.454    
2185.2     545.997    196.177    56.458    
2185.4     525.004    196.199    56.458    
2185.6     549.003    196.221    56.458    
2185.8     566.002    196.242    56.454    
2186       576.005    196.264    56.454    
2186.2     609.001    196.277    56.458    
2186.4     615.013    196.291    56.458    
2186.6     695.999    196.322    56.458    
2186.8     690.984    196.335    56.455    
2187       593.229    196.366    56.457    
2187.2     1998.966   196.372    56.458    
2187.4     1792.195   196.394    56.455    
2187.6     2989.982   196.414    56.457    
2187.8     2880.957   196.437    56.458    
2188       2614.898   196.459    56.458    
2188.2     1990.942   196.48     56.458    
2188.4     1637.102   196.502    56.458    
2188.6     2265.033   196.522    56.458    
2188.8     2469.873   196.524    56.458    
2189       1692.924   196.544    56.458    
2189.2     1226.049   196.567    56.458    
2189.4     1525.079   196.588    56.458    
2189.6     2008.899   196.61     56.458    
2189.8     1388.949   196.63     56.458    
2190       1077.96    196.675    56.458    
2190.2     834.98     196.678    56.458    
2190.4     711.983    196.699    56.458    
2190.6     606.999    196.721    56.458    
2190.8     601.003    196.722    56.46     
2191       620.991    196.742    56.462    
2191.2     565.997    196.763    56.461    
2191.4     550.005    196.784    56.459    
2191.6     581.996    196.805    56.462    
2191.8     556.185    196.811    56.462    
2192       1689.933   196.844    56.462    
2192.2     1277       196.871    56.461    
2192.4     1276.922   196.878    56.458    
2192.6     797        196.892    56.459    
2192.8     796.979    196.913    56.462    
2193       668.988    196.935    56.462    
2193.2     593.025    196.957    56.462    
2193.4     746        196.979    56.458    
2193.6     747.847    197        56.462    
2193.8     5930.641   197.011    56.462    
2194       3733.782   197.032    56.462    
2194.2     2397.858   197.065    56.462    
2194.4     1531.914   197.078    56.462    
2194.6     1004.965   197.096    56.462    
2194.8     787.972    197.122    56.462    
2195       617.993    197.13     56.462    
2195.2     575.002    197.151    56.462    
2195.4     588.991    197.179    56.466    
2195.6     534.002    197.211    56.466    
2195.8     546.003    197.216    56.463    
2196       563.996    197.236    56.465    
2196.2     537.997    197.259    56.464    
2196.4     521.001    197.282    56.462    
2196.6     525        197.3      56.465    
2196.8     527        197.303    56.466    
2197       523.997    197.325    56.466    
2197.2     507.004    197.346    56.466    
2197.4     533.003    197.368    56.466    
2197.6     549.001    197.389    56.466    
2197.8     555        197.411    56.466    
2198       552.99     197.434    56.466    
2198.2     491.991    197.454    56.466    
2198.4     438.001    197.476    56.466    
2198.6     442.007    197.478    56.466    
2198.8     481.999    197.497    56.466    
2199       478.007    197.52     56.466    
2199.2     519        197.54     56.466    
2199.4     521.006    197.562    56.466    
2199.6     559.998    197.585    56.466    
2199.8     548.041    197.606    56.466    
2200       799.005    197.611    56.466    
2200.2     831.979    197.626    56.466    
2200.4     704.982    197.648    56.466    
2200.6     592.997    197.671    56.466    
2200.8     576.001    197.693    56.466    
2201       583        197.714    56.466    
2201.2     582.993    197.736    56.466    
2201.4     541        197.758    56.466    
2201.6     541.003    197.78     56.466    
2201.8     560        197.789    56.466    
2202       561.988    197.813    56.466    
2202.2     488.006    197.833    56.466    
2202.4     524.014    197.856    56.466    
2202.6     607.998    197.878    56.466    
2202.8     597.008    197.899    56.466    
2203       648.015    197.922    56.466    
2203.2     738.988    197.932    56.466    
2203.4     662.997    197.964    56.466    
2203.6     641.994    197.989    56.466    
2203.8     604.983    197.997    56.466    
2204       502.001    198.018    56.466    
2204.2     510.023    198.041    56.466    
2204.4     650.649    198.063    56.466    
2204.6     4598.995   198.084    56.466    
2204.8     4567.737   198.1      56.466    
2205       2965.833   198.105    56.469    
2205.2     1950.903   198.127    56.467    
2205.4     1357.96    198.148    56.469    
2205.6     1115.974   198.169    56.468    
2205.8     956.071    198.191    56.466    
2206       1386.042   198.213    56.466    
2206.2     1638.963   198.235    56.466    
2206.4     1415.945   198.256    56.466    
2206.6     1082.955   198.256    56.466    
2206.8     809.977    198.277    56.468    
2207       672.977    198.298    56.47     
2207.2     535.987    198.321    56.469    
2207.4     454.003    198.343    56.466    
2207.6     475.007    198.365    56.466    
2207.8     519.005    198.403    56.468    
2208       548.001    198.411    56.47     
2208.2     551.996    198.428    56.469    
2208.4     527.003    198.45     56.466    
2208.6     543.999    198.456    56.466    
2208.8     537.989    198.487    56.467    
2209       472.018    198.5      56.47     
2209.2     579.078    198.53     56.466    
2209.4     1052.96    198.545    56.466    
2209.6     812.995    198.559    56.466    
2209.8     781        198.581    56.466    
2210       780.982    198.618    56.466    
2210.2     669.998    198.634    56.466    
2210.4     654.991    198.646    56.466    
2210.6     601.99     198.669    56.466    
2210.8     544.005    198.678    56.466    
2211       572.004    198.69     56.466    
2211.2     594.002    198.711    56.466    
2211.4     608.009    198.733    56.466    
2211.6     660.99     198.755    56.466    
2211.8     598.003    198.776    56.466    
2212       613.993    198.798    56.47     
2212.2     572.987    198.812    56.467    
2212.4     493.015    198.828    56.466    
2212.6     584.999    198.863    56.466    
2212.8     581.001    198.885    56.466    
2213       590.002    198.907    56.466    
2213.2     601.993    198.923    56.466    
2213.4     559.005    198.929    56.466    
2213.6     587.021    198.95     56.466    
2213.8     711.983    198.973    56.466    
2214       606.009    198.993    56.466    
2214.2     663        199.015    56.466    
2214.4     661.994    199.038    56.466    
2214.6     625        199.06     56.466    
2214.8     625.998    199.081    56.466    
2215       612.005    199.103    56.466    
2215.2     640.004    199.123    56.466    
2215.4     668.174    199.125    56.466    
2215.6     7781.521   199.145    56.466    
2215.8     4881.714   199.168    56.466    
2216       3150.823   199.212    56.466    
2216.2     2075.896   199.212    56.464    
2216.4     1446.938   199.233    56.464    
2216.6     1070.964   199.254    56.466    
2216.8     853.115    199.275    56.466    
2217       1551.927   199.297    56.466    
2217.2     1107.954   199.319    56.465    
2217.4     829.981    199.34     56.462    
2217.6     717.987    199.346    56.462    
2217.8     640.995    199.379    56.462    
2218       610.995    199.39     56.462    
2218.2     580.995    199.405    56.462    
2218.4     548        199.426    56.462    
2218.6     548        199.435    56.462    
2218.8     546.993    199.46     56.462    
2219       505.005    199.479    56.462    
2219.2     533.002    199.492    56.462    
2219.4     546.009    199.526    56.462    
2219.6     600.999    199.557    56.462    
2219.8     595.002    199.568    56.462    
2220       605.99     199.578    56.462    
2220.2     544.994    199.601    56.462    
2220.4     510.012    199.613    56.462    
