~Version
 VERS              .         2.0                           : CWLS LOG ASCII STANDARD - VERSION 2.0
 WRAP              .         NO                            : ONE LINE PER DEPTH STEP
 DLM               .         SPACE                         : DELIMITING CHARACTER(SPACE TAB OR COMMA)
~Well Information
#_______________________________________________________________________________
#
#PARAMETER_NAME    .UNIT     VALUE                         : DESCRIPTION
#_______________________________________________________________________________
STRT               .M        2659.4                        : First reference value
STOP               .M        2769.4                        : Last reference value
STEP               .M        0.2                           : Step increment
NULL               .         -9999                         : Missing value
COMP               .                                       : Company
WELL               .         616                           : Well name
FLD                .                                       : Field
LOC                .                                       : Location
CNTY               .                                       : County
STAT               .                                       : State
CTRY               .                                       : Country
SRVC               .                                       : Service Company
DATE               .                                       : Date
API                .                                       : API number
PROJECT_UPGRADE_TIME .         2021-03-18T21_24_50           : 
group              .         Good                          : 
~Parameter Information Block
#_______________________________________________________________________________
#
#PARAMETER_NAME    .UNIT     VALUE                         : DESCRIPTION
#_______________________________________________________________________________
SET                .         D1171_D                       : 
OTHER              .         Программное обеспечение станции MONITOR-386EX 25/12/99 15_08_10   BGF V52 22/08/01 16_56_30   3.2_BGF_N_3070031: 
OTHER_10           .         Тарировки_                    : 
OTHER_11           .         TM.GRD = 0.00403*TM$.UE + -1.19: 
OTHER_12           .         MN.ATM = (7.1e-006*TM.GRD + 0.02017)*(MN$.UE + -3.03*TM.GRD + -1833): 
OTHER_13           .         Id error                      : 
OTHER_2            .         Kedr.exe версия 3.4.2.51      : 
OTHER_3            .         KedrData.dll версия 3.4.2.24  : 
OTHER_4            .         Драйвер версия 2.1.1.8        : 
OTHER_5            .         Мнемоники версия 3.3 S        : 
OTHER_6            .         Прибор_ КСА-М1                : 
OTHER_7            .         Номер прибора_ 265            : 
OTHER_8            .         Режим_ КСА-М1                 : 
OTHER_9            .         Форма_ ТЕРМОМЕТР              : 
PROJECT_UPGRADE_TIME .         2021-03-18T21_24_49           : 
TLFamily_DEPT      .         Measured Depth                : 
TLFamily_GK        .         Gamma Ray                     : 
TLFamily_GK$       .                                       : 
TLFamily_LM        .         Casing Collar locator         : 
TLFamily_METKA     .                                       : 
TLFamily_MN        .                                       : 
TLFamily_MN$       .                                       : 
TLFamily_RCOR      .                                       : 
TLFamily_SPID      .         Spontaneous Potential         : 
TLFamily_STD       .                                       : 
TLFamily_TENS      .         Cable Tension                 : 
TLFamily_TIME      .         Time                          : 
TLFamily_TM        .         Temperature                   : 
TLFamily_TM$       .         Temperature                   : 
TLFamily_VGD       .         Gas Volume                    : 
group              .         prim                          : 
~Curve Information
#_______________________________________________________________________________
#
#LOGNAME           .UNIT     LOG_ID                        : DESCRIPTION
#_______________________________________________________________________________
DEPT               .M                                      : 1 Глубина, м -    0.0 см 
GK                 .MKR/H                                  : 15 Гамма-активность, мкр./ч -  110.0 см 
GK$                .UE                                     : 12 Гамма-активность, усл.ед. -  110.0 см 
LM                 .                                       : 10 Локатор муфт,  -   20.0 см 
METKA              .                                       : 3 Метки,  -    0.0 см 
MN                 .ATM                                    : 14 Давление, атм. -  160.0 см 
MN$                .UE                                     : 8 Давление, усл.ед. -  160.0 см 
RCOR               .CM/KM                                  : 5 Коррекция по ролику, см/км -    0.0 см 
SPID               .M/H                                    : 2 Скорость, м/час -    0.0 см 
STD                .                                       : 11 Приток,  -  170.0 см 
TENS               .T                                      : 6 Натяжение кабеля, т -    0.0 см 
TIME               .S                                      : 4 Время, сек -    0.0 см 
TM                 .GRD                                    : 13 Температура, °C -  180.0 см 
TM$                .UE                                     : 7 Температура, усл.ед. -  180.0 см 
VGD                .                                       : 9 Влагомер,  -  170.0 см 
~Ascii
# ...
2757.4     6.64       275        1          0          264.367    14810      -1400      606        32375      0          28184.64   90.12      22658      6558      
2757.6     6.5        275        1          0          264.385    14811      -1400      597        32375      0          28185.88   90.123     22658      6558      
2757.8     6.15       255        1          0          264.406    14812      -1400      608        32374      0          28187.06   90.129     22660      6558      
2758       6.02       255        1          0          264.409    14812      -1400      611        32374      0          28188.23   90.134     22661      6558      
2758.2     6.49       292        1          0          264.43     14813      -1400      613        32374      0          28189.42   90.136     22662      6558      
2758.4     6.72       292        1          0          264.451    14814      -1400      595        32374      0          28190.64   90.142     22663      6558      
2758.6     7.65       348        1          0          264.487    14816      -1400      601        32374      0          28191.83   90.142     22663      6558      
2758.8     7.99       348        1          0          264.493    14816      -1400      603        32374      0          28192.99   90.153     22666      6558      
2759       8.02       343        1520       0          264.514    14817      -1400      602        32374      0          28194.23   90.164     22669      6558      
2759.2     8.02       343        841        0          264.556    14819      -1400      602        32374      0          28195.4    90.179     22672      6559      
2759.4     7.45       292        35         0          264.552    14819      -1400      601        32374      0          28196.58   90.198     22677      6559      
2759.6     7.02       292        1          0          264.579    14820      -1400      606        32374      0          28197.76   90.223     22683      6558      
2759.8     7.26       335        1          0          264.604    14821      -1400      603        32375      0          28198.98   90.252     22690      6558      
2760       7.64       335        1          2          264.622    14822      -1400      602        32375      0          28200.12   90.277     22697      6558      
2760.2     7.87       346        1          0          264.644    14823      -1400      611        32374      0          28201.42   90.311     22705      6558      
2760.4     8.13       353        1          0          264.666    14824      -1400      608        32375      0          28202.71   90.351     22715      6558      
2760.6     7.97       324        1          0          264.694    14825      -1400      610        32375      0          28203.85   90.4       22727      6557      
2760.8     7.7        324        1          0          264.732    14827      -1400      611        32375      0          28205.04   90.463     22743      6557      
2761       7.72       337        1          0          264.734    14827      -1400      609        32374      0          28206.24   90.529     22759      6558      
2761.2     7.99       346        1          0          264.765    14828      -1400      605        32374      0          28207.42   90.598     22776      6558      
2761.4     8.11       352        1          0          264.799    14830      -1400      608        32374      0          28208.65   90.651     22789      6558      
2761.6     8.41       365        1          0          264.799    14830      -1400      603        32375      0          28209.81   90.689     22799      6558      
2761.8     8.5        365        1          0          264.839    14832      -1400      603        32375      0          28211.05   90.717     22806      6559      
2762       8.45       360        1          0          264.86     14833      -1400      602        32374      0          28212.19   90.741     22812      6558      
2762.2     8.51       370        1          0          264.874    14834      -1400      606        32374      0          28213.38   90.758     22816      6558      
2762.4     8.81       383        1          0          264.9      14835      -1400      608        32374      0          28214.59   90.769     22819      6558      
2762.6     8.91       383        1          0          264.905    14835      -1400      601        32374      0          28215.76   90.779     22821      6559      
2762.8     8.96       384        1          0          264.927    14836      -1400      600        32375      0          28217      90.787     22823      6559      
2763       8.97       384        1          0          264.948    14837      -1400      603        32375      0          28218.12   90.798     22826      6560      
2763.2     8.1        320        1          0          264.969    14838      -1400      600        32374      0          28219.36   90.805     22828      6560      
2763.4     7.68       320        1          0          264.99     14839      -1400      602        32374      0          28220.58   90.812     22829      6560      
2763.6     7.16       287        1          0          265.005    14840      -1400      605        32373      0          28221.72   90.819     22831      6560      
2763.8     6.86       287        1          0          265.011    14840      -1400      609        32374      0          28222.92   90.827     22833      6559      
2764       6.72       284        1          0          265.032    14841      -1400      606        32374      0          28224.12   90.837     22836      6560      
2764.2     6.67       284        1          0          265.053    14842      -1400      608        32374      0          28225.3    90.843     22837      6560      
2764.4     6.81       298        1          0          265.074    14843      -1400      606        32375      0          28226.47   90.847     22838      6559      
2764.6     6.92       298        1          0          265.095    14844      -1400      605        32374      0          28227.71   90.859     22841      6559      
2764.8     7          303        1          0          265.11     14845      -1400      610        32374      0          28228.87   90.865     22842      6560      
2765       7.06       303        1          0          265.119    14845      -1400      608        32374      0          28230.06   90.871     22844      6559      
2765.2     7.07       302        1          0          265.153    14847      -1400      612        32374      0          28231.25   90.879     22846      6560      
2765.4     7.07       302        1          0          265.158    14847      -1400      612        32374      0          28232.44   90.882     22847      6560      
2765.6     7.07       302        1          0          265.179    14848      -1400      614        32374      0          28233.59   90.885     22848      6560      
2765.8     7.11       305        1          0          265.2      14849      -1400      615        32373      0          28234.77   90.891     22849      6559      
2766       7.24       319        1          0          265.2      14849      -1400      611        32374      0          28236      90.896     22850      6561      
2766.2     7.57       330        1          0          265.233    14851      -1400      603        32374      0          28237.21   90.902     22852      6560      
2766.4     7.69       332        1          0          265.247    14851      -1400      608        32374      0          28238.42   90.91      22854      6560      
2766.6     7.93       344        1          0          265.284    14853      -1400      607        32374      0          28239.59   90.916     22855      6561      
2766.8     8.01       344        1          0          265.284    14853      -1400      604        32374      0          28240.78   90.916     22855      6560      
2767       7.54       309        1          0          265.315    14855      -1400      599        32374      0          28242.01   90.923     22857      6560      
