~Version
 VERS              .         2.0                           : CWLS LOG ASCII STANDARD - VERSION 2.0
 WRAP              .         NO                            : ONE LINE PER DEPTH STEP
 DLM               .         SPACE                         : DELIMITING CHARACTER(SPACE TAB OR COMMA)
~Well Information
#_______________________________________________________________________________
#
#PARAMETER_NAME    .UNIT     VALUE                         : DESCRIPTION
#_______________________________________________________________________________
STRT               .M        3.4                           : First reference value
STOP               .M        832.4                         : Last reference value
STEP               .M        0.2                           : Step increment
NULL               .         -9999                         : Missing value
COMP               .                                       : Company
WELL               .         616                           : Well name
FLD                .                                       : Field
LOC                .                                       : Location
CNTY               .                                       : County
STAT               .                                       : State
CTRY               .                                       : Country
SRVC               .                                       : Service Company
DATE               .                                       : Date
API                .                                       : API number
PROJECT_UPGRADE_TIME .         2021-03-18T21_24_50           : 
group              .         Good                          : 
~Parameter Information Block
#_______________________________________________________________________________
#
#PARAMETER_NAME    .UNIT     VALUE                         : DESCRIPTION
#_______________________________________________________________________________
SET                .         ULN                           : 
PROJECT_UPGRADE_TIME .         2021-03-18T21_24_50           : 
TLFamily_AK4       .                                       : 
TLFamily_ALFAK     .                                       : 
TLFamily_AMPL      .                                       : 
TLFamily_DEPTH     .         Measured Depth                : 
TLFamily_DK1       .                                       : 
TLFamily_DK2       .                                       : 
TLFamily_DTK       .         Compressional Slowness        : 
TLFamily_QCBL      .                                       : 
TLFamily_T1        .         Travel Time 1                 : 
TLFamily_T2        .         Travel Time 2                 : 
group              .         prim                          : 
~Curve Information
#_______________________________________________________________________________
#
#LOGNAME           .UNIT     LOG_ID                        : DESCRIPTION
#_______________________________________________________________________________
DEPTH              .M                                      : 0 Depth curve 
AK4                .                                       : 2 Амплитуда - Волна по колонне - Канал1 
ALFAK              .дБ/м                                   : 1 Затухание - Волна по колонне 
AMPL               .                                       : 8 Коэффициент усиления ВС 
DK1                .дБ                                     : 3 Кривая ослабления - Волна по колонне - Канал1 
DK2                .дБ                                     : 4 Кривая ослабления - Волна по колонне - Канал2 
DTK                .мкс/м                                  : 5 ДельтаТ - Волна по породе 
QCBL               .                                       : 9 Контакт цемент-колонна 
T1                 .мкс                                    : 6 Время пробега - Волна по породе - Канал1 
T2                 .мкс                                    : 7 Время пробега - Волна по породе - Канал2 
~Ascii
# ...
383        6358.818   21.275     1          14.407     25.045     188.267    2          356.602    450.736   
383.2      6810.106   22.494     1          13.81      25.057     187.897    2          357.249    451.198   
383.4      7261.394   23.651     1          13.212     25.038     186.547    2          357.897    451.171   
383.6      7261.394   23.548     1          13.212     24.987     186.897    2          357.897    451.346   
383.8      7412.087   23.267     1          13.037     24.671     187.264    2          357.9      451.532   
384        7562.78    23.002     1          12.863     24.364     187.688    2          357.902    451.747   
384.2      7491.27    22.514     1          12.949     24.206     188.781    2          357.966    452.357   
384.4      7567.961   22.591     1          12.864     24.16      188.372    2          358.03     452.217   
384.6      7644.652   22.154     1          12.779     23.857     186.834    2          358.095    451.512   
384.8      7943.546   22.282     1          12.432     23.573     186.96     2          358.098    451.579   
385        7943.546   21.696     1          12.432     23.281     188.129    2          358.098    452.164   
385.2      7943.546   21.956     1          12.432     23.411     189.39     2          358.098    452.794   
385.4      8089.052   22.647     1          12.278     23.601     188.112    2          358.6      452.657   
385.6      8234.558   23.363     1          12.123     23.804     185.973    2          359.102    452.09    
385.8      8380.063   23.666     1          11.968     23.801     184.849    2          359.604    452.029   
386        8484.203   24.163     1          11.862     23.943     185.414    2          359.163    451.871   
386.2      8290.185   24.103     1          12.07      24.122     185.152    2          358.631    451.208   
386.4      8096.166   24.168     1          12.279     24.363     187.236    2          358.098    451.717   
386.6      7855.101   24.203     1          12.53      24.632     187.475    2          358.097    451.835   
386.8      7630.418   24.321     1          12.792     24.952     189.284    2          357.956    452.599   
387        7405.735   24.215     1          13.054     25.161     187.416    2          357.816    451.525   
387.2      7294.288   23.151     1          13.178     24.753     187.767    2          357.755    451.639   
387.4      7620.736   23.012     1          12.805     24.311     187.271    2          357.905    451.541   
387.6      7387.527   22.877     1          13.104     24.543     184.124    2          360.011    452.074   
387.8      6983.991   24.326     1          13.604     25.767     182.796    2          361.946    453.345   
388        6424.334   23.848     1          14.276     26.2       179.435    2          363.901    456.036   
388.2      6642.487   26.552     1          13.995     27.271     177.798    2          364.945    460.052   
388.4      6350.594   25.799     1          14.42      27.319     179.987    2          367.032    463.233   
388.6      6058.701   28.011     1          14.844     28.85      183.322    2          369.119    464.571   
388.8      6974.236   29.865     1          13.895     28.827     184.691    2          372.144    464.491   
389        8399.816   34.382     1          12.24      29.431     179.597    2          374.126    463.925   
389.2      8920.588   36.119     1          11.522     29.113     177.581    2          370.168    461.929   
389.4      8015.776   33.998     1          12.458     28.989     181.757    2          364.23     458.078   
389.6      6890.976   28.574     1          13.676     27.495     187.296    2          358.09     454.708   
389.8      6670.985   24.817     1          13.958     26.367     188.387    2          357.889    452.083   
390        6450.994   22.635     1          14.24      25.558     187.504    2          357.688    451.44    
390.2      6580.625   23.402     1          14.071     25.772     185.859    2          357.781    450.711   
390.4      6710.256   23.674     1          13.901     25.738     187.029    2          357.873    451.389   
390.6      6839.888   23.697     1          13.732     25.58      187.659    2          357.966    451.797   
390.8      6874.645   23.367     1          13.688     25.372     187.937    2          357.981    451.951   
391        6602.283   22.391     1          14.056     25.252     186.613    2          358.032    451.34    
391.2      6329.92    21.139     1          14.425     24.994     187.892    2          358.084    452.03    
391.4      6022.799   20.18      1          14.837     24.927     188.947    2          358.12     452.594   
391.6      6192.65    20.894     1          14.602     25.049     191.009    2          358.22     453.725   
391.8      6362.501   21.795     1          14.367     25.264     189.708    2          358.32     453.175   
392        6532.352   22.394     1          14.131     25.329     188.17     2          358.42     452.506   
392.2      6678.386   21.761     1          13.943     24.824     187.275    2          358.811    452.449   
392.4      6382.184   20.344     1          14.367     24.539     188.627    2          358.676    452.991   
392.6      6085.981   18.817     1          14.79      24.199     188.998    2          358.541    453.041   
392.8      5727.413   18.169     1          15.275     24.36      189.455    2          357.864    452.592   
393        5439.98    17.535     1          15.755     24.523     191.021    2          356.647    452.159   
393.2      5152.548   17.864     1          16.236     25.167     193.602    2          355.431    452.233   
393.4      4781.447   17.531     1          16.842     25.607     193.111    2          354.365    450.922   
393.6      4781.447   18.102     1          16.842     25.892     190.465    2          354.365    449.599   
393.8      4569.225   17.856     1          17.255     26.183     189.431    2          354.302    449.019   
394        4631.609   18.49      1          17.144     26.389     187.894    2          354.944    448.892   
394.2      5016.234   19.602     1          16.518     26.319     187.66     2          356.201    450.032   
394.4      5613.082   20.919     1          15.479     25.938     184.833    2          357.521    449.938   
394.6      5512.952   19.666     1          15.659     25.492     186.551    2          357.953    451.229   
394.8      4779.446   17.458     1          17         25.73      188.042    2          357.318    451.34    
395        4045.941   15.448     1          18.341     26.065     189.195    2          356.683    451.281   
395.2      3734.807   15.511     1          18.987     26.743     186.873    2          356.23     449.667   
395.4      3555.338   16.574     1          19.438     27.725     185.831    2          355.4      448.317   
395.6      3360.32    18.052     1          19.931     28.957     186.48     2          354.093    447.334   
395.8      2947.915   17.454     1          21.096     29.823     191.3      2          351.683    447.334   
396        2714.978   18.227     1          21.811     30.924     193.794    2          350.102    447       
396.2      2497.592   15.065     1          22.482     30.015     196        2          349        447       
396.4      2497.592   15.809     1          22.482     30.387     196        2          349        447       
396.6      2497.592   14.951     1          22.482     29.958     196        2          349        447       
396.8      2497.592   17.509     1          22.482     31.237     196        2          349        447       
397        2451.589   17.957     1          22.647     31.625     196        2          349        447       
397.2      2405.586   18.604     1          22.811     32.113     196        2          349        447       
397.4      2359.584   17.384     1          22.976     31.668     196        2          349        447       
