~Version
 VERS              .         2.0                           : CWLS LOG ASCII STANDARD - VERSION 2.0
 WRAP              .         NO                            : ONE LINE PER DEPTH STEP
 DLM               .         SPACE                         : DELIMITING CHARACTER(SPACE TAB OR COMMA)
~Well Information
#_______________________________________________________________________________
#
#PARAMETER_NAME    .UNIT     VALUE                         : DESCRIPTION
#_______________________________________________________________________________
STRT               .M        138.6                         : First reference value
STOP               .M        217                           : Last reference value
STEP               .M        0.2                           : Step increment
NULL               .         -9999                         : Missing value
COMP               .                                       : Company
WELL               .         616                           : Well name
FLD                .                                       : Field
LOC                .                                       : Location
CNTY               .                                       : County
STAT               .                                       : State
CTRY               .                                       : Country
SRVC               .                                       : Service Company
DATE               .                                       : Date
API                .                                       : API number
PROJECT_UPGRADE_TIME .         2021-03-18T21_24_50           : 
group              .         Good                          : 
~Parameter Information Block
#_______________________________________________________________________________
#
#PARAMETER_NAME    .UNIT     VALUE                         : DESCRIPTION
#_______________________________________________________________________________
SET                .         D1349_D                       : 
OTHER              .         Программное обеспечение станции MONITOR-386EX 25/12/99 15_08_10   BGF V52 22/08/01 16_56_30   3.1_SNGF__BGF_								111238: 
OTHER_10           .         Тарировки_                    : 
OTHER_11           .         <_techsia_sc_> Постоянная времени фильтра  0.5 сек, kf=0.181269: 
OTHER_12           .         TM.GRD = 0.00428968*TM$.UE + -0.3284: 
OTHER_13           .         GK.MKR/H = GK$.UE / 40.16     : 
OTHER_14           .         NKT. = NKT$.UE / 1            : 
OTHER_2            .         Kedr.exe версия 3.3.2.43      : 
OTHER_3            .         KedrData.dll версия 3.3.2.22  : 
OTHER_4            .         Драйвер версия 2.1.1.3        : 
OTHER_5            .         Мнемоники версия 3.3 S        : 
OTHER_6            .         Прибор_ РК4-38                : 
OTHER_7            .         Номер прибора_ 35с            : 
OTHER_8            .         Режим_ РК4-38                 : 
OTHER_9            .         Форма_ 3                      : 
PROJECT_UPGRADE_TIME .         2021-03-18T21_24_49           : 
TLFamily_DEPT      .         Measured Depth                : 
TLFamily_GK        .         Gamma Ray                     : 
TLFamily_GK$       .                                       : 
TLFamily_LM        .         Casing Collar locator         : 
TLFamily_METKA     .                                       : 
TLFamily_NKT       .         Neutron Far                   : 
TLFamily_NKT$      .         Neutron Far                   : 
TLFamily_RCOR      .                                       : 
TLFamily_SPID      .         Spontaneous Potential         : 
TLFamily_TENS      .         Cable Tension                 : 
TLFamily_TIME      .         Time                          : 
TLFamily_TM        .         Temperature                   : 
TLFamily_TM$       .         Temperature                   : 
group              .         prim                          : 
~Curve Information
#_______________________________________________________________________________
#
#LOGNAME           .UNIT     LOG_ID                        : DESCRIPTION
#_______________________________________________________________________________
DEPT               .M                                      : 1 Глубина, м -    0.0 см 
GK                 .MKR/H                                  : 12 Гамма-активность, мкр./ч -   23.0 см 
GK$                .UE                                     : 10 Гамма-активность, усл.ед. -   23.0 см 
LM                 .                                       : 8 Локатор муфт,  -  180.0 см 
METKA              .                                       : 3 Метки,  -    0.0 см 
NKT                .                                       : 13 НКТ, прив. -  160.0 см 
NKT$               .UE                                     : 9 НКТ, усл.ед. -  160.0 см 
RCOR               .CM/KM                                  : 5 Коррекция по ролику, см/км -    0.0 см 
SPID               .M/H                                    : 2 Скорость, м/час -    0.0 см 
TENS               .T                                      : 6 Натяжение кабеля, т -    0.0 см 
TIME               .S                                      : 4 Время, сек -    0.0 см 
TM                 .GRD                                    : 11 Температура, °C -  193.0 см 
TM$                .UE                                     : 7 Температура, усл.ед. -  193.0 см 
~Ascii
# ...
149.8      2.41       99         335        0          0          0          7013       -321       0          1549.91    4.699      1172      
150        2.43       94         576        2          0          0          7013       -322       0          1547.71    4.685      1169      
150.2      2.57       99         118        0          0          0          7013       -325       0          1545.74    4.599      1149      
150.4      2.63       109        116        0          0          0          7013       -324       0          1544.78    4.613      1152      
150.6      2.59       109        96         0          0          0          7013       -308       0          1542.57    4.628      1155      
150.8      2.48       100        92         0          0          0          7013       -318       0          1540.25    4.613      1152      
151        2.49       99         153        0          0          0          7013       -322       0          1537.94    4.592      1147      
151.2      2.54       101        157        0          0          0          7013       -312       0          1535.63    4.579      1144      
151.4      2.56       103        147        0          0          0          7013       -317       0          1533.41    4.566      1141      
151.6      2.55       103        247        0          0          0          7013       -314       0          1531.1     4.553      1138      
151.8      2.51       100        361        0          0          0          7013       -317       0          1528.74    4.54       1135      
152        2.58       103        177        0          0          0          7013       -315       0          1526.47    4.496      1125      
152.2      2.62       105        444        0          0          0          7013       -321       0          1524.21    4.521      1130      
152.4      2.63       105        405        0          0          0          7013       -320       0          1521.94    4.513      1129      
152.6      2.49       108        334        0          0          0          7013       -310       0          1519.67    4.5        1126      
152.8      2.4        98         316        0          0          0          7013       -319       0          1517.41    4.469      1118      
153        2.3        97         149        0          0          0          7013       -317       0          1515       4.42       1107      
153.2      2.11       91         110        0          0          0          7013       -313       0          1512.78    4.425      1108      
153.4      2.08       74         196        0          0          0          7013       -319       0          1510.62    4.403      1103      
153.6      2.48       90         442        0          0          0          7013       -314       0          1508.25    4.403      1103      
153.8      2.94       124        282        0          0          0          7013       -311       0          1505.87    4.377      1097      
154        2.55       109        342        0          0          0          7013       -316       0          1503.68    4.349      1090      
154.2      2.18       84         184        0          0          0          7013       -317       0          1501.41    4.377      1097      
154.4      2.43       94         209        0          0          0          7013       -313       0          1499.07    4.33       1086      
154.6      2.76       108        371        0          0          0          7013       -305       0          1496.88    4.32       1084      
154.8      3.01       111        398        0          0          0          7013       -307       0          1494.42    4.334      1087      
155        3.24       120        179        0          0          0          7013       -315       0          1492.16    4.303      1080      
155.2      3.67       128        214        0          0          0          7013       -311       0          1489.97    4.302      1079      
155.4      4.13       153        131        0          0          0          7013       -307       0          1487.63    4.27       1072      
155.6      4.33       178        247        0          0          0          7013       -316       0          1485.35    4.287      1076      
155.8      4.14       172        231        0          0          0          7013       -311       0          1483.05    4.274      1073      
156        3.94       161        343        0          0          0          7013       -316       0          1480.83    4.272      1072      
156.2      3.84       154        2232       0          0          0          7013       -322       0          1478.42    4.189      1053      
156.4      3.84       155        7798       0          0          0          7013       -308       0          1476.11    4.234      1064      
156.6      3.79       152        108        0          0          0          7013       -309       0          1473.89    4.18       1051      
156.8      3.82       153        157        0          0          0          7013       -312       0          1471.63    4.197      1055      
157        3.85       153        134        0          0          0          7013       -317       0          1469.26    4.193      1054      
157.2      4.02       155        92         0          0          0          7013       -321       0          1466.95    4.173      1049      
157.4      4.31       159        82         0          0          0          7013       -315       0          1464.68    4.158      1046      
157.6      4.5        176        70         0          0          0          7013       -303       0          1462.41    4.146      1043      
157.8      4.53       183        70         0          0.002      0          7013       -306       0          1460.2     4.141      1042      
158        4.46       182        61         0          0.009      0          7013       -314       0          1457.89    4.137      1041      
158.2      4.31       178        54         0          0.04       0          7013       -312       0          1455.47    4.081      1028      
158.4      4.14       168        206        0          0.179      0          7013       -304       0          1453.36    4.094      1031      
158.6      4.09       164        65         0          0.783      1          7013       -313       0          1450.95    4.049      1020      
158.8      4.09       165        162        0          0          0          7013       -312       0          1448.63    4.051      1021      
159        4.09       157        97         0          0          0          7013       -304       0          1446.32    4.06       1023      
159.2      4.56       182        83         0          0          0          7013       -313       0          1444.15    3.985      1005      
159.4      4.65       186        106        0          0          0          7013       -316       0          1441.74    3.99       1007      
159.6      4.18       185        77         0          0          0          7013       -311       0          1439.4     3.94       995       
159.8      3.83       168        73         0          0          0          7013       -305       0          1437.21    3.977      1004      
160        3.56       154        65         2          0          0          7013       -314       0          1434.94    3.923      991       
160.2      3.3        140        99         0          0          0          7013       -309       0          1432.79    3.906      987       
160.4      3.22       125        52         0          0          0          7013       -310       0          1432.07    3.921      991       
160.6      3.27       125        79         0          0          0          7013       -318       0          1429.71    3.858      976       
160.8      3.51       130        117        0          0          0          7013       -318       0          1427.39    3.906      987       
