~Version
 VERS              .         2.0                           : CWLS LOG ASCII STANDARD - VERSION 2.0
 WRAP              .         NO                            : ONE LINE PER DEPTH STEP
 DLM               .         SPACE                         : DELIMITING CHARACTER(SPACE TAB OR COMMA)
~Well Information
#_______________________________________________________________________________
#
#PARAMETER_NAME    .UNIT     VALUE                         : DESCRIPTION
#_______________________________________________________________________________
STRT               .M        8.21                          : First reference value
STOP               .M        2780.41                       : Last reference value
STEP               .M        0.2                           : Step increment
NULL               .         -9999                         : Missing value
COMP               .                                       : Company
WELL               .         616                           : Well name
FLD                .                                       : Field
LOC                .                                       : Location
CNTY               .                                       : County
STAT               .                                       : State
CTRY               .                                       : Country
SRVC               .                                       : Service Company
DATE               .                                       : Date
API                .                                       : API number
PROJECT_UPGRADE_TIME .         2021-03-18T21_24_50           : 
group              .         Good                          : 
~Parameter Information Block
#_______________________________________________________________________________
#
#PARAMETER_NAME    .UNIT     VALUE                         : DESCRIPTION
#_______________________________________________________________________________
SET                .         ULN_2                         : 
PROJECT_UPGRADE_TIME .         2021-03-18T21_24_50           : 
TLFamily_AK4       .                                       : 
TLFamily_ALFAK     .                                       : 
TLFamily_AMPL      .                                       : 
TLFamily_DEPTH     .         Measured Depth                : 
TLFamily_DK1       .                                       : 
TLFamily_DK2       .                                       : 
TLFamily_DTK       .         Compressional Slowness        : 
TLFamily_QCBL      .                                       : 
TLFamily_T1        .         Travel Time 1                 : 
TLFamily_T2        .         Travel Time 2                 : 
group              .         prim                          : 
~Curve Information
#_______________________________________________________________________________
#
#LOGNAME           .UNIT     LOG_ID                        : DESCRIPTION
#_______________________________________________________________________________
DEPTH              .M                                      : 0 Depth curve 
AK4                .                                       : 2 Амплитуда - Волна по колонне - Канал1 
ALFAK              .дБ/м                                   : 1 Затухание - Волна по колонне 
AMPL               .                                       : 8 Коэффициент усиления ВС 
DK1                .дБ                                     : 3 Кривая ослабления - Волна по колонне - Канал1 
DK2                .дБ                                     : 4 Кривая ослабления - Волна по колонне - Канал2 
DTK                .мкс/м                                  : 5 ДельтаТ - Волна по породе 
QCBL               .                                       : 9 Контакт цемент-колонна 
T1                 .мкс                                    : 6 Время пробега - Волна по породе - Канал1 
T2                 .мкс                                    : 7 Время пробега - Волна по породе - Канал2 
~Ascii
# ...
1117.81    8430.698   23.556     1          9.523      21.301     164.092    2          343.951    425.997   
1118.01    8376.711   23.102     1          9.579      21.13      163.031    2          343.893    425.409   
1118.21    8453.044   23         1          9.501      21.002     162.997    2          344.001    425.5     
1118.41    8631.165   23.461     1          9.323      21.054     163.045    2          344.065    425.587   
1118.61    8711.405   22.946     1          9.241      20.713     164.963    2          344.159    426.64    
1118.81    8716.452   22.699     1          9.235      20.585     164.978    2          344.17     426.659   
1119.01    8639.036   22.339     1          9.312      20.481     165.323    2          344.074    426.735   
1119.21    8887.305   22.431     1          9.071      20.286     164.42     2          344.014    426.224   
1119.41    8948.822   22.778     1          9.01       20.399     165.308    2          343.963    426.617   
1119.61    9071.333   23.71      1          8.89       20.744     164.955    2          344.099    426.576   
1119.81    8934.787   24.345     1          9.02       21.192     165.169    2          343.882    426.466   
1120.01    8824.653   24.14      1          9.131      21.201     164.457    2          343.886    426.114   
1120.21    8389.102   23.026     1          9.581      21.094     164.459    2          343.796    426.025   
1120.41    7761.514   22.146     1          10.27      21.343     163.955    2          343.97     425.948   
1120.61    7007.936   21.798     1          11.167     22.066     163.801    2          343.859    425.76    
1120.81    6221.612   21.968     1          12.217     23.2       164.649    2          343.314    425.638   
1121.01    5331.37    22.46      1          13.604     24.834     165.896    2          342.712    425.66    
1121.21    4440.211   23.093     1          15.229     26.776     166.886    2          342.137    425.58    
1121.41    3577.158   23.363     1          17.116     28.798     166.302    2          341.992    425.143   
1121.61    2820.15    23.608     1          19.253     31.057     166.655    2          341.84     425.168   
1121.81    2187.681   23.813     1          21.459     33.365     168.079    2          341.33     425.37    
1122.01    1796.45    24.537     1          23.009     35.277     168.827    2          341.483    425.897   
1122.21    1684.931   26.668     1          23.521     36.855     167.329    2          341.553    425.218   
1122.41    1955.031   27.139     1          22.38      35.949     166.502    2          341.973    425.224   
1122.61    2605.615   28.354     1          20.13      34.307     165.475    2          342.033    424.771   
1122.81    3749.453   28.009     1          16.98      30.985     166.848    2          342.094    425.518   
1123.01    5161.601   28.701     1          14.078     28.429     165.344    2          342.243    424.915   
1123.21    6632.072   27.522     1          11.753     25.514     164.218    2          342.768    424.877   
1123.41    7379.542   24.811     1          10.708     23.113     161.873    2          343.228    424.164   
1123.61    7240.775   22.22      1          10.892     22.002     161.927    2          343.189    424.152   
1123.81    6434.6     20.88      1          11.935     22.375     165.632    2          342.059    424.582   
1124.01    5434.02    20.83      1          13.447     23.862     179.641    2          341.498    425.329   
1124.21    4257.235   23.866     1          15.792     27.783     184.716    2          342.231    426.526   
1124.41    2942.72    26.139     1          18.225     32.454     180.392    2          345.521    427.948   
1124.61    2172.945   28.716     1          20.353     35.871     167.281    2          347.636    429.203   
1124.81    2053.709   26.99      1          20.8       35.396     161.103    2          349.367    429.918   
1125.01    2484.232   26.585     1          20.175     33.522     163.166    2          348.453    430.036   
1125.21    2537.383   23.176     1          18.945     31.622     164.515    2          348.37     430.627   
1125.41    2958.678   23.789     1          17.767     30.878     165.953    2          347.05     430.027   
1125.61    4470.952   21.684     1          15.116     29.669     168.364    2          345.264    429.447   
1125.81    6438.253   20.702     1          12.425     27.611     172.597    2          343.326    429.625   
1126.01    7772.608   18.413     1          10.237     24.149     170.996    2          342.719    428.217   
1126.21    8024.708   18.428     1          9.957      21.329     168.971    2          342.817    427.303   
1126.41    8248.008   20.227     1          9.729      19.843     163.374    2          343.47     425.158   
1126.61    8748.376   20.877     1          9.211      19.649     164.58     2          343.555    425.845   
1126.81    9126.373   20.909     1          8.837      19.292     163.888    2          343.916    425.86    
1127.01    9172.942   21.079     1          8.792      19.332     164.485    2          343.868    426.111   
1127.21    8991.424   20.944     1          8.969      19.441     165.13     2          343.39     425.955   
1127.41    8777.27    21.447     1          9.175      19.898     163.07     2          344.005    425.54    
1127.61    8611.236   21.551     1          9.341      20.116     163.092    2          343.969    425.515   
1127.81    8286.791   21.393     1          9.689      20.385     162.014    2          344.542    425.549   
1128.01    7607.875   20.126     1          10.458     20.521     163.1      2          343.849    425.399   
1128.21    6963.141   19.538     1          11.207     20.976     164.007    2          343.216    425.22    
1128.41    6585.889   20.289     1          11.669     21.813     165.562    2          342.615    425.396   
1128.61    6600.687   21.942     1          11.65      22.621     167.642    2          342.176    425.997   
1128.81    6671.344   22.859     1          11.558     22.987     166.831    2          342.709    426.124   
1129.01    6673.527   22.475     1          11.555     22.792     165.264    2          343.225    425.858   
1129.21    6532.226   21.194     1          11.743     22.34      162.85     2          343.759    425.184   
1129.41    6259.845   20.008     1          12.116     22.12      162.502    2          343.401    424.653   
1129.61    6088.729   19.677     1          12.353     22.192     162.52     2          343.408    424.668   
1129.81    6017.958   20.598     1          12.453     22.752     164.861    2          343.026    425.457   
1130.01    6251.674   22.103     1          12.13      23.181     164.703    2          343.46     425.811   
1130.21    6315.606   23.072     1          12.041     23.577     164.498    2          342.995    425.244   
1130.41    6052.349   23.445     1          12.442     24.165     162.243    2          343.487    424.609   
1130.61    5464.818   22.798     1          13.335     24.734     162.271    2          343.037    424.173   
1130.81    5090.123   22.051     1          13.912     24.937     162.626    2          343.445    424.758   
1131.01    4972.02    21.267     1          14.112     24.746     163.741    2          342.844    424.715   
1131.21    4799.799   20.569     1          14.437     24.721     165.058    2          342.577    425.106   
1131.41    4674.935   20.814     1          14.659     25.066     164.323    2          342.543    424.705   
1131.61    4777.665   21.295     1          14.484     25.132     165.332    2          342.508    425.174   
1131.81    5231.493   23.421     1          13.699     25.409     163.898    2          342.736    424.685   
1132.01    5355.165   24.386     1          13.478     25.671     165.772    2          342.152    425.038   
1132.21    5306.98    24.446     1          13.558     25.781     163.797    2          342.645    424.544   
