~Version
 VERS              .         2.0                           : CWLS LOG ASCII STANDARD - VERSION 2.0
 WRAP              .         NO                            : ONE LINE PER DEPTH STEP
 DLM               .         SPACE                         : DELIMITING CHARACTER(SPACE TAB OR COMMA)
~Well Information
#_______________________________________________________________________________
#
#PARAMETER_NAME    .UNIT     VALUE                         : DESCRIPTION
#_______________________________________________________________________________
STRT               .M        44                            : First reference value
STOP               .M        2769.2                        : Last reference value
STEP               .M        0.2                           : Step increment
NULL               .         -9999                         : Missing value
COMP               .                                       : Company
WELL               .         616                           : Well name
FLD                .                                       : Field
LOC                .                                       : Location
CNTY               .                                       : County
STAT               .                                       : State
CTRY               .                                       : Country
SRVC               .                                       : Service Company
DATE               .                                       : Date
API                .                                       : API number
PROJECT_UPGRADE_TIME .         2021-03-18T21_24_50           : 
group              .         Good                          : 
~Parameter Information Block
#_______________________________________________________________________________
#
#PARAMETER_NAME    .UNIT     VALUE                         : DESCRIPTION
#_______________________________________________________________________________
SET                .         D1160_D                       : 
OTHER              .         Программное обеспечение станции MONITOR-386EX 25/12/99 15_08_10   BGF V52 22/08/01 16_56_30   3.2_BGF_N_3070031: 
OTHER_10           .         Тарировки_                    : 
OTHER_11           .         TM.GRD = 0.00403*TM$.UE + -1.19: 
OTHER_12           .         MN.ATM = (7.1e-006*TM.GRD + 0.02017)*(MN$.UE + -3.03*TM.GRD + -1833): 
OTHER_13           .         Id error                      : 
OTHER_2            .         Kedr.exe версия 3.4.2.51      : 
OTHER_3            .         KedrData.dll версия 3.4.2.24  : 
OTHER_4            .         Драйвер версия 2.1.1.8        : 
OTHER_5            .         Мнемоники версия 3.3 S        : 
OTHER_6            .         Прибор_ КСА-М1                : 
OTHER_7            .         Номер прибора_ 265            : 
OTHER_8            .         Режим_ КСА-М1                 : 
OTHER_9            .         Форма_ ТЕРМОМЕТР              : 
PROJECT_UPGRADE_TIME .         2021-03-18T21_24_49           : 
TLFamily_DEPT      .         Measured Depth                : 
TLFamily_GK        .         Gamma Ray                     : 
TLFamily_GK$       .                                       : 
TLFamily_LM        .         Casing Collar locator         : 
TLFamily_METKA     .                                       : 
TLFamily_MN        .                                       : 
TLFamily_MN$       .                                       : 
TLFamily_RCOR      .                                       : 
TLFamily_SPID      .         Spontaneous Potential         : 
TLFamily_STD       .                                       : 
TLFamily_TENS      .         Cable Tension                 : 
TLFamily_TIME      .         Time                          : 
TLFamily_TM        .         Temperature                   : 
TLFamily_TM$       .         Temperature                   : 
TLFamily_VGD       .         Gas Volume                    : 
group              .         prim                          : 
~Curve Information
#_______________________________________________________________________________
#
#LOGNAME           .UNIT     LOG_ID                        : DESCRIPTION
#_______________________________________________________________________________
DEPT               .M                                      : 1 Глубина, м -    0.0 см 
GK                 .MKR/H                                  : 15 Гамма-активность, мкр./ч -  110.0 см 
GK$                .UE                                     : 12 Гамма-активность, усл.ед. -  110.0 см 
LM                 .                                       : 10 Локатор муфт,  -   20.0 см 
METKA              .                                       : 3 Метки,  -    0.0 см 
MN                 .ATM                                    : 14 Давление, атм. -  160.0 см 
MN$                .UE                                     : 8 Давление, усл.ед. -  160.0 см 
RCOR               .CM/KM                                  : 5 Коррекция по ролику, см/км -    0.0 см 
SPID               .M/H                                    : 2 Скорость, м/час -    0.0 см 
STD                .                                       : 11 Приток,  -  170.0 см 
TENS               .T                                      : 6 Натяжение кабеля, т -    0.0 см 
TIME               .S                                      : 4 Время, сек -    0.0 см 
TM                 .GRD                                    : 13 Температура, °C -  180.0 см 
TM$                .UE                                     : 7 Температура, усл.ед. -  180.0 см 
VGD                .                                       : 9 Влагомер,  -  170.0 см 
~Ascii
# ...
2033.4     7.26       343        1          0          186.166    11053      -1400      1877       23724      0          14201.29   67.087     16942      6473      
2033.6     7.78       379        1          0          186.186    11054      -1400      1877       23727      0          14201.69   67.092     16943      6472      
2033.8     8.13       379        1          0          186.205    11055      -1400      1876       23731      0          14202.07   67.1       16945      6472      
2034       8.37       379        1          0          186.226    11056      -1400      1877       23734      0          14202.46   67.107     16947      6472      
2034.2     8.53       379        1          0          186.264    11058      -1400      1879       23736      0          14202.83   67.115     16949      6472      
2034.4     8.64       379        1          0          186.265    11058      -1400      1877       23737      0          14203.21   67.118     16950      6472      
2034.6     8.76       385        1          0          186.283    11059      -1400      1875       23739      0          14203.6    67.126     16952      6473      
2034.8     9.11       419        1          0          186.302    11060      -1400      1874       23742      0          14203.97   67.13      16953      6473      
2035       9.33       419        1          0          186.321    11061      -1400      1872       23744      0          14204.36   67.137     16955      6472      
2035.2     9.49       419        1          0          186.341    11062      -1400      1871       23749      0          14204.75   67.141     16956      6472      
2035.4     9.58       419        1          0          186.36     11063      -1400      1871       23749      0          14205.14   67.145     16957      6474      
2035.6     9.65       419        1          0          186.369    11063      -1400      1875       23754      0          14205.5    67.151     16958      6473      
2035.8     9.7        419        1          0          186.378    11063      -1400      1880       23754      0          14205.91   67.159     16960      6473      
2036       9.56       397        1          0          186.397    11064      -1400      1872       23759      0          14206.28   67.165     16961      6473      
2036.2     9.4        388        1          0          186.417    11065      -1400      1864       23760      0          14206.67   67.164     16961      6475      
2036.4     9.29       388        1          0          186.436    11066      -1400      1867       23764      0          14207.05   67.165     16962      6475      
2036.6     9.23       388        1          0          186.455    11067      -1400      1863       23764      0          14207.44   67.18      16965      6474      
2036.8     9.18       388        1          0          186.478    11068      -1400      1865       23767      0          14207.83   67.185     16966      6475      
2037       9.14       388        1          0          186.515    11070      -1400      1870       23770      0          14208.2    67.192     16968      6476      
2037.2     9.07       381        1          0          186.533    11071      -1400      1874       23772      0          14208.6    67.196     16969      6475      
2037.4     8.92       368        1          0          186.554    11072      -1400      1873       23775      0          14208.99   67.203     16971      6475      
2037.6     8.82       368        1          0          186.59     11074      -1400      1865       23778      0          14209.36   67.211     16973      6474      
2037.8     8.75       368        1          0          186.613    11075      -1400      1862       23781      0          14209.75   67.218     16975      6473      
2038       8.7        368        1          0          186.632    11076      -1400      1866       23783      0          14210.14   67.223     16976      6474      
2038.2     8.67       368        1          0          186.652    11077      -1400      1865       23786      0          14210.52   67.229     16977      6473      
2038.4     8.65       368        1          0          186.672    11078      -1400      1865       23788      0          14210.89   67.237     16979      6473      
2038.6     8.64       368        1          0          186.69     11079      -1400      1864       23791      0          14211.31   67.242     16981      6473      
2038.8     8.55       359        1          0          186.71     11080      -1400      1864       23795      0          14211.66   67.248     16982      6473      
2039       8.49       357        1          0          186.72     11080      -1400      1869       23796      0          14212.05   67.256     16984      6473      
2039.2     8.44       357        1          0          186.736    11081      -1400      1869       23800      0          14212.42   67.261     16985      6473      
2039.4     8.41       357        1          0          186.761    11082      -1400      1868       23801      0          14212.83   67.267     16987      6473      
2039.6     8.39       357        1          0          186.767    11082      -1400      1867       23805      0          14213.19   67.274     16989      6473      
2039.8     8.38       357        1          0          186.786    11083      -1400      1871       23807      0          14213.57   67.281     16990      6474      
2040       8.34       353        1          2          186.805    11084      -1400      1876       23810      0          14213.99   67.285     16991      6473      
2040.2     8.27       348        1          0          186.823    11085      -1400      1880       23812      0          14214.39   67.289     16992      6474      
2040.4     8.23       348        1          0          186.823    11085      -1400      1884       23815      0          14214.77   67.296     16994      6475      
2040.6     8.2        348        1          0          186.843    11086      -1400      1887       23817      0          14215.16   67.3       16995      6475      
2040.8     8.18       348        1          0          186.862    11087      -1400      1890       23820      0          14215.54   67.308     16997      6475      
2041       8.17       348        1          0          186.882    11088      -1400      1888       23823      0          14215.91   67.315     16999      6475      
2041.2     8.25       359        1          0          186.916    11089      -1400      1883       23825      0          14216.29   67.319     17000      6476      
2041.4     8.66       407        1          0          186.94     11091      -1400      1885       23829      0          14216.67   67.323     17001      6477      
2041.6     8.94       407        1          0          186.961    11092      -1400      1882       23831      0          14217.08   67.329     17002      6477      
2041.8     9.14       407        16         0          186.982    11093      -1400      1880       23835      0          14217.45   67.338     17004      6476      
2042       9.25       407        2616       0          187.001    11094      -1400      1879       23837      0          14217.8    67.346     17006      6474      
2042.2     9.34       407        1618       0          187.021    11095      -1400      1877       23840      0          14218.21   67.353     17008      6474      
2042.4     9.4        407        1011       0          187.05     11096      -1400      1881       23841      0          14218.59   67.363     17011      6474      
2042.6     9.59       426        622        0          187.071    11097      -1400      1884       23844      0          14218.96   67.37      17012      6474      
2042.8     9.75       432        371        0          187.084    11098      -1400      1888       23846      0          14219.35   67.377     17014      6473      
2043       9.86       432        211        0          187.118    11099      -1400      1881       23847      0          14219.74   67.386     17016      6474      
