~Version
 VERS              .         2.0                           : CWLS LOG ASCII STANDARD - VERSION 2.0
 WRAP              .         NO                            : ONE LINE PER DEPTH STEP
 DLM               .         SPACE                         : DELIMITING CHARACTER(SPACE TAB OR COMMA)
~Well Information
#_______________________________________________________________________________
#
#PARAMETER_NAME    .UNIT     VALUE                         : DESCRIPTION
#_______________________________________________________________________________
STRT               .M        2648.2                        : First reference value
STOP               .M        2755.2                        : Last reference value
STEP               .M        0.2                           : Step increment
NULL               .         -9999                         : Missing value
COMP               .                                       : Company
WELL               .         616                           : Well name
FLD                .                                       : Field
LOC                .                                       : Location
CNTY               .                                       : County
STAT               .                                       : State
CTRY               .                                       : Country
SRVC               .                                       : Service Company
DATE               .                                       : Date
API                .                                       : API number
PROJECT_UPGRADE_TIME .         2021-03-18T21_24_50           : 
group              .         Good                          : 
~Parameter Information Block
#_______________________________________________________________________________
#
#PARAMETER_NAME    .UNIT     VALUE                         : DESCRIPTION
#_______________________________________________________________________________
SET                .         D7022_D                       : 
OTHER              .         Kedr.exe версия 2.1.2.32      : 
OTHER_10           .         TM.GRD = 0.00404*TM$.UE + 0.07: 
OTHER_11           .         MN.ATM = (6.33279e-006*TM.GRD + 0.02401)*(MN$.UE + 2.72*TM.GRD + -2018): 
OTHER_12           .         GK.MKR/H = GK$.UE / 43.5489 + 0: 
OTHER_13           .         RES.SM = 0.00476*CRES.UE - 1.51709: 
OTHER_14           .         PL.GSM3 = 0 + 0 * (PL.UE / 1) +  0 * (PL.UE / 1)^2: 
OTHER_15           .         Постоянная времени ГГП = 6 сек: 
OTHER_16           .         Постоянная времени ГК = 6 сек : 
OTHER_2            .         KedrData.dll версия 3.2.2.14  : 
OTHER_3            .         LasInf.dll версия 3.2.0.13    : 
OTHER_4            .         Драйвер версия 1.2.0.5        : 
OTHER_5            .         Прибор_ КСА-M1                : 
OTHER_6            .         Номер прибора_ 155+р204       : 
OTHER_7            .         Режим_ КСА-М1 + ГГП + Резистивиметр: 
OTHER_8            .         Форма_ 223\2                  : 
OTHER_9            .         Тарировки_                    : 
PROJECT_UPGRADE_TIME .         2021-03-18T21_24_50           : 
TLFamily_CRES      .                                       : 
TLFamily_DEPT      .         Measured Depth                : 
TLFamily_GK        .         Gamma Ray                     : 
TLFamily_GK$       .                                       : 
TLFamily_LM        .         Casing Collar locator         : 
TLFamily_METKA     .                                       : 
TLFamily_MN        .                                       : 
TLFamily_MN$       .                                       : 
TLFamily_PL        .                                       : 
TLFamily_PL_2      .                                       : 
TLFamily_RCOR      .                                       : 
TLFamily_RES       .         Mud Resistivity               : 
TLFamily_SPID      .         Spontaneous Potential         : 
TLFamily_STD       .                                       : 
TLFamily_TIME      .         Time                          : 
TLFamily_TM        .         Temperature                   : 
TLFamily_TM$       .         Temperature                   : 
TLFamily_VGD       .         Gas Volume                    : 
group              .         prim                          : 
~Curve Information
#_______________________________________________________________________________
#
#LOGNAME           .UNIT     LOG_ID                        : DESCRIPTION
#_______________________________________________________________________________
DEPT               .M                                      : 1 Глубина, м -    0.0 см 
CRES               .UE                                     : 9 Проводимость, усл.ед. -  222.0 см 
GK                 .MKR/H                                  : 16 Гамма-активность, мкр./ч -  106.0 см 
GK$                .UE                                     : 13 Гамма-активность, усл.ед. -  106.0 см 
LM                 .                                       : 11 Локатор муфт,  -   16.0 см 
METKA              .                                       : 3 Метки,  -    0.0 см 
MN                 .ATM                                    : 15 Давление, атм. -  160.0 см 
MN$                .UE                                     : 7 Давление, усл.ед. -  160.0 см 
PL                 .UE                                     : 10 Плотность, усл.ед. -  270.0 см 
PL_2               .GSM3                                   : 18 Плотность, г./см3 -  270.0 см 
RCOR               .CM/KM                                  : 5 Коррекция по ролику, см/км -    0.0 см 
RES                .SM                                     : 17 Проводимость,  -  222.0 см 
SPID               .M/H                                    : 2 Скорость, м/час -    0.0 см 
STD                .                                       : 12 Приток,  -  170.0 см 
TIME               .S                                      : 4 Время, сек -    0.0 см 
TM                 .GRD                                    : 14 Температура, °C -  180.0 см 
TM$                .UE                                     : 6 Температура, усл.ед. -  180.0 см 
VGD                .                                       : 8 Влагомер,  -  170.0 см 
~Ascii
# ...
2681       1193       10.76      469        101        0          336.177    15690      14         0          0          4.1632     580        10156      14058.75   51.744     12790      6675      
2681.2     1192       10.72      466        98         0          336.481    15703      14         0          0          4.1584     533        10153      14060.1    51.739     12789      6669      
2681.4     1193       10.57      451        87         0          336.439    15701      13         0          0          4.1616     510        10151      14061.44   51.734     12788      6674      
2681.6     1192       10.46      451        1089       0          335.553    15665      14         0          0          4.1562     556        10146      14062.76   51.719     12784      6680      
2681.8     1194       9.75       391        423        0          336.151    15689      15         0          0          4.1648     580        10139      14064.02   51.715     12783      6678      
2682       1191       9.37       391        86         0          336.298    15696      14         0          0          4.1529     568        10137      14065.36   51.7       12780      6678      
2682.2     1192       9.4        414        41         0          337.392    15741      13         0          0          4.1584     510        10132      14066.63   51.689     12777      6680      
2682.4     1189       9.45       414        42         0          337.484    15744      14         0          0          4.1426     580        10130      14067.94   51.682     12775      6680      
2682.6     1189       10.04      463        39         0          337.177    15732      14         0          0          4.1442     545        10128      14069.21   51.673     12773      6677      
2682.8     1192       10.38      473        38         0          336.325    15697      14         0          0          4.1545     522        10128      14070.55   51.669     12772      6681      
2683       1194       10.71      481        35         0          336.347    15698      14         0          0          4.1648     580        10128      14071.81   51.662     12770      6680      
2683.2     1192       10.89      485        38         0          335.447    15661      14         0          0          4.1568     557        10127      14073.13   51.653     12768      6672      
2683.4     1192       11.01      485        43         0          335.034    15644      14         0          0          4.1568     545        10127      14074.4    51.642     12765      6668      
2683.6     1193       11         468        42         0          335.012    15643      14         0          0          4.1616     580        10126      14075.73   51.63      12762      6674      
2683.8     1193       10.74      456        36         0          334.573    15625      14         0          0          4.1616     580        10125      14077      51.616     12759      6672      
2684       1193       10.69      474        33         0          336.194    15692      14         0          0          4.1616     557        10124      14078.32   51.608     12757      6675      
2684.2     1192       10.79      474        38         0          336.469    15703      14         0          0          4.1592     580        10124      14079.61   51.604     12756      6673      
2684.4     1192       10.77      464        53         0          337.909    15762      14         0          0          4.1552     580        10124      14080.92   51.604     12756      6673      
2684.6     1191       10.71      464        44         0          337.512    15746      14         0          0          4.1521     580        10123      14082.19   51.597     12754      6671      
2684.8     1192       10.54      446        46         0          338.296    15778      14         0          0          4.1552     580        10121      14083.5    51.596     12754      6664      
2685       1191       10.39      446        38         0          338.591    15791      14         0          0          4.1497     533        10120      14084.84   51.587     12752      6668      
2685.2     1190       10.49      473        28         0          338.409    15783      14         0          0          4.1466     520        10119      14086.12   51.576     12749      6667      
2685.4     1189       10.67      473        31         0          338.867    15802      14         0          0          4.1426     580        10120      14087.44   51.569     12747      6663      
2685.6     1189       11.09      514        50         0          338.636    15792      14         0          0          4.1425     556        10122      14088.69   51.564     12746      6663      
2685.8     1189       11.44      514        58         0          337.59     15750      14         0          0          4.1449     580        10122      14090.03   51.558     12745      6664      
2686       1190       12.02      555        42         0          336.849    15719      14         0          0          4.1457     568        10122      14091.3    51.552     12743      6666      
2686.2     1190       12.39      555        33         0          337.328    15739      14         0          0          4.1473     522        10122      14092.61   51.548     12742      6666      
2686.4     1189       12.74      571        31         0          337.006    15726      14         0          0          4.1405     545        10119      14093.95   51.536     12739      6665      
2686.6     1188       12.92      571        55         0          336.539    15707      14         0          0          4.1378     524        10116      14095.27   51.527     12737      6658      
2686.8     1189       13.43      614        74         0          336.048    15686      14         0          0          4.1425     510        10115      14096.55   51.517     12734      6665      
2687       1188       13.76      614        32         0          337.099    15730      14         0          0          4.1378     580        10112      14097.85   51.511     12733      6663      
2687.2     1190       13.62      586        122        0          337.053    15728      14         0          0          4.1457     545        10106      14099.13   51.494     12729      6667      
2687.4     1190       13.28      527        149        0          338.913    15804      14         0          0          4.1473     580        10102      14100.4    51.486     12727      6666      
2687.6     1191       12.04      468        131        0          339.025    15809      14         0          0          4.1505     570        10099      14101.68   51.48      12725      6667      
2687.8     1191       11.4       468        111        0          339.616    15833      14         0          0          4.152      580        10095      14102.99   51.467     12722      6667      
2688       1190       10.08      381        94         0          339.255    15819      14         0          0          4.1489     540        10095      14104.29   51.466     12722      6662      
2688.2     1191       9.36       363        82         0          339.85     15843      14         0          0          4.1521     510        10094      14105.59   51.461     12720      6659      
2688.4     1190       8.68       346        91         0          340.14     15855      14         0          0          4.1489     580        10095      14106.92   51.459     12720      6658      
2688.6     1190       8.43       375        102        0          339.24     15818      14         0          0          4.1473     580        10093      14108.19   51.455     12719      6676      
2688.8     1189       8.52       375        114        0          338.906    15804      14         0          0          4.1406     580        10092      14109.51   51.454     12719      6668      
2689       1190       8.4        347        78         0          338.997    15808      14         0          0          4.1457     510        10089      14110.8    51.443     12716      6674      
