~Version
 VERS              .         2.0                           : CWLS LOG ASCII STANDARD - VERSION 2.0
 WRAP              .         NO                            : ONE LINE PER DEPTH STEP
 DLM               .         SPACE                         : DELIMITING CHARACTER(SPACE TAB OR COMMA)
~Well Information
#_______________________________________________________________________________
#
#PARAMETER_NAME    .UNIT     VALUE                         : DESCRIPTION
#_______________________________________________________________________________
STRT               .M        8.21                          : First reference value
STOP               .M        2780.41                       : Last reference value
STEP               .M        0.2                           : Step increment
NULL               .         -9999                         : Missing value
COMP               .                                       : Company
WELL               .         616                           : Well name
FLD                .                                       : Field
LOC                .                                       : Location
CNTY               .                                       : County
STAT               .                                       : State
CTRY               .                                       : Country
SRVC               .                                       : Service Company
DATE               .                                       : Date
API                .                                       : API number
PROJECT_UPGRADE_TIME .         2021-03-18T21_24_50           : 
group              .         Good                          : 
~Parameter Information Block
#_______________________________________________________________________________
#
#PARAMETER_NAME    .UNIT     VALUE                         : DESCRIPTION
#_______________________________________________________________________________
SET                .         ULN_2                         : 
PROJECT_UPGRADE_TIME .         2021-03-18T21_24_50           : 
TLFamily_AK4       .                                       : 
TLFamily_ALFAK     .                                       : 
TLFamily_AMPL      .                                       : 
TLFamily_DEPTH     .         Measured Depth                : 
TLFamily_DK1       .                                       : 
TLFamily_DK2       .                                       : 
TLFamily_DTK       .         Compressional Slowness        : 
TLFamily_QCBL      .                                       : 
TLFamily_T1        .         Travel Time 1                 : 
TLFamily_T2        .         Travel Time 2                 : 
group              .         prim                          : 
~Curve Information
#_______________________________________________________________________________
#
#LOGNAME           .UNIT     LOG_ID                        : DESCRIPTION
#_______________________________________________________________________________
DEPTH              .M                                      : 0 Depth curve 
AK4                .                                       : 2 Амплитуда - Волна по колонне - Канал1 
ALFAK              .дБ/м                                   : 1 Затухание - Волна по колонне 
AMPL               .                                       : 8 Коэффициент усиления ВС 
DK1                .дБ                                     : 3 Кривая ослабления - Волна по колонне - Канал1 
DK2                .дБ                                     : 4 Кривая ослабления - Волна по колонне - Канал2 
DTK                .мкс/м                                  : 5 ДельтаТ - Волна по породе 
QCBL               .                                       : 9 Контакт цемент-колонна 
T1                 .мкс                                    : 6 Время пробега - Волна по породе - Канал1 
T2                 .мкс                                    : 7 Время пробега - Волна по породе - Канал2 
~Ascii
# ...
2767.61    1754.149   37.808     1          23.211     42.115     177.646    3          352.653    447.451   
2767.81    1576.01    34.057     1          24.163     41.191     179.318    3          353.285    442.944   
2768.01    1426.531   33.794     1          24.916     41.867     185.036    3          353.04     445.558   
2768.21    1263.112   32.297     1          25.044     42.273     195.328    3          351.051    448.715   
2768.41    1291.429   34.67      1          24.872     43.287     197.547    3          349.021    447.794   
2768.61    1383.819   34.931     1          24.402     42.963     195.841    3          347.951    445.899   
2768.81    1735.211   36.696     1          23.402     43.142     192.906    3          348.116    445.132   
2769.01    2061.456   35.578     1          21.914     41.095     195.408    3          350.925    449.192   
2769.21    2338.574   32.919     1          20.746     38.528     192.878    3          352.858    449.833   
2769.41    2384.027   31.272     1          20.51      36.146     190.991    3          354.332    449.827   
2769.61    2219.801   31.206     1          21.125     36.791     186.264    3          354.095    447.226   
2769.81    1733.644   28.921     1          22.449     38.165     185.075    3          354.095    446.632   
2770.01    1425.962   27.691     1          24.027     39.128     189.487    3          352.072    446.828   
2770.21    1095.799   28.521     1          26.128     41.443     219.62     3          350.233    460.321   
2770.41    1051.644   37.722     1          27.706     43.743     259.779    3          348.736    479.126   
2770.61    937.398    43.868     1          28.605     46.647     300.525    3          349.793    500.542   
2770.81    882.226    45.52      1          29.128     48.073     322.02     3          349.661    510.892   
2771.01    711.095    42.594     1          30.429     49.32      335.459    3          348.528    516.158   
2771.21    546.276    41.789     1          32.6       49.828     345.343    3          346.709    517.383   
2771.41    437.633    42.466     1          34.179     49.771     345.92     3          345.979    516.941   
2771.61    420.903    46.136     1          35.615     52.299     347.342    3          345.495    517.295   
2771.81    385.297    45.102     1          36.361     54.244     333.56     3          350.112    517.436   
2772.01    313.661    43.352     1          37.016     55.501     329.668    3          352.09     517.334   
2772.21    324.635    37.305     1          36.698     54.247     329.607    3          351.713    516.899   
2772.41    324.665    34.433     1          35.536     53.518     340.107    3          346.537    516.576   
2772.61    453.973    32.892     1          33.963     51.733     337.916    3          344.468    515.792   
2772.81    475.428    32.167     1          33.586     50.927     333.031    3          345.398    514.279   
2773.01    501.526    33.571     1          34.197     50.983     323.3      3          347.28     511.177   
2773.21    402.911    32.307     1          36.013     52.167     317.147    3          349.998    508.571   
2773.41    411.186    31.961     1          35.942     51.954     307.039    3          351.911    505.43    
2773.61    560.275    32.001     1          34.775     51.403     298.265    3          354.059    503.191   
2773.81    720.649    36.051     1          32.215     50.888     288.67     3          354.858    499.192   
2774.01    904.423    48.678     1          29.918     55.291     278.983    3          356.204    495.69    
2774.21    945.112    54.465     1          28.586     56.929     291.713    3          355.944    501.744   
2774.41    897.105    56.369     1          29.142     58.422     296.575    3          355.543    504.835   
2774.61    747.901    46.796     1          30.793     54.87      291.329    3          356.803    503.478   
2774.81    575.432    41.485     1          32.947     53.674     269.149    3          357.601    493.241   
2775.01    491.888    42.883     1          34.289     55.301     268.096    3          357.965    492.082   
2775.21    467.64     42.88      1          34.673     55.971     287.02     3          356.018    499.597   
2775.41    455.565    40.74      1          34.92      55.171     303.755    3          355.878    507.822   
2775.61    404.374    32.642     1          36.212     52.822     311.796    3          355.944    511.842   
2775.81    326.246    29.223     1          37.987     52.598     312.199    3          356.565    512.521   
2776.01    279.986    28.98      1          39.104     53.594     313.181    3          357.732    511.467   
2776.21    301.634    28.805     1          38.485     52.888     305.296    3          361.039    510.764   
2776.41    328.029    29.492     1          37.759     52.505     316.681    3          364.247    518.547   
2776.61    331.797    31.314     1          37.651     53.307     346.669    3          363.469    535.213   
2776.81    343.22     37.074     1          37.372     55.909     388.566    3          364.087    551.416   
2777.01    329.154    38.022     1          37.738     56.749     394.137    3          367.615    550.087   
2777.21    312.349    33.741     1          38.263     55.134     364.211    3          373.239    532.173   
2777.41    267.636    26.729     1          39.508     52.928     330.131    3          372.238    515.995   
2777.61    226.8      22.331     1          39.906     52.179     311.367    3          366.639    508.04    
2777.81    244.517    24.996     1          39.352     52.958     307.795    3          359.575    508.027   
2778.01    252.793    27.514     1          39.118     53.927     306.784    3          356.074    507.643   
2778.21    262.479    27.563     1          39.741     53.522     301.472    3          357.442    509.555   
2778.41    242.36     26.85      1          40.378     53.803     292.885    3          358.626    511.424   
2778.61    238.578    27.226     1          40.504     54.117     295.268    3          359.905    511.95    
2778.81    246.96     30.336     1          40.19      55.358     297.653    4          358.061    509.976   
2779.01    250.004    32.037     1          40.084     56.103     303.81     4          357.448    507.464   
2779.21    251.994    34.456     1          40.016     57.244     299.881    4          356.25     506.19    
2779.41    254.474    33.981     1          39.929     56.92      299.948    4          355.745    505.6     
2779.61    252.364    31.299     1          40.003     55.652     299.292    4          357.976    505.427   
2779.81    245.021    27.374     1          40.263     53.95      288.024    4          359.563    504.687   
2780.01    243.398    26.896     1          40.319     53.767     287.09     4          359.327    504.103   
2780.21    243.292    29.094     1          40.322     54.869     287.358    4          357.119    504.105   
2780.41    246.809    30.588     1          40.195     55.489     295.029    4          356.632    504.147   
