~Version
 VERS              .         2.0                           : CWLS LOG ASCII STANDARD - VERSION 2.0
 WRAP              .         NO                            : ONE LINE PER DEPTH STEP
 DLM               .         SPACE                         : DELIMITING CHARACTER(SPACE TAB OR COMMA)
~Well Information
#_______________________________________________________________________________
#
#PARAMETER_NAME    .UNIT     VALUE                         : DESCRIPTION
#_______________________________________________________________________________
STRT               .M        2659.2                        : First reference value
STOP               .M        2769.000055                   : Last reference value
STEP               .M        0.2000001                     : Step increment
NULL               .         -9999                         : Missing value
COMP               .                                       : Company
WELL               .         616                           : Well name
FLD                .                                       : Field
LOC                .                                       : Location
CNTY               .                                       : County
STAT               .                                       : State
CTRY               .                                       : Country
SRVC               .                                       : Service Company
DATE               .                                       : Date
API                .                                       : API number
PROJECT_UPGRADE_TIME .         2021-03-18T21_24_50           : 
group              .         Good                          : 
~Parameter Information Block
#_______________________________________________________________________________
#
#PARAMETER_NAME    .UNIT     VALUE                         : DESCRIPTION
#_______________________________________________________________________________
SET                .         D1165_D                       : 
OTHER              .         Программное обеспечение станции MONITOR-386EX 25/12/99 15_08_10   BGF V52 22/08/01 16_56_30   3.2_BGF_N_3070031: 
OTHER_10           .         Тарировки_                    : 
OTHER_11           .         TM.GRD = 0.00403*TM$.UE + -1.19: 
OTHER_12           .         MN.ATM = (7.1e-006*TM.GRD + 0.02017)*(MN$.UE + -3.03*TM.GRD + -1833): 
OTHER_13           .         Id error                      : 
OTHER_2            .         Kedr.exe версия 3.4.2.51      : 
OTHER_3            .         KedrData.dll версия 3.4.2.24  : 
OTHER_4            .         Драйвер версия 2.1.1.8        : 
OTHER_5            .         Мнемоники версия 3.3 S        : 
OTHER_6            .         Прибор_ КСА-М1                : 
OTHER_7            .         Номер прибора_ 265            : 
OTHER_8            .         Режим_ КСА-М1                 : 
OTHER_9            .         Форма_ ТЕРМОМЕТР              : 
PROJECT_UPGRADE_TIME .         2021-03-18T21_24_49           : 
TLFamily_DEPT      .         Measured Depth                : 
TLFamily_GK        .         Gamma Ray                     : 
TLFamily_GK$       .                                       : 
TLFamily_LM        .         Casing Collar locator         : 
TLFamily_METKA     .                                       : 
TLFamily_MN        .                                       : 
TLFamily_MN$       .                                       : 
TLFamily_RCOR      .                                       : 
TLFamily_SPID      .         Spontaneous Potential         : 
TLFamily_STD       .                                       : 
TLFamily_TENS      .         Cable Tension                 : 
TLFamily_TIME      .         Time                          : 
TLFamily_TM        .         Temperature                   : 
TLFamily_TM$       .         Temperature                   : 
TLFamily_VGD       .         Gas Volume                    : 
group              .         prim                          : 
~Curve Information
#_______________________________________________________________________________
#
#LOGNAME           .UNIT     LOG_ID                        : DESCRIPTION
#_______________________________________________________________________________
DEPT               .M                                      : 1 Глубина, м -    0.0 см 
GK                 .MKR/H                                  : 15 Гамма-активность, мкр./ч -  110.0 см 
GK$                .UE                                     : 12 Гамма-активность, усл.ед. -  110.0 см 
LM                 .                                       : 10 Локатор муфт,  -   20.0 см 
METKA              .                                       : 3 Метки,  -    0.0 см 
MN                 .ATM                                    : 14 Давление, атм. -  160.0 см 
MN$                .UE                                     : 8 Давление, усл.ед. -  160.0 см 
RCOR               .CM/KM                                  : 5 Коррекция по ролику, см/км -    0.0 см 
SPID               .M/H                                    : 2 Скорость, м/час -    0.0 см 
STD                .                                       : 11 Приток,  -  170.0 см 
TENS               .T                                      : 6 Натяжение кабеля, т -    0.0 см 
TIME               .S                                      : 4 Время, сек -    0.0 см 
TM                 .GRD                                    : 13 Температура, °C -  180.0 см 
TM$                .UE                                     : 7 Температура, усл.ед. -  180.0 см 
VGD                .                                       : 9 Влагомер,  -  170.0 см 
~Ascii
# ...
2688.600015 7.01       299        1          0          350.368    18953      -1400      587        31658      0          21162.76   86.277     21704      6517      
2688.800015 7          299        1          0          350.386    18954      -1400      587        31659      0          21163.99   86.285     21706      6518      
2689.000015 7.5        331        1          0          351.132    18990      -1400      585        31662      0          21165.25   86.285     21706      6517      
2689.200015 7.67       331        1          0          351.254    18996      -1400      584        31659      0          21166.46   86.292     21708      6518      
2689.400015 7.72       331        1          0          350.866    18977      -1400      587        31658      0          21167.66   86.294     21708      6518      
2689.600015 7.71       328        1          0          350.651    18967      -1400      592        31659      0          21168.9    86.301     21710      6518      
2689.800015 7.38       309        1          0          350.016    18936      -1400      579        31665      0          21170.19   86.305     21711      6519      
2690.000015 7.28       309        1          2          351.108    18989      -1400      575        31665      0          21171.47   86.309     21712      6518      
2690.200015 7.43       321        1          0          351.258    18996      -1400      576        31666      0          21172.67   86.317     21714      6518      
2690.400016 7.48       321        1          0          350.646    18966      -1400      577        31664      0          21173.97   86.321     21715      6519      
2690.600016 7.68       334        1          0          352.305    19046      -1400      571        31667      0          21175.23   86.321     21715      6520      
2690.800016 7.78       335        1          0          350.929    18980      -1400      584        31674      0          21176.48   86.33      21717      6519      
2691.000016 7.9        340        1          0          351.099    18988      -1400      584        31676      0          21177.7    86.334     21718      6519      
2691.200016 7.94       340        1          0          352.577    19059      -1400      576        31677      0          21178.99   86.337     21719      6521      
2691.400016 8.12       351        1          0          350.764    18972      -1400      577        31679      0          21180.27   86.344     21721      6519      
2691.600016 8.18       351        1          0          350.878    18977      -1400      578        31687      0          21181.44   86.348     21721      6520      
2691.800016 8.45       368        1          0          353.195    19089      -1400      576        31689      0          21182.81   86.35      21722      6521      
2692.000016 8.6        373        1          0          351.255    18996      -1400      573        31693      0          21183.99   86.358     21724      6521      
2692.200016 8.88       385        1          0          351.407    19003      -1400      575        31692      0          21185.31   86.362     21725      6521      
2692.400017 8.95       383        2619       0          353.129    19086      -1400      576        31695      0          21186.51   86.366     21726      6521      
2692.600017 8.77       371        1569       0          350.988    18983      -1400      574        31696      0          21187.82   86.369     21727      6521      
2692.800017 8.71       371        212        0          351.497    19007      -1400      582        31701      0          21189.01   86.366     21726      6522      
2693.000017 8.75       375        1          0          352.872    19073      -1400      582        31704      0          21190.26   86.374     21728      6522      
2693.200017 8.76       375        1          0          351.101    18988      -1400      581        31712      0          21191.56   86.38      21730      6522      
2693.400017 8.86       381        1          0          351.302    18998      -1400      581        31708      0          21192.77   86.383     21730      6522      
2693.600017 8.89       380        1          0          353.82     19119      -1400      581        31705      0          21193.97   86.387     21731      6523      
2693.800017 8.84       377        1          0          351.452    19005      -1400      582        31705      0          21195.21   86.39      21732      6522      
2694.000017 8.82       377        1          0          351.713    19018      -1400      579        31710      0          21196.5    86.398     21734      6522      
2694.200017 8.88       381        1          0          353.35     19096      -1400      579        31714      0          21197.72   86.401     21735      6524      
2694.400018 8.9        381        1          0          351.147    18990      -1400      580        31717      0          21198.97   86.405     21736      6523      
2694.600018 9.16       398        1          0          351.978    19030      -1400      578        31714      0          21200.22   86.408     21736      6524      
2694.800018 9.27       399        1          0          353.55     19106      -1400      573        31713      0          21201.47   86.415     21738      6524      
2695.000018 9.38       403        1          0          351.515    19008      -1400      575        31718      0          21202.71   86.418     21739      6524      
2695.200018 9.41       403        1          0          352.02     19032      -1400      576        31720      0          21203.95   86.422     21740      6524      
2695.400018 9.25       392        1          0          353.859    19121      -1400      579        31720      0          21205.15   86.429     21742      6524      
2695.600018 9.19       392        1          0          351.078    18987      -1400      593        31718      0          21206.25   86.433     21743      6524      
2695.800018 9.21       394        1          0          352.143    19038      -1400      610        31722      0          21207.35   86.442     21745      6524      
2696.000018 9.2        392        1          0          353.99     19127      -1400      617        31722      0          21208.56   86.444     21745      6524      
2696.200018 9.11       388        1          0          351.476    19006      -1400      617        31727      0          21209.65   86.451     21747      6526      
2696.400019 9.09       388        1          0          352.398    19050      -1400      623        31725      0          21210.74   86.454     21748      6524      
2696.600019 8.74       365        1          0          353.877    19122      -1400      627        31725      0          21211.84   86.458     21749      6525      
2696.800019 8.61       365        1          0          350.98     18982      -1400      630        31728      0          21213      86.461     21750      6525      
2697.000019 8.54       363        1          0          352.215    19041      -1400      632        31738      0          21214.14   86.46      21750      6527      
2697.200019 8.51       363        1          0          353.11     19085      -1400      634        31739      0          21215.24   86.471     21752      6526      
2697.400019 8.69       387        1          0          351.722    19018      -1400      630        31739      0          21216.45   86.474     21753      6528      
2697.600019 9.05       395        1          0          350.919    18979      -1400      627        31740      0          21217.54   86.48      21754      6526      
2697.800019 9.27       407        1          0          352.331    19047      -1400      630        31739      0          21218.63   86.483     21755      6527      
2698.000019 9.47       409        1          0          353.512    19104      -1400      632        31739      0          21219.77   86.489     21757      6528      
2698.200019 9.53       409        1          0          351.697    19017      -1400      623        31737      0          21220.9    86.495     21758      6527      
