~Version
 VERS              .         2.0                           : CWLS LOG ASCII STANDARD - VERSION 2.0
 WRAP              .         NO                            : ONE LINE PER DEPTH STEP
 DLM               .         SPACE                         : DELIMITING CHARACTER(SPACE TAB OR COMMA)
~Well Information
#_______________________________________________________________________________
#
#PARAMETER_NAME    .UNIT     VALUE                         : DESCRIPTION
#_______________________________________________________________________________
STRT               .M        2700.4                        : First reference value
STOP               .M        2799                          : Last reference value
STEP               .M        0.2000002                     : Step increment
NULL               .         -9999                         : Missing value
COMP               .                                       : Company
WELL               .         616                           : Well name
FLD                .                                       : Field
LOC                .                                       : Location
CNTY               .                                       : County
STAT               .                                       : State
CTRY               .                                       : Country
SRVC               .                                       : Service Company
DATE               .                                       : Date
API                .                                       : API number
PROJECT_UPGRADE_TIME .         2021-03-18T21_24_50           : 
group              .         Good                          : 
~Parameter Information Block
#_______________________________________________________________________________
#
#PARAMETER_NAME    .UNIT     VALUE                         : DESCRIPTION
#_______________________________________________________________________________
SET                .         D2658_D                       : 
OTHER              .         Программное обеспечение станции MONITOR-386EX 25/12/99 15_08_10   BGF V50 26/12/00 07_26_01   3.1_SNGF___BGF_N_092085: 
OTHER_10           .         Тарировки_                    : 
OTHER_11           .         <_techsia_sc_> Постоянная времени фильтра ПС  0.5 сек, kf=0.139292: 
OTHER_2            .         Kedr.exe версия 3.3.2.32      : 
OTHER_3            .         KedrData.dll версия 3.3.2.17  : 
OTHER_4            .         Драйвер версия 2.1.0.7        : 
OTHER_5            .         Мнемоники версия 3.3 S        : 
OTHER_6            .         Прибор_ К1a-723м              : 
OTHER_7            .         Номер прибора_ 348/72         : 
OTHER_8            .         Режим_ K1A-723M               : 
OTHER_9            .         Форма_ БКЗ                    : 
PROJECT_UPGRADE_TIME .         2021-03-18T21_24_49           : 
TLFamily_BK        .         Lateral Log Resistivity       : 
TLFamily_DEPT      .         Measured Depth                : 
TLFamily_GZ1       .         Extra Shallow Resistivity     : 
TLFamily_GZ2       .         Shallow Resistivity           : 
TLFamily_GZ3       .         Medium Resistivity            : 
TLFamily_GZ4       .         Deep Resistivity              : 
TLFamily_GZ5       .         Extra Deep Resistivity        : 
TLFamily_GZ6       .         Medium Resistivity Inverted   : 
TLFamily_IBK       .                                       : 
TLFamily_IK        .         Conductivity                  : 
TLFamily_IPR       .                                       : 
TLFamily_METKA     .                                       : 
TLFamily_PS        .         Spontaneous Potential         : 
TLFamily_PZ        .         Potential Resistivity         : 
TLFamily_RCOR      .                                       : 
TLFamily_RES       .         Mud Resistivity               : 
TLFamily_SPID      .         Spontaneous Potential         : 
TLFamily_TENS      .         Cable Tension                 : 
TLFamily_TIME      .         Time                          : 
TLFamily_UBK       .         Uranium Concentration         : 
group              .         prim                          : 
~Curve Information
#_______________________________________________________________________________
#
#LOGNAME           .UNIT     LOG_ID                        : DESCRIPTION
#_______________________________________________________________________________
DEPT               .M                                      : 1 Глубина, м -    0.0 см 
BK                 .OHMM                                   : 20 БК, Ом*м - 1768.0 см 
GZ1                .OHMM                                   : 12 A0.4M0.1N, Ом*м - 1295.0 см 
GZ2                .OHMM                                   : 11 A1.0M0.1N, Ом*м - 1355.0 см 
GZ3                .OHMM                                   : 9 A2.0M0.5N, Ом*м - 1475.0 см 
GZ4                .OHMM                                   : 8 A4.0M0.5N, Ом*м - 1025.0 см 
GZ5                .OHMM                                   : 7 A8.0M1.0N, Ом*м - 1450.0 см 
GZ6                .OHMM                                   : 10 N0.5M2.0A, Ом*м - 1025.0 см 
IBK                .A                                      : 18 Ток БК, А - 1768.0 см 
IK                 .MSM/M                                  : 14 ИК, мСм/м - 1961.0 см 
IPR                .MA                                     : 17 Ток прибора, мA -    0.0 см 
METKA              .                                       : 3 Метки,  -    0.0 см 
PS                 .mV                                     : 16 ПС, мВ - 1210.0 см 
PZ                 .OHMM                                   : 13 N11M0.5A, Ом*м - 1225.0 см 
RCOR               .CM/KM                                  : 5 Коррекция по ролику, см/км -    0.0 см 
RES                .OHMM                                   : 15 Резистивиметр, Ом*м -  600.0 см 
SPID               .M/H                                    : 2 Скорость, м/час -    0.0 см 
TENS               .T                                      : 6 Натяжение кабеля, т -    0.0 см 
TIME               .S                                      : 4 Время, сек -    0.0 см 
UBK                .V                                      : 19 Напр. БК, В - 1768.0 см 
~Ascii
# ...
2737.4     9.36       16.4       17.8       11         10.1       12.4       7          0.029      127.1      425.333    0          524.71     16.2       -268       2.761      -1760      0          28276.84   1.159     
2737.6     10.58      15.1       16         10.1       9.4        11.8       7          0.025      128.5      425.984    0          522.21     16         -268       2.758      -1782      0          28276.45   1.119     
2737.8     11.45      15.9       15.1       9.6        8.9        11.3       7          0.023      130        424        0          522.07     15.2       -268       2.764      -1775      0          28276.09   1.088     
2738       11.53      17.2       14.9       9.6        8.9        11         7.2        0.022      129        426        0          523.23     14.2       -268       2.759      -1798      0          28275.64   1.06      
2738.2     11.13      18.2       15.1       9.8        9          10.9       7.6        0.022      128.9      426.667    0          525.24     13.3       -268       2.759      -1824      0          28275.26   1.049     
2738.4     11.04      18         15.5       10         9.1        11.1       7.9        0.022      127.4      425.333    0          528.12     12.5       -268       2.761      -1795      0          28275.05   1.044     
2738.6     8.98       17.9       16.1       10.1       9.3        11.4       8.1        0.028      126.6      428        0          532.83     12.7       -268       2.759      -1790      0          28274.55   1.044     
2738.8     8.57       15.8       15.1       10.1       9.5        11.5       8.4        0.029      127.7      428        0          535.4      13.1       -268       2.76       -1790      0          28274.06   1.048     
2739       7.78       14.8       14.7       9.8        9.6        11.6       8.6        0.032      129.2      424        0          534.86     13.8       -268       2.763      -1791      0          28273.65   1.048     
2739.2     9.93       13.1       12.8       9.3        9.3        11.5       8.2        0.025      130        426        0          531.74     14         -268       2.762      -1791      0          28273.25   1.048     
2739.4     9.42       14         12.8       8.7        9          11.4       8.2        0.026      131.2      426        0          529.67     14.6       -268       2.759      -1792      0          28272.87   1.045     
2739.6     9.21       15.1       12.1       8.3        8.8        10.4       8          0.027      131.4      428        0          526.64     15.5       -268       2.762      -1793      0          28272.45   1.037     
2739.8     9.71       14.9       11.6       7.8        8.3        9.8        7.9        0.025      132.4      424        0          523.56     16         -268       2.76       -1795      0          28272.08   1.039     
2740       10.52      14.9       11.9       7.5        7.8        9.3        7.7        0.024      133.3      427.333    0          522.54     15.6       -268       2.758      -1800      0          28271.66   1.045     
2740.2     11.58      15.6       12.6       7.2        7.6        8.7        7.6        0.021      134.7      426        0          523.17     14.9       -268       2.761      -1807      0          28271.27   1.038     
2740.4     11.98      17.1       13.7       7.2        7.6        8.6        7.3        0.02       132.4      428        0          525.36     13.9       -268       2.763      -1816      0          28270.88   1.035     
2740.6     11.02      18.5       14.6       7.4        7.6        8.4        7.2        0.022      132.8      427.984    0          528.39     12.8       -268       2.761      -1782      0          28270.56   1.038     
2740.8     9.3        17.7       15         7.4        7.7        8.4        7.1        0.027      133.3      428        0          532.64     12.5       -268       2.758      -1752      0          28270.07   1.052     
2741       10.06      16.9       15.4       7.6        7.7        8.5        7.5        0.025      133.4      426.4      0          535.08     12.8       -268       2.761      -1740      0          28269.68   1.044     
2741.2     7.91       16.7       15.6       7.8        7.6        8.5        7.6        0.03       132.1      424.8      0          537.44     13.9       -268       2.76       -1801      0          28269.32   1.014     
2741.4     7.92       14.2       13.3       7.7        7.3        8.6        7.5        0.029      132.2      426        0          536.88     14.2       -268       2.762      -1819      0          28268.9    0.981     
2741.6     9.9        12.6       11.8       7.4        6.8        8.4        7.2        0.023      131.3      427.967    0          533.72     12.8       -268       2.759      -1819      0          28268.47   0.951     
2741.8     11.45      13.5       11.5       7.1        6.9        8.2        7.3        0.019      130.4      427.333    0          535.96     11.3       -268       2.76       -1791      0          28268.06   0.923     
2742       12.08      16         12.1       7.5        7.3        8.2        7.6        0.018      126.8      426        0          544.59     10.3       -268       2.764      -1791      0          28267.75   0.899     
2742.2     8.79       18         13.2       8.1        8.1        8.5        8.2        0.024      124        428        0          564.47     10         -268       2.761      -1792      0          28267.27   0.875     
2742.4     6.91       15.3       12.8       8.7        8.6        9.2        8.4        0.03       121.3      428        0          575.05     9.9        -268       2.76       -1793      0          28266.87   0.869     
2742.6     7.09       11.8       12.3       8.9        8.8        9.9        8.2        0.029      120.1      424.488    0          577        10.1       -268       2.758      -1796      0          28266.49   0.861     
2742.8     7.81       10.4       11.4       8.5        8.5        10.4       7.7        0.025      120.5      427.497    0          576.57     10.1       -268       2.76       -1801      0          28266.08   0.835     
2743       6.9        10.2       10.5       8          8          10.2       7.2        0.028      120.2      428        0          575.39     9.6        -268       2.762      -1809      0          28265.69   0.811     
2743.2     7.02       9.4        8.9        7.7        7.8        10         7.2        0.027      122.6      428        0          574.24     9.3        -268       2.759      -1823      0          28265.29   0.788     
2743.4     6.95       9.4        8.6        7.6        8          9.8        7.6        0.026      124.9      426        0          574.21     9.1        -268       2.757      -1794      0          28264.89   0.775     
2743.6     9.14       10.4       10.1       7.9        8.3        9.8        7.8        0.02       125        427.317    0          574.55     9          -268       2.762      -1770      0          28264.49   0.767     
2743.8     6.57       10.3       9.9        8.1        8.3        9.9        8          0.027      125.6      424        0          578.75     8.9        -268       2.758      -1769      0          28264.08   0.755     
2744       6.4        9.5        8.9        7.9        8          10         8.1        0.028      127.2      428        0          580.05     8.8        -268       2.758      -1798      0          28263.76   0.75      
2744.2     6.37       8.5        8.4        7.6        7.9        10.1       8.1        0.028      128.2      426        0          579.26     8.7        -268       2.759      -1811      0          28263.3    0.75      
2744.4     7.25       8.8        8.6        7.7        8          10.2       8.2        0.025      128.7      424        0          577.43     8.9        -268       2.761      -1808      0          28262.91   0.767     
2744.6     6.2        9.2        8.7        7.8        7.9        10.2       8.1        0.03       130        428        0          576.8      9.7        -268       2.761      -1774      0          28262.5    0.788     
