~Version
 VERS              .         2.0                           : CWLS LOG ASCII STANDARD - VERSION 2.0
 WRAP              .         NO                            : ONE LINE PER DEPTH STEP
 DLM               .         SPACE                         : DELIMITING CHARACTER(SPACE TAB OR COMMA)
~Well Information
#_______________________________________________________________________________
#
#PARAMETER_NAME    .UNIT     VALUE                         : DESCRIPTION
#_______________________________________________________________________________
STRT               .M        12                            : First reference value
STOP               .M        2758.6                        : Last reference value
STEP               .M        0.2                           : Step increment
NULL               .         -9999                         : Missing value
COMP               .                                       : Company
WELL               .         616                           : Well name
FLD                .                                       : Field
LOC                .                                       : Location
CNTY               .                                       : County
STAT               .                                       : State
CTRY               .                                       : Country
SRVC               .                                       : Service Company
DATE               .                                       : Date
API                .                                       : API number
PROJECT_UPGRADE_TIME .         2021-03-18T21_24_50           : 
group              .         Good                          : 
~Parameter Information Block
#_______________________________________________________________________________
#
#PARAMETER_NAME    .UNIT     VALUE                         : DESCRIPTION
#_______________________________________________________________________________
SET                .         616ULN                        : 
PROJECT_UPGRADE_TIME .         2021-03-18T21_24_49           : 
TLFamily_AK4       .                                       : 
TLFamily_ALFAK     .                                       : 
TLFamily_AMPL      .                                       : 
TLFamily_DEPTH     .         Measured Depth                : 
TLFamily_DK1       .                                       : 
TLFamily_DK2       .                                       : 
TLFamily_DTK       .         Compressional Slowness        : 
TLFamily_QCBL      .                                       : 
TLFamily_T1        .         Travel Time 1                 : 
TLFamily_T2        .         Travel Time 2                 : 
group              .         prim                          : 
~Curve Information
#_______________________________________________________________________________
#
#LOGNAME           .UNIT     LOG_ID                        : DESCRIPTION
#_______________________________________________________________________________
DEPTH              .M                                      : 0 Depth curve 
AK4                .                                       : 2 Амплитуда - Волна по колонне - Канал1 
ALFAK              .дБ/м                                   : 1 Затухание - Волна по колонне 
AMPL               .                                       : 8 Коэффициент усиления ВС 
DK1                .дБ                                     : 3 Кривая ослабления - Волна по колонне - Канал1 
DK2                .дБ                                     : 4 Кривая ослабления - Волна по колонне - Канал2 
DTK                .мкс/м                                  : 5 ДельтаТ - Волна по породе 
QCBL               .                                       : 9 Контакт цемент-колонна 
T1                 .мкс                                    : 6 Время пробега - Волна по породе - Канал1 
T2                 .мкс                                    : 7 Время пробега - Волна по породе - Канал2 
~Ascii
# ...
917.2      429.913    23.076     1          28.857     42.114     219.065    3          304.273    427.11    
917.4      452.127    23.453     1          28.426     42.538     225.125    3          304.177    426.154   
917.6      480.811    23.792     1          27.871     42.668     231.347    3          303.771    425.104   
917.8      532.076    24.087     1          27.026     41.965     233.952    2          302.845    421.635   
918        596.312    23.928     1          26.091     40.65      231.909    2          301.617    417.693   
918.2      675.657    23.508     1          25.084     38.58      223.471    2          300.188    412.045   
918.4      759.988    22.199     1          24.051     36.266     214.802    2          299.313    406.247   
918.6      856.844    20.492     1          22.935     33.828     202.98     2          298.753    399.776   
918.8      944.463    18.389     1          22.009     31.38      193.171    2          298.982    395.1     
919        1029.576   16.318     1          21.218     29.377     185.209    2          299.275    391.881   
919.2      1101.744   14.9       1          20.632     28.082     182.616    2          299.672    390.981   
919.4      1179.895   14.707     1          20.026     27.38      181.522    2          299.84     390.603   
919.6      1232.374   14.925     1          19.63      27.093     181.36     2          300.126    390.808   
919.8      1257.396   14.551     1          19.444     26.72      181.139    2          300.394    390.965   
920        1252.964   13.898     1          19.476     26.425     179.985    2          301.026    391.02    
920.2      1245.036   13.397     1          19.533     26.232     178.68     2          301.802    391.144   
920.4      1231.563   13.374     1          19.623     26.31      176.396    2          302.819    391.018   
920.6      1221.637   13.621     1          19.687     26.498     174.8      2          303.704    391.105   
920.8      1204.409   14.177     1          19.815     26.904     173.005    2          304.587    391.091   
921        1178.324   14.861     1          20.024     27.454     172.659    2          305.119    391.449   
921.2      1130.884   15.267     1          20.396     28.029     172.368    2          305.531    391.717   
921.4      1075.825   15.307     1          20.823     28.476     172.41     2          305.668    391.874   
921.6      1029.337   15.398     1          21.184     28.883     171.659    2          305.835    391.666   
921.8      1002.252   16.052     1          21.398     29.424     171.135    2          305.841    391.41    
922        987.689    17.112     1          21.519     30.074     170.213    2          305.878    390.986   
922.2      977.304    18.095     1          21.614     30.661     169.465    2          305.846    390.58    
922.4      968.521    18.834     1          21.694     31.111     169.189    2          305.854    390.449   
922.6      960.761    19.391     1          21.765     31.46      169.996    2          305.809    390.809   
922.8      957.917    19.787     1          21.79      31.683     170.475    2          305.837    391.076   
923        958.149    20.453     1          21.786     32.012     170.318    2          305.81     390.97    
923.2      954.014    21.211     1          21.832     32.437     169.335    2          305.833    390.502   
923.4      930.947    21.888     1          22.072     33.016     168.272    2          305.802    389.939   
923.6      884.302    21.895     1          22.556     33.504     166.342    2          305.828    389       
923.8      819.672    21.204     1          23.257     33.859     164.753    2          305.8      388.178   
924        748.744    19.703     1          24.051     33.902     163.645    2          305.841    387.665   
924.2      680.327    17.869     1          24.861     33.796     163.073    2          305.969    387.507   
924.4      620.862    16.407     1          25.627     33.83      161.999    2          306.256    387.257   
924.6      565.255    15.162     1          26.485     34.066     160.741    2          306.045    386.991   
924.8      511.869    13.722     1          27.397     34.258     161.462    2          305.387    386.694   
925        454.189    12.368     1          28.311     34.455     164.354    2          303.581    386.333   
925.2      409.343    11.81      1          29.199     34.736     167.446    2          300.568    385.97    
925.4      375.153    11.583     1          29.892     35.728     171.054    2          297.857    388.104   
925.6      371.721    13.225     1          29.94      36.968     177.687    2          296.046    392.035   
925.8      388.779    16.045     1          29.594     38.141     184.86     2          296.369    397.744   
926        421.039    18.433     1          29.08      39.133     191.636    2          299.034    404.09    
926.2      446.854    19.733     1          28.513     39.844     198.765    2          302.896    409.585   
926.4      458.893    20.304     1          28.227     39.418     201.859    2          306.435    411.869   
926.6      451.999    19.496     1          28.37      38.335     201.706    2          309.5      410.2     
926.8      438.931    19.482     1          28.642     37.546     198.308    2          309.577    406.778   
927        437.742    19.843     1          28.696     36.801     196.202    2          307.026    402.88    
927.2      439.634    20.58      1          28.694     36.262     195.966    3          304.844    402.744   
927.4      445.197    19.914     1          28.61      35.746     199.669    3          303.031    403.704   
927.6      441.187    19.077     1          28.692     35.45      203.962    3          301.697    406.737   
927.8      423.695    17.765     1          28.766     35.169     207.617    3          302.122    409.865   
928        395.795    17.435     1          29.025     35.42      206.875    3          303.705    412.933   
928.2      368.073    18.685     1          29.279     36.054     207.075    3          304.677    414.529   
928.4      352.045    22.446     1          29.615     37.164     212.217    3          305.033    416.585   
928.6      335.237    26.42      1          30.09      38.655     222.302    3          304.929    418.836   
928.8      327.556    29.828     1          30.654     40.246     233.821    3          304.377    421.044   
929        316.736    32.324     1          31.273     42.002     242.558    3          304.022    423.201   
929.2      303.798    33.499     1          31.744     43.927     248.108    3          303.849    423.947   
929.4      282.289    33.76      1          32.112     46.726     248.746    3          303.724    423.851   
929.6      267.967    33.937     1          32.103     49.88      244.518    3          303.651    423.668   
929.8      262.936    33.742     1          32.023     52.841     240.289    3          303.436    423.343   
930        251.788    33.466     1          32.152     54.834     240.43     3          303.245    423.103   
930.2      244.288    33.128     1          32.607     55.858     240.894    3          302.871    422.96    
930.4      239.191    32.837     1          33.001     55.089     241.457    3          302.573    422.944   
930.6      247.633    32.489     1          33.169     53.083     242.064    3          302.268    423.062   
930.8      255.069    32.185     1          33.152     50.682     242.591    3          302.135    423.312   
931        265.165    32.079     1          33.038     48.449     243.279    3          301.928    423.568   
931.2      272.821    32.021     1          32.771     46.67      243.993    3          301.714    423.712   
931.4      284.257    31.823     1          32.396     45.37      244.639    3          301.498    423.819   
931.6      293.119    31.526     1          32.114     44.466     247.998    3          301.395    425.395   
