~Version
 VERS              .         2.0                           : CWLS LOG ASCII STANDARD - VERSION 2.0
 WRAP              .         NO                            : ONE LINE PER DEPTH STEP
 DLM               .         SPACE                         : DELIMITING CHARACTER(SPACE TAB OR COMMA)
~Well Information
#_______________________________________________________________________________
#
#PARAMETER_NAME    .UNIT     VALUE                         : DESCRIPTION
#_______________________________________________________________________________
STRT               .M        2662.8                        : First reference value
STOP               .M        2769.600053                   : Last reference value
STEP               .M        0.2000001                     : Step increment
NULL               .         -9999                         : Missing value
COMP               .                                       : Company
WELL               .         616                           : Well name
FLD                .                                       : Field
LOC                .                                       : Location
CNTY               .                                       : County
STAT               .                                       : State
CTRY               .                                       : Country
SRVC               .                                       : Service Company
DATE               .                                       : Date
API                .                                       : API number
PROJECT_UPGRADE_TIME .         2021-03-18T21_24_50           : 
group              .         Good                          : 
~Parameter Information Block
#_______________________________________________________________________________
#
#PARAMETER_NAME    .UNIT     VALUE                         : DESCRIPTION
#_______________________________________________________________________________
SET                .         D8107_D_2                     : 
COMM               .                                       : 
OTHER              .         Программное обеспечение станции MONITOR-386EX 25/12/99 15_08_10   BGF V52 22/08/01 16_56_30   4_SNGF_BGF_N_011645: 
OTHER_10           .         Тарировки_                    : 
OTHER_11           .         TM.GRD = 0.00412*TM$.UE + -2.13: 
OTHER_12           .         MN.ATM = (5.87652e-006*TM.GRD + 0.01993)*(MN$.UE + -2.72*TM.GRD + -1925): 
OTHER_13           .         GK.MKR/H = GK$.UE / 57.4657   : 
OTHER_2            .         Kedr.exe версия 3.4.2.51      : 
OTHER_3            .         KedrData.dll версия 3.4.2.24  : 
OTHER_4            .         Драйвер версия 2.1.0.2        : 
OTHER_5            .         Мнемоники версия 3.3 S        : 
OTHER_6            .         Прибор_ АКП4-90               : 
OTHER_7            .         Номер прибора_ 53             : 
OTHER_8            .         Режим_ АКП4_90                : 
OTHER_9            .         Форма_ ПК-53ое                : 
PROJECT_UPGRADE_TIME .         2021-03-18T21_24_50           : 
PRTY               .         ПРП-614                       : N партии
SRVC               .         Глухов М.В.                   : Начальник партии
TLFamily_DEPT      .         Measured Depth                : 
TLFamily_GK        .         Russian Gamma Ray             : 
TLFamily_LM        .         Casing Collar locator         : 
TLFamily_TM        .         Temperature                   : 
group              .         second                        : 
~Curve Information
#_______________________________________________________________________________
#
#LOGNAME           .UNIT     LOG_ID                        : DESCRIPTION
#_______________________________________________________________________________
DEPT               .M                                      : Depth curve 
GK                 .мкР/ч                                  : Естественная гамма-активность,мкР/ч 
LM                 .е.ацп                                  : Локатор муфт,е.ацп 
TM                 .град.C                                 : Термограмма по стволу скважины,град.C 
~Ascii
# ...
2734.400036 4.43       22806.89   45.267    
2734.600036 4.58       2344.97    45.333    
2734.800036 5.01       2223.473   45.374    
2735.000036 5.04       112.044    45.426    
2735.200036 5.29       288.992    45.465    
2735.400036 5.3        256.986    45.498    
2735.600036 5.52       202.062    45.573    
2735.800037 5.58       451.919    45.621    
2736.000037 5.44       126.011    45.66     
2736.200037 5.4        172.028    45.727    
2736.400037 5.15       282.947    45.753    
2736.600037 4.65       70.039     45.815    
2736.800037 5.08       227.019    45.879    
2737.000037 5.86       302.973    45.929    
2737.200037 6.2        195.107    46.026    
2737.400037 7.92       621.934    46.159    
2737.600037 7.98       355.976    46.222    
2737.800038 8.89       259.077    46.301    
2738.000038 8.92       568.941    46.329    
2738.200038 9.26       331.994    46.337    
2738.400038 9.26       309.023    46.411    
2738.600038 9.4        402.918    46.487    
2738.800038 9.42       76.043     46.55     
2739.000038 9.57       247.002    46.586    
2739.200038 9.6        254.955    46.592    
2739.400038 9.78       76.046     46.656    
2739.600038 10.1       261.974    46.71     
2739.800039 9.81       157.106    46.743    
2740.000039 8.34       581.08     46.824    
2740.200039 8.15       901.818    46.898    
2740.400039 7.17       172.062    46.964    
2740.600039 7.17       421.992    47.088    
2740.800039 7.22       388.936    47.16     
2741.000039 7.22       131.088    47.244    
2741.200039 7.1        484.035    47.312    
2741.400039 7.02       624.871    47.386    
2741.600039 6.82       109.016    47.504    
2741.80004 6.72       172.984    47.539    
2742.00004 6.68       111.025    47.59     
2742.20004 6.57       211.065    47.745    
2742.40004 6.74       468.938    47.881    
2742.60004 7.17       219.992    48.025    
2742.80004 7.09       188.022    48.194    
2743.00004 6.49       275.972    48.301    
2743.20004 6.47       163.076    48.414    
2743.40004 6.14       465.083    48.51     
2743.60004 6.1        797.029    48.571    
2743.800041 5.93       912.827    48.665    
2744.000041 5.93       220.011    48.704    
2744.200041 6.12       262.049    48.772    
2744.400041 6.46       457.14     48.906    
2744.600041 6.52       1016.809   49.023    
2744.800041 6.6        253.056    49.086    
2745.000041 6.63       477.089    49.226    
2745.200041 6.82       831.541    49.312    
2745.400041 6.84       2995.057   49.43     
2745.600041 7.13       11212.59   49.553    
2745.800042 7.09       17560.69   49.629    
2746.000042 6.51       363.093    49.775    
2746.200042 6.52       733.94     49.869    
2746.400042 6.66       492.914    49.971    
2746.600042 6.79       149.028    50.079    
2746.800042 6.83       262.007    50.199    
2747.000042 6.86       288.992    50.285    
2747.200042 6.91       259.109    50.41     
2747.400042 7.09       694.957    50.545    
2747.600042 7.14       525.047    50.742    
2747.800043 7.66       713.978    50.934    
2748.000043 7.65       624.917    51.049    
2748.200043 7.6        292.996    51.204    
2748.400043 7.6        276.009    51.319    
2748.600043 7.39       313.07     51.377    
2748.800043 7.34       590.972    51.504    
2749.000043 6.58       477.904    51.658    
2749.200043 6.58       96.05      51.766    
2749.400043 6.72       297.099    51.962    
2749.600043 6.84       691.882    52.098    
2749.800044 6.86       223.087    52.268    
2750.000044 6.95       571        52.423    
2750.200044 6.85       571.881    52.666    
2750.400044 6.42       98.045     52.956    
2750.600044 6.46       276.103    53.101    
2750.800044 6.91       685.039    53.235    
2751.000044 6.92       838.844    53.422    
2751.200044 7.01       216.009    53.684    
2751.400044 7.01       251.097    54.072    
2751.600044 7          637.138    54.402    
2751.800045 7          1187.848   54.594    
2752.000045 7.02       580.949    54.839    
2752.200045 7.08       377.235    55.003    
2752.400045 7.09       1312.804   55.149    
2752.600045 7.1        529.888    55.361    
2752.800045 7.06       85.026     55.502    
2753.000045 6.66       187.043    55.751    
2753.200045 6.59       358.024    56.057    
2753.400045 5.85       451.933    56.225    
2753.600045 5.85       185.08     56.445    
2753.800046 5.95       505.288    56.612    
2754.000046 6.02       1653.93    56.737    
2754.200046 6.1        1375.677   56.877    
2754.400046 6.4        87.05      56.989    
2754.600046 6.28       285.152    57.146    
2754.800046 5.76       891.905    57.421    
2755.000046 5.72       512.958    57.567    
2755.200046 5.04       346.036    57.735    
2755.400046 5.02       489.077    57.948    
2755.600046 4.54       797.05     58.07     
2755.800047 4.55       997.797    58.21     
2756.000047 4.79       188.111    58.336    
2756.200047 5.22       629.143    58.445    
2756.400047 5.53       1197.49    58.611    
2756.600047 6.18       3152.219   58.723    
2756.800047 6.18       11988.27   58.858    
2757.000047 6.17       21014.89   59.011    
2757.200047 6.12       691.017    59.134    
2757.400047 5.62       759.106    59.294    
2757.600047 5.61       1181.767   59.504    
2757.800048 5.39       254.153    59.594    
2758.000048 5.28       864.956    59.689    
2758.200048 5.66       690.893    59.785    
2758.400048 5.95       266.121    59.862    
2758.600048 5.94       746.911    59.944    
2758.800048 5.85       394.066    60.031    
2759.000048 5.84       658.095    60.083    
2759.200048 5.68       1036.867   60.166    
2759.400048 5.57       507.099    60.239    
2759.600048 5.83       901.909    60.307    
2759.800049 6.06       539.942    60.397    
2760.000049 6.07       308.116    60.534    
2760.200049 6.14       768.969    60.626    
2760.400049 6.11       646.2      60.714    
2760.600049 5.93       1442.965   60.787    
2760.800049 5.91       1303.079   60.842    
2761.000049 5.36       1615.877   60.899    
2761.200049 5.36       1128.019   60.954    
2761.400049 5.38       1203.932   61.005    
2761.600049 5.39       933.985    61.091    
2761.80005 5.66       874.982    61.174    
2762.00005 6.14       803.984    61.248    
2762.20005 6.17       740.966    61.281    
2762.40005 6.23       606.15     61.302    
2762.60005 6.19       1201.028   61.314    
2762.80005 5.93       1310.986   61.329    
2763.00005 5.93       1254.062   61.342    
2763.20005 5.85       1498.769   61.355    
2763.40005 5.82       582.036    61.367    
2763.60005 5.59       725.133    61.379    
2763.80005 5.53       1253.812   61.387    
2764.000051 5.51       507.179    61.395    
2764.200051 5.45       1218.014   61.403    
2764.400051 5.57       1273.239   61.407    
2764.600051 5.93       2223.099   61.415    
2764.800051 5.92       2615.363   61.421    
2765.000051 5.74       4056.808   61.432    
2765.200051 5.67       3296.103   61.442    
2765.400051 4.87       3706.587   61.458    
2765.600051 4.87       2067.77    61.481    
2765.800052 4.83       1154.095   61.505    
2766.000052 4.82       1530.377   61.532    
2766.200052 5.11       3027.459   61.55     
2766.400052 5.36       878.853    61.562    
2766.600052 5.38       293.934    61.573    
2766.800052 5.43       31         61.577    
2767.000052 5.37       30.001     61.599    
2767.200052 5.28       33.999     61.612    
2767.400052 5.43       29         61.629    
2767.600052 5.74       29.001     61.642    
2767.800053 5.71       30.999     61.648    
2768.000053 5.66       29.001     61.652    
2768.200053 5.86       30.999     61.659    
2768.400053 5.88       27.003     61.664    
2768.600053 5.99       -9999      61.672    
2768.800053 -9999      -9999      61.676    
2769.000053 -9999      -9999      61.685    
2769.200053 -9999      -9999      61.693    
2769.400053 -9999      -9999      61.701    
2769.600053 -9999      -9999      -9999     
