~Version
 VERS              .         2.0                           : CWLS LOG ASCII STANDARD - VERSION 2.0
 WRAP              .         NO                            : ONE LINE PER DEPTH STEP
 DLM               .         SPACE                         : DELIMITING CHARACTER(SPACE TAB OR COMMA)
~Well Information
#_______________________________________________________________________________
#
#PARAMETER_NAME    .UNIT     VALUE                         : DESCRIPTION
#_______________________________________________________________________________
STRT               .M        2667.4                        : First reference value
STOP               .M        2776                          : Last reference value
STEP               .M        0.2000002                     : Step increment
NULL               .         -9999                         : Missing value
COMP               .                                       : Company
WELL               .         616                           : Well name
FLD                .                                       : Field
LOC                .                                       : Location
CNTY               .                                       : County
STAT               .                                       : State
CTRY               .                                       : Country
SRVC               .                                       : Service Company
DATE               .                                       : Date
API                .                                       : API number
PROJECT_UPGRADE_TIME .         2021-03-18T21_24_50           : 
group              .         Good                          : 
~Parameter Information Block
#_______________________________________________________________________________
#
#PARAMETER_NAME    .UNIT     VALUE                         : DESCRIPTION
#_______________________________________________________________________________
SET                .         D1800_D                       : 
OTHER              .         Программное обеспечение станции MONITOR-386EX 25/12/99 15_08_10   BGF V52 22/08/01 16_56_30   3.1_SNGF___BGF_N_092049: 
OTHER_10           .         Тарировки_                    : 
OTHER_11           .         TM.GRD = 0.00403*TM$.UE + -1.07: 
OTHER_12           .         MN.ATM = (9.34907e-006*TM.GRD + 0.02171)*(MN$.UE + -7.93*TM.GRD + -1787): 
OTHER_13           .         GK.MKR/H = LM. / 42.4676      : 
OTHER_14           .         GK.FLT = 0.1*GK.MKR/H[-1] + (1-0.1)*GK.MKR/H[0]: 
OTHER_2            .         Kedr.exe версия 3.4.2.51      : 
OTHER_3            .         KedrData.dll версия 3.4.2.24  : 
OTHER_4            .         Драйвер версия 2.1.1.3        : 
OTHER_5            .         Мнемоники версия 3.3 S        : 
OTHER_6            .         Прибор_ КСА-Т4                : 
OTHER_7            .         Номер прибора_ 03             : 
OTHER_8            .         Режим_ КСА-Т4                 : 
OTHER_9            .         Форма_ КВА.                   : 
PROJECT_UPGRADE_TIME .         2021-03-18T21_24_49           : 
TLFamily_DEPT      .         Measured Depth                : 
TLFamily_GK        .         Gamma Ray                     : 
TLFamily_GK$       .                                       : 
TLFamily_GK_2      .         Gamma Ray                     : 
TLFamily_LM        .         Casing Collar locator         : 
TLFamily_METKA     .                                       : 
TLFamily_MN        .                                       : 
TLFamily_MN$       .                                       : 
TLFamily_RCOR      .                                       : 
TLFamily_SPID      .         Spontaneous Potential         : 
TLFamily_TENS      .         Cable Tension                 : 
TLFamily_TIME      .         Time                          : 
TLFamily_TM        .         Temperature                   : 
TLFamily_TM$       .         Temperature                   : 
group              .         prim                          : 
~Curve Information
#_______________________________________________________________________________
#
#LOGNAME           .UNIT     LOG_ID                        : DESCRIPTION
#_______________________________________________________________________________
DEPT               .M                                      : 1 Глубина, м -    0.0 см 
GK                 .MKR/H                                  : 13 Гамма-активность, мкр./ч -  110.0 см 
GK$                .UE                                     : 10 Гамма-активность, усл.ед. -  110.0 см 
GK_2               .FLT                                    : 14 Гамма-активность фильтрованная, мкр./ч -  110.0 см 
LM                 .                                       : 9 Локатор муфт,  -   20.0 см 
METKA              .                                       : 3 Метки,  -    0.0 см 
MN                 .ATM                                    : 12 Давление, атм. -  160.0 см 
MN$                .UE                                     : 8 Давление, усл.ед. -  160.0 см 
RCOR               .CM/KM                                  : 5 Коррекция по ролику, см/км -    0.0 см 
SPID               .M/H                                    : 2 Скорость, м/час -    0.0 см 
TENS               .T                                      : 6 Натяжение кабеля, т -    0.0 см 
TIME               .S                                      : 4 Время, сек -    0.0 см 
TM                 .GRD                                    : 11 Температура, °C -  170.0 см 
TM$                .UE                                     : 7 Температура, усл.ед. -  170.0 см 
~Ascii
# ...
2709       12.74      541        12.74      65         0          248.129    13356      -645       -229       0.17       7066.16    45.154     11470     
2709.2     12.88      547        12.87      117        0          248.166    13358      -645       -233       0.17       7063.19    45.154     11470     
2709.4     12.57      534        12.57      79         0          248.177    13358      -645       -238       0.17       7060.08    45.154     11470     
2709.6     12.34      524        12.28      73         0          248.203    13360      -645       -236       0.17       7056.97    45.152     11470     
2709.8     12.41      527        12.41      63         0          248.233    13361      -645       -233       0.17       7053.86    45.15      11469     
2710       12.53      532        12.52      66         2          248.244    13361      -638       -228       0.17       7049.64    45.146     11468     
2710.2     11.84      503        11.83      78         0          248.24     13361      -638       -234       0.17       7046.59    45.146     11468     
2710.4     11.73      498        11.85      63         0          248.277    13363      -638       -227       0.17       7043.55    45.146     11468     
2710.6     11.44      486        11.44      54         0          248.3      13364      -638       -238       0.17       7040.25    45.142     11467     
2710.8     11.11      472        11.1       65         0          248.301    13364      -638       -236       0.17       7037.09    45.138     11466     
2711       10.53      447        10.48      73         0          248.33     13365      -638       -237       0.17       7034.11    45.134     11465     
2711.2     9.77       415        9.76       153        0          248.345    13366      -638       -239       0.17       7030.94    45.134     11465     
2711.4     8.5        361        8.49       113        0          248.367    13367      -638       -237       0.17       7027.77    45.134     11465     
2711.6     8.15       346        8.56       157        0          248.397    13368      -638       -242       0.17       7024.78    45.13      11464     
2711.8     14.2       603        14.2       101        0          248.423    13370      -638       -228       0.17       7021.8     45.122     11462     
2712       16.29      692        16.29      90         0          248.435    13370      -638       -233       0.17       7018.58    45.118     11461     
2712.2     15.05      639        14.94      133        0          248.468    13372      -638       -236       0.17       7015.34    45.114     11460     
2712.4     13.7       582        13.06      84         0          248.479    13372      -638       -233       0.17       7012.3     45.111     11459     
2712.6     10.76      457        10.76      97         1          248.501    13373      -638       -237       0.17       7009.12    45.11      11459     
2712.8     11.3       480        11.31      108        0          248.524    13374      -638       -229       0.17       7006.02    45.108     11459     
2713       12.88      547        12.94      78         0          248.546    13375      -638       -238       0.17       7002.98    45.102     11457     
2713.2     14.93      634        14.84      86         0          248.546    13375      -638       -234       0.17       6999.94    45.102     11457     
2713.4     12.67      538        12.67      120        0          248.59     13377      -638       -224       0.17       6996.83    45.102     11457     
2713.6     11.21      476        11.2       147        0          248.59     13377      -638       -225       0.17       6993.47    45.102     11457     
2713.8     9.44       401        9.42       99         0          248.62     13378      -638       -231       0.17       6990.48    45.102     11457     
2714       8.01       340        7.89       234        0          248.635    13379      -638       -231       0.17       6987.39    45.102     11457     
2714.2     7.87       334        7.98       2893       0          248.657    13380      -638       -237       0.17       6984.27    45.1       11457     
2714.4     8.22       349        8.22       153        0          248.679    13381      -638       -227       0.17       6981.17    45.102     11457     
2714.6     8.03       341        8.03       86         0          248.702    13382      -638       -230       0.17       6978.18    45.098     11456     
2714.8     7.98       339        7.98       85         0          248.724    13383      -638       -228       0.17       6975.08    45.094     11455     
2715       8.64       367        8.64       83         0          248.724    13383      -638       -229       0.17       6971.97    45.094     11455     
2715.2     9.32       396        9.33       77         0          248.768    13385      -638       -230       0.17       6968.68    45.094     11455     
2715.4     11.35      482        11.42      50         0          248.768    13385      -638       -231       0.17       6965.64    45.09      11454     
2715.6     15.16      644        15.39      60         0          248.798    13386      -638       -232       0.17       6962.53    45.09      11454     
2715.8     16.48      700        16.24      59         0          248.768    13385      -638       -241       0.17       6959.36    45.09      11454     
2716       13.94      592        13.93      92         0          248.835    13388      -638       -245       0.17       6956.38    45.09      11454     
2716.2     11.73      498        11.71      71         0          248.857    13389      -638       -241       0.17       6953.2     45.09      11454     
2716.4     10.71      455        10.62      69         0          248.879    13390      -638       -225       0.17       6950.23    45.09      11454     
2716.6     9.28       394        9.28       67         0          248.901    13391      -638       -224       0.17       6947.06    45.09      11454     
2716.8     9.77       415        9.77       73         0          248.923    13392      -638       -237       0.17       6943.89    45.09      11454     
2717       9.75       414        9.75       124        0          248.946    13393      -638       -234       0.17       6940.78    45.088     11453     
2717.2     10.1       429        10.11      148        0          248.968    13394      -638       -239       0.17       6937.55    45.086     11453     
2717.4     10.2       433        10.15      106        0          248.979    13394      -638       -234       0.17       6934.58    45.082     11452     
2717.6     9.91       421        9.91       73         0          249.001    13396      -638       -230       0.17       6931.47    45.082     11452     
2717.8     9.65       410        9.67       65         0          249.012    13396      -638       -234       0.17       6928.36    45.079     11451     
2718       10.67      453        10.72      129        0          249.034    13397      -638       -234       0.17       6925.25    45.078     11451     
2718.2     11.3       480        11.1       157        0          249.057    13398      -638       -223       0.17       6922.27    45.082     11452     
2718.4     9.65       410        9.65       209        0          249.079    13399      -638       -236       0.17       6919.04    45.082     11452     
2718.6     9.51       404        9.52       77         0          249.101    13400      -638       -229       0.17       6915.81    45.082     11452     
2718.8     10.34      439        10.34      121        0          249.123    13401      -638       -233       0.17       6912.77    45.082     11452     
2719       10.43      443        10.56      133        0          249.145    13402      -638       -239       0.17       6909.72    45.082     11452     
2719.2     10.81      459        10.81      180        0          249.145    13402      -638       -229       0.17       6906.61    45.082     11452     
