~Version
 VERS              .         2.0                           : CWLS LOG ASCII STANDARD - VERSION 2.0
 WRAP              .         NO                            : ONE LINE PER DEPTH STEP
 DLM               .         SPACE                         : DELIMITING CHARACTER(SPACE TAB OR COMMA)
~Well Information
#_______________________________________________________________________________
#
#PARAMETER_NAME    .UNIT     VALUE                         : DESCRIPTION
#_______________________________________________________________________________
STRT               .M        2310.8                        : First reference value
STOP               .M        2792.2                        : Last reference value
STEP               .M        0.2                           : Step increment
NULL               .         -9999                         : Missing value
COMP               .                                       : Company
WELL               .         616                           : Well name
FLD                .                                       : Field
LOC                .                                       : Location
CNTY               .                                       : County
STAT               .                                       : State
CTRY               .                                       : Country
SRVC               .                                       : Service Company
DATE               .                                       : Date
API                .                                       : API number
PROJECT_UPGRADE_TIME .         2021-03-18T21_24_50           : 
group              .         Good                          : 
~Parameter Information Block
#_______________________________________________________________________________
#
#PARAMETER_NAME    .UNIT     VALUE                         : DESCRIPTION
#_______________________________________________________________________________
SET                .         D2660_D                       : 
OTHER              .         Программное обеспечение станции MONITOR-386EX 25/12/99 15_08_10   BGF V50 26/12/00 07_26_01   3.1_SNGF___BGF_N_092085: 
OTHER_10           .         Тарировки_                    : 
OTHER_2            .         Kedr.exe версия 3.3.2.32      : 
OTHER_3            .         KedrData.dll версия 3.3.2.17  : 
OTHER_4            .         Драйвер версия 2.1.0.1        : 
OTHER_5            .         Мнемоники версия 3.3 S        : 
OTHER_6            .         Прибор_ ПС                    : 
OTHER_7            .         Номер прибора_ 348\072        : 
OTHER_8            .         Режим_ ПС                     : 
OTHER_9            .         Форма_ ПС                     : 
PROJECT_UPGRADE_TIME .         2021-03-18T21_24_49           : 
TLFamily_DEPT      .         Measured Depth                : 
TLFamily_METKA     .                                       : 
TLFamily_PS        .         Spontaneous Potential         : 
TLFamily_RCOR      .                                       : 
TLFamily_SPID      .         Spontaneous Potential         : 
TLFamily_TENS      .         Cable Tension                 : 
TLFamily_TIME      .         Time                          : 
group              .         prim                          : 
~Curve Information
#_______________________________________________________________________________
#
#LOGNAME           .UNIT     LOG_ID                        : DESCRIPTION
#_______________________________________________________________________________
DEPT               .M                                      : 1 Глубина, м -    0.0 см 
METKA              .                                       : 3 Метки,  -    0.0 см 
PS                 .mV                                     : 7 ПС, мВ - 1210.0 см 
RCOR               .CM/KM                                  : 5 Коррекция по ролику, см/км -    0.0 см 
SPID               .M/H                                    : 2 Скорость, м/час -    0.0 см 
TENS               .T                                      : 6 Натяжение кабеля, т -    0.0 см 
TIME               .S                                      : 4 Время, сек -    0.0 см 
~Ascii
# ...
2394       0          536.85     -396       -2153      0          30560.2   
2394.2     0          536.87     -396       -2102      0          30559.82  
2394.4     0          536.66     -396       -2069      0          30559.51  
2394.6     0          536.82     -396       -2064      0          30559.18  
2394.8     0          536.6      -396       -2110      0          30558.86  
2395       0          537.06     -396       -2111      0          30558.51  
2395.2     0          536.77     -396       -2119      0          30558.16  
2395.4     0          536.68     -396       -2167      0          30557.82  
2395.6     0          536.69     -396       -2144      0          30557.48  
2395.8     0          537.09     -396       -2055      0          30557.16  
2396       0          536.03     -396       -2085      0          30556.79  
2396.2     0          536.53     -396       -2110      0          30556.47  
2396.4     0          536.34     -396       -2110      0          30556.12  
2396.6     0          536.27     -396       -2111      0          30555.78  
2396.8     0          535.79     -396       -2116      0          30555.46  
2397       0          537.69     -396       -2152      0          30555.1   
2397.2     0          535.76     -396       -2159      0          30554.77  
2397.4     0          536.01     -396       -2057      0          30554.44  
2397.6     0          535.13     -396       -2051      0          30554.12  
2397.8     0          534.56     -396       -2056      0          30553.77  
2398       0          534.23     -396       -2086      0          30553.45  
2398.2     0          532.07     -396       -2122      0          30553.08  
2398.4     0          532.09     -396       -2172      0          30552.75  
2398.6     0          531.76     -396       -2131      0          30552.4   
2398.8     0          532.52     -396       -2058      0          30552.06  
2399       0          532.36     -396       -2095      0          30551.74  
2399.2     0          532.97     -396       -2124      0          30551.4   
2399.4     0          532.08     -396       -2180      0          30551.05  
2399.6     0          533.79     -396       -2178      0          30550.7   
2399.8     1          532.37     -396       -2170      0          30550.37  
2400       0          531.06     -396       -2117      0          30550.04  
2400.2     0          529.89     -396       -2109      0          30549.7   
2400.4     0          528.76     -396       -2102      0          30549.37  
2400.6     0          528.24     -396       -2066      0          30549.04  
2400.8     0          527.9      -396       -2007      0          30548.68  
2401       0          529.89     -396       -2123      0          30548.36  
2401.2     0          529.09     -396       -2161      0          30548     
2401.4     0          531.1      -396       -2110      0          30547.67  
2401.6     0          531.35     -396       -2109      0          30547.35  
2401.8     0          532.36     -396       -2101      0          30546.97  
2402       0          531.12     -396       -2059      0          30546.65  
2402.2     0          529.84     -396       -2089      0          30546.32  
2402.4     0          529.47     -396       -2179      0          30545.96  
2402.6     0          529.11     -396       -2176      0          30545.62  
2402.8     0          528.94     -396       -2155      0          30545.26  
2403       0          530.93     -396       -2050      0          30544.95  
2403.2     0          530.52     -396       -2051      0          30544.61  
2403.4     0          529.25     -396       -2056      0          30544.3   
2403.6     0          530.18     -396       -2089      0          30543.94  
2403.8     0          530.66     -396       -2110      0          30543.58  
2404       0          530.88     -396       -2110      0          30543.25  
2404.2     0          531.74     -396       -2111      0          30542.89  
2404.4     0          530.99     -396       -2117      0          30542.57  
2404.6     0          531.79     -396       -2154      0          30542.23  
2404.8     0          530.86     -396       -2152      0          30541.89  
2405       0          531.57     -396       -2058      0          30541.57  
2405.2     0          533.11     -396       -2100      0          30541.22  
2405.4     0          531.41     -396       -2163      0          30540.88  
2405.6     0          530        -396       -2077      0          30540.54  
2405.8     0          529.5      -396       -2065      0          30540.19  
2406       0          529.9      -396       -2110      0          30539.87  
2406.2     0          531.07     -396       -2109      0          30539.52  
2406.4     0          532.17     -396       -2102      0          30539.17  
2406.6     0          533.4      -396       -2059      0          30538.83  
2406.8     0          533.29     -396       -2084      0          30538.51  
2407       0          532.37     -396       -2174      0          30538.15  
2407.2     0          531.65     -396       -2145      0          30537.8   
2407.4     0          530.14     -396       -2119      0          30537.49  
2407.6     0          530.14     -396       -2170      0          30537.14  
2407.8     0          530.21     -396       -2145      0          30536.83  
2408       0          529.66     -396       -2050      0          30536.49  
2408.2     0          530.98     -396       -2052      0          30536.15  
2408.4     0          530.9      -396       -2061      0          30535.8   
2408.6     1          532.04     -396       -2114      0          30535.46  
2408.8     0          532.23     -396       -2135      0          30535.11  
2409       0          531.78     -396       -2166      0          30534.77  
2409.2     0          532.77     -396       -2101      0          30534.44  
2409.4     0          533.04     -396       -2062      0          30534.1   
2409.6     0          533.11     -396       -2110      0          30533.76  
2409.8     1          533.15     -396       -2111      0          30533.51  
2410       0          532.76     -396       -2119      0          30533.05  
2410.2     0          533.61     -395       -2160      0          30532.74  
2410.4     0          534.19     -395       -2154      0          30532.39  
2410.6     0          533.82     -395       -2054      0          30532.05  
2410.8     0          534.21     -395       -2073      0          30531.72  
2411       0          533.77     -395       -2103      0          30531.37  
2411.2     0          534.4      -395       -2062      0          30531.02  
2411.4     0          534.17     -395       -2087      0          30530.68  
2411.6     0          532.06     -395       -2179      0          30530.32  
2411.8     0          528.61     -395       -2176      0          30530     
2412       0          526.16     -395       -2158      0          30529.67  
2412.2     0          525.82     -395       -2053      0          30529.32  
2412.4     0          526.89     -395       -2069      0          30528.99  
2412.6     0          527.83     -395       -2110      0          30528.67  
2412.8     0          528.22     -395       -2108      0          30528.33  
2413       0          528.71     -395       -2099      0          30527.98  
2413.2     0          529.11     -395       -2053      0          30527.65  
2413.4     0          528.67     -395       -2073      0          30527.29  
2413.6     0          528.25     -395       -2110      0          30526.98  
2413.8     0          528.36     -395       -2110      0          30526.62  
2414       0          528.84     -395       -2110      0          30526.27  
2414.2     0          529.26     -395       -2110      0          30525.93  
2414.4     0          530.25     -395       -2111      0          30525.59  
2414.6     0          530.66     -395       -2117      0          30525.26  
