~Version
 VERS              .         2.0                           : CWLS LOG ASCII STANDARD - VERSION 2.0
 WRAP              .         NO                            : ONE LINE PER DEPTH STEP
 DLM               .         SPACE                         : DELIMITING CHARACTER(SPACE TAB OR COMMA)
~Well Information
#_______________________________________________________________________________
#
#PARAMETER_NAME    .UNIT     VALUE                         : DESCRIPTION
#_______________________________________________________________________________
STRT               .M        44                            : First reference value
STOP               .M        2769.2                        : Last reference value
STEP               .M        0.2                           : Step increment
NULL               .         -9999                         : Missing value
COMP               .                                       : Company
WELL               .         616                           : Well name
FLD                .                                       : Field
LOC                .                                       : Location
CNTY               .                                       : County
STAT               .                                       : State
CTRY               .                                       : Country
SRVC               .                                       : Service Company
DATE               .                                       : Date
API                .                                       : API number
PROJECT_UPGRADE_TIME .         2021-03-18T21_24_50           : 
group              .         Good                          : 
~Parameter Information Block
#_______________________________________________________________________________
#
#PARAMETER_NAME    .UNIT     VALUE                         : DESCRIPTION
#_______________________________________________________________________________
SET                .         D1160_D                       : 
OTHER              .         Программное обеспечение станции MONITOR-386EX 25/12/99 15_08_10   BGF V52 22/08/01 16_56_30   3.2_BGF_N_3070031: 
OTHER_10           .         Тарировки_                    : 
OTHER_11           .         TM.GRD = 0.00403*TM$.UE + -1.19: 
OTHER_12           .         MN.ATM = (7.1e-006*TM.GRD + 0.02017)*(MN$.UE + -3.03*TM.GRD + -1833): 
OTHER_13           .         Id error                      : 
OTHER_2            .         Kedr.exe версия 3.4.2.51      : 
OTHER_3            .         KedrData.dll версия 3.4.2.24  : 
OTHER_4            .         Драйвер версия 2.1.1.8        : 
OTHER_5            .         Мнемоники версия 3.3 S        : 
OTHER_6            .         Прибор_ КСА-М1                : 
OTHER_7            .         Номер прибора_ 265            : 
OTHER_8            .         Режим_ КСА-М1                 : 
OTHER_9            .         Форма_ ТЕРМОМЕТР              : 
PROJECT_UPGRADE_TIME .         2021-03-18T21_24_49           : 
TLFamily_DEPT      .         Measured Depth                : 
TLFamily_GK        .         Gamma Ray                     : 
TLFamily_GK$       .                                       : 
TLFamily_LM        .         Casing Collar locator         : 
TLFamily_METKA     .                                       : 
TLFamily_MN        .                                       : 
TLFamily_MN$       .                                       : 
TLFamily_RCOR      .                                       : 
TLFamily_SPID      .         Spontaneous Potential         : 
TLFamily_STD       .                                       : 
TLFamily_TENS      .         Cable Tension                 : 
TLFamily_TIME      .         Time                          : 
TLFamily_TM        .         Temperature                   : 
TLFamily_TM$       .         Temperature                   : 
TLFamily_VGD       .         Gas Volume                    : 
group              .         prim                          : 
~Curve Information
#_______________________________________________________________________________
#
#LOGNAME           .UNIT     LOG_ID                        : DESCRIPTION
#_______________________________________________________________________________
DEPT               .M                                      : 1 Глубина, м -    0.0 см 
GK                 .MKR/H                                  : 15 Гамма-активность, мкр./ч -  110.0 см 
GK$                .UE                                     : 12 Гамма-активность, усл.ед. -  110.0 см 
LM                 .                                       : 10 Локатор муфт,  -   20.0 см 
METKA              .                                       : 3 Метки,  -    0.0 см 
MN                 .ATM                                    : 14 Давление, атм. -  160.0 см 
MN$                .UE                                     : 8 Давление, усл.ед. -  160.0 см 
RCOR               .CM/KM                                  : 5 Коррекция по ролику, см/км -    0.0 см 
SPID               .M/H                                    : 2 Скорость, м/час -    0.0 см 
STD                .                                       : 11 Приток,  -  170.0 см 
TENS               .T                                      : 6 Натяжение кабеля, т -    0.0 см 
TIME               .S                                      : 4 Время, сек -    0.0 см 
TM                 .GRD                                    : 13 Температура, °C -  180.0 см 
TM$                .UE                                     : 7 Температура, усл.ед. -  180.0 см 
VGD                .                                       : 9 Влагомер,  -  170.0 см 
~Ascii
# ...
583        4.92       204        83         0          52.036     4453       -1400      1951       3618       0          11474.78   19.04      5020       6450      
583.2      4.86       203        80         0          52.056     4454       -1400      1948       3622       0          11475.17   19.046     5021       6449      
583.4      4.82       203        77         0          52.076     4455       -1400      1946       3622       0          11475.52   19.054     5023       6450      
583.6      4.8        203        74         0          52.088     4456       -1400      1948       3626       0          11475.88   19.062     5025       6450      
583.8      4.78       203        78         0          52.102     4457       -1400      1945       3628       0          11476.26   19.068     5027       6450      
584        4.77       203        83         0          52.128     4458       -1400      1944       3631       0          11476.62   19.076     5029       6450      
584.2      4.7        195        73         0          52.134     4458       -1400      1948       3635       0          11476.98   19.085     5031       6450      
584.4      4.64       193        65         0          52.154     4459       -1400      1952       3637       0          11477.35   19.094     5033       6449      
584.6      4.6        193        82         0          52.173     4460       -1400      1959       3639       0          11477.7    19.101     5035       6450      
584.8      4.57       193        79         0          52.193     4461       -1400      1949       3645       0          11478.07   19.11      5037       6449      
585        4.55       193        70         0          52.212     4462       -1400      1942       3647       0          11478.45   19.115     5039       6450      
585.2      4.54       193        73         0          52.236     4463       -1400      1952       3651       0          11478.8    19.123     5040       6450      
585.4      4.53       193        66         0          52.268     4465       -1400      1949       3654       0          11479.17   19.131     5042       6450      
585.6      4.53       193        74         0          52.271     4465       -1400      1946       3656       0          11479.54   19.139     5044       6449      
585.8      4.52       193        77         0          52.29      4466       -1400      1949       3659       0          11479.88   19.146     5046       6449      
586        4.52       193        81         0          52.313     4467       -1400      1947       3662       0          11480.28   19.151     5047       6450      
586.2      4.52       193        78         0          52.35      4469       -1400      1950       3665       0          11480.62   19.159     5049       6449      
586.4      4.52       193        74         0          52.37      4470       -1400      1953       3670       0          11480.98   19.166     5051       6449      
586.6      4.52       193        74         0          52.39      4471       -1400      1955       3673       0          11481.37   19.17      5052       6450      
586.8      4.52       193        85         0          52.409     4472       -1400      1958       3675       0          11481.72   19.178     5054       6450      
587        4.53       194        75         0          52.428     4473       -1400      1960       3679       0          11482.08   19.186     5056       6449      
587.2      4.55       196        85         0          52.43      4473       -1400      1962       3682       0          11482.46   19.19      5057       6449      
587.4      4.56       196        79         0          52.466     4475       -1400      1964       3685       0          11482.81   19.187     5056       6449      
587.6      4.57       196        87         0          52.467     4475       -1400      1960       3689       0          11483.19   19.205     5061       6449      
587.8      4.57       196        148        0          52.486     4476       -1400      1961       3692       0          11483.55   19.214     5063       6448      
588        4.58       196        336        0          52.505     4477       -1400      1963       3696       0          11483.91   19.221     5065       6447      
588.2      4.58       196        3001       0          52.526     4478       -1400      1960       3701       0          11484.3    19.229     5067       6448      
588.4      4.54       191        1985       0          52.544     4479       -1400      1961       3703       0          11484.65   19.238     5069       6448      
588.6      4.45       182        1311       0          52.564     4480       -1400      1963       3706       0          11485.02   19.245     5071       6448      
588.8      4.38       182        867        0          52.584     4481       -1400      1969       3709       0          11485.38   19.253     5073       6447      
589        4.34       182        583        0          52.603     4482       -1400      1969       3710       0          11485.74   19.258     5074       6448      
589.2      4.31       182        397        0          52.624     4483       -1400      1967       3714       0          11486.09   19.265     5076       6448      
589.4      4.29       182        265        0          52.627     4483       -1400      1969       3717       0          11486.47   19.273     5078       6447      
589.6      4.27       180        188        0          52.657     4485       -1400      1966       3718       0          11486.85   19.281     5080       6448      
589.8      4.2        174        135        0          52.667     4485       -1400      1965       3722       0          11487.2    19.285     5081       6448      
590        4.16       174        109        2          52.681     4486       -1400      1967       3725       0          11487.59   19.296     5083       6447      
590.2      4.13       174        91         0          52.701     4487       -1400      1968       3727       0          11487.98   19.304     5085       6447      
590.4      4.11       174        82         0          52.72      4488       -1400      1969       3728       0          11488.33   19.309     5087       6449      
590.6      4.1        174        70         0          52.739     4489       -1400      1970       3731       0          11488.69   19.316     5088       6449      
590.8      4.09       174        67         0          52.758     4490       -1400      1971       3734       0          11489.05   19.324     5090       6448      
591        4.08       174        61         0          52.778     4491       -1400      1972       3737       0          11489.42   19.331     5092       6448      
591.2      4.2        188        52         0          52.799     4492       -1400      1970       3742       0          11489.79   19.339     5094       6449      
591.4      4.27       188        48         0          52.818     4493       -1400      1971       3743       0          11490.16   19.348     5096       6448      
591.6      4.31       188        53         0          52.827     4493       -1400      1979       3746       0          11490.52   19.355     5098       6448      
591.8      4.34       188        53         0          52.839     4494       -1400      1980       3752       0          11490.89   19.361     5100       6448      
592        4.36       188        51         0          52.87      4495       -1400      1977       3754       0          11491.25   19.368     5101       6448      
592.2      4.37       188        53         0          52.898     4497       -1400      1977       3757       0          11491.6    19.376     5103       6449      
592.4      4.38       188        48         0          52.906     4497       -1400      1975       3762       0          11491.98   19.384     5105       6449      
592.6      4.48       200        54         0          52.916     4498       -1400      1972       3762       0          11492.33   19.391     5107       6448      
