~Version
 VERS              .         2.0                           : CWLS LOG ASCII STANDARD - VERSION 2.0
 WRAP              .         NO                            : ONE LINE PER DEPTH STEP
 DLM               .         SPACE                         : DELIMITING CHARACTER(SPACE TAB OR COMMA)
~Well Information
#_______________________________________________________________________________
#
#PARAMETER_NAME    .UNIT     VALUE                         : DESCRIPTION
#_______________________________________________________________________________
STRT               .M        44.8                          : First reference value
STOP               .M        2755.2                        : Last reference value
STEP               .M        0.2                           : Step increment
NULL               .         -9999                         : Missing value
COMP               .                                       : Company
WELL               .         616                           : Well name
FLD                .                                       : Field
LOC                .                                       : Location
CNTY               .                                       : County
STAT               .                                       : State
CTRY               .                                       : Country
SRVC               .                                       : Service Company
DATE               .                                       : Date
API                .                                       : API number
PROJECT_UPGRADE_TIME .         2021-03-18T21_24_50           : 
group              .         Good                          : 
~Parameter Information Block
#_______________________________________________________________________________
#
#PARAMETER_NAME    .UNIT     VALUE                         : DESCRIPTION
#_______________________________________________________________________________
SET                .         D4390_D_2                     : 
COMM               .                                       : 
OTHER              .         Запись производится в присутствии: 
OTHER_10           .         Максимальная температура      : 
OTHER_100          .         GK.FLT = 0.1*GR.UR/H[-1] + (1-0.1)*GR.UR/H[0]: 
OTHER_11           .         Тип промывочной жидкости      : 
OTHER_12           .         Сопротивление ПЖ (Ом*м) при 20°C: 
OTHER_13           .         Плотность ПЖ(г/см3)           : 
OTHER_14           .         Вязкость ПЖ(с)                : 
OTHER_15           .         Водоотдача ПЖ(см3/30мин)      : 
OTHER_16           .         Уровень ПЖ                    : 
OTHER_17           .         Нефть ПЖ (%)                  : 
OTHER_18           .         Барит ПЖ (%)                  : 
OTHER_19           .         Гематит ПЖ (%)                : 
OTHER_2            .         Заказчик ННСН  ЦДНГ-1         : 
OTHER_20           .         КМЦ ПЖ (%)                    : 
OTHER_21           .         Разгазирование ПЖ (да,нет)    : 
OTHER_22           .         Подъемник                     : 
OTHER_23           .         Лаборатория                   : 
OTHER_24           .         Тип кабеля                    : 
OTHER_25           .         Длина кабеля (м)              : 
OTHER_26           .         Цена последней метки          : 
OTHER_27           .         Цена контрольной метки        : 
OTHER_28           .         Диаметр долота (мм)           : 
OTHER_29           .         Глубина бурения (м)           : 
OTHER_3            .         Площадь                       : 
OTHER_30           .         Искусственный забой (м)       : 
OTHER_31           .         Диаметр колонны (мм)          : 
OTHER_32           .         Толщина колонны (мм)          : 
OTHER_33           .         Башмак колонны (м)            : 
OTHER_34           .         Диаметр НКТ (мм)              : 
OTHER_35           .         Толщина НКТ (мм)              : 
OTHER_36           .         Воронка НКТ (м)               : 
OTHER_37           .         Дата цементожа                : 
OTHER_38           .         Тип, количество(т) и плотность цемента: 
OTHER_39           .         Интервалы перфорации (м)      : 
OTHER_4            .         Категория                     : 
OTHER_40           .         Направление, диаметр (мм)     : 
OTHER_41           .         Направление, глубина (м)      : 
OTHER_42           .         Кондуктор, диаметр (мм)       : 
OTHER_43           .         Кондуктор, глубина (м)        : 
OTHER_44           .         Техническая колонна, диаметр (мм): 
OTHER_45           .         Техническая колонна, глубина (м): 
OTHER_46           .         Эксплуатационная колонна, диаметр (мм): 
OTHER_47           .         Эксплуатационная колонна, глубина (м): 
OTHER_48           .         Программа Кедр-02 версия 3.4  : 
OTHER_49           .         Операционная система Windows NT 5.1 build 2600 Service Pack 2: 
OTHER_5            .         Назначение исследований       : 
OTHER_50           .         Программное обеспечение станции MONITOR-386EX 25/12/99 15_08_10   BGF V54 20/09/05 15_32_17   3.3__BGF_9030071: 
OTHER_51           .         Kedr.exe версия 3.4.2.74      : 
OTHER_52           .         KedrData.dll версия 3.4.2.29  : 
OTHER_53           .         Мнемоники версия 3.18 S       : 
OTHER_54           .         Драйвер версия 2.1.1.4        : 
OTHER_55           .         LasInf.dll 4.3.0.35           : 
OTHER_56           .         Прибор_ КСА-Т4                : 
OTHER_57           .         Номер прибора_ 160            : 
OTHER_58           .         Режим_ КСА-Т4                 : 
OTHER_59           .         Форма_ С.А.Б.                 : 
OTHER_6            .         Альтитуда стола ротора        : 
OTHER_60           .         Тарировки_                    : 
OTHER_61           .         <_techsia_sc_> Дата тарировки температуры 25.05.2010: 
OTHER_62           .         Ручной ввод коэффициентов     : 
OTHER_63           .         TM.DEGC = 0.00402*RTM.E.ACP + -0.994: 
OTHER_64           .         <_techsia_sc_> Дата тарировки давления 25.05.2010: 
OTHER_65           .         Ручной ввод коэффициентов     : 
OTHER_66           .         MN.ATM = (2.27521e-006*TM.DEGC + 0.02078)*(RMN.E.ACP + 6.2*TM.DEGC + -1688): 
OTHER_67           .         <_techsia_sc_> Дата тарировки ГК 25.05.2010: 
OTHER_68           .         Ручной ввод коэффициентов     : 
OTHER_69           .         GR.UR/H = RGR.IMP/MIN / 45.5144: 
OTHER_7            .         Вид исследований 3  6         : 
OTHER_70           .         GK.FLT = 0.1*GR.UR/H[-1] + (1-0.1)*GR.UR/H[0]: 
OTHER_71           .         <_techsia_sc_> Дата тарировки температуры 25.05.2010: 
OTHER_72           .         Ручной ввод коэффициентов     : 
OTHER_73           .         TM.DEGC = 0.00402*RTM.E.ACP + -0.994: 
OTHER_74           .         <_techsia_sc_> Дата тарировки давления 25.05.2010: 
OTHER_75           .         Ручной ввод коэффициентов     : 
OTHER_76           .         MN.ATM = (2.27521e-006*TM.DEGC + 0.02078)*(RMN.E.ACP + 6.2*TM.DEGC + -1688): 
OTHER_77           .         <_techsia_sc_> Дата тарировки ГК 25.05.2010: 
OTHER_78           .         Ручной ввод коэффициентов     : 
OTHER_79           .         GR.UR/H = RGR.IMP/MIN / 45.5144: 
OTHER_8            .         Начало бурения интервала каротажа: 
OTHER_80           .         GK.FLT = 0.1*GR.UR/H[-1] + (1-0.1)*GR.UR/H[0]: 
OTHER_81           .         <_techsia_sc_> Дата тарировки температуры 25.05.2010: 
OTHER_82           .         Ручной ввод коэффициентов     : 
OTHER_83           .         TM.DEGC = 0.00402*RTM.E.ACP + -0.994: 
OTHER_84           .         <_techsia_sc_> Дата тарировки давления 25.05.2010: 
OTHER_85           .         Ручной ввод коэффициентов     : 
OTHER_86           .         MN.ATM = (2.27521e-006*TM.DEGC + 0.02078)*(RMN.E.ACP + 6.2*TM.DEGC + -1688): 
OTHER_87           .         <_techsia_sc_> Дата тарировки ГК 25.05.2010: 
OTHER_88           .         Ручной ввод коэффициентов     : 
OTHER_89           .         GR.UR/H = RGR.IMP/MIN / 45.5144: 
OTHER_9            .         Окончание бурения интервала каротажа: 
OTHER_90           .         GK.FLT = 0.1*GR.UR/H[-1] + (1-0.1)*GR.UR/H[0]: 
OTHER_91           .         <_techsia_sc_> Дата тарировки температуры 25.05.2010: 
OTHER_92           .         Ручной ввод коэффициентов     : 
OTHER_93           .         TM.DEGC = 0.00402*RTM.E.ACP + -0.994: 
OTHER_94           .         <_techsia_sc_> Дата тарировки давления 25.05.2010: 
OTHER_95           .         Ручной ввод коэффициентов     : 
OTHER_96           .         MN.ATM = (2.27521e-006*TM.DEGC + 0.02078)*(RMN.E.ACP + 6.2*TM.DEGC + -1688): 
OTHER_97           .         <_techsia_sc_> Дата тарировки ГК 25.05.2010: 
OTHER_98           .         Ручной ввод коэффициентов     : 
OTHER_99           .         GR.UR/H = RGR.IMP/MIN / 45.5144: 
PROJECT_UPGRADE_TIME .         2021-03-18T21_24_50           : 
PRTY               .         ПП-601-1                      : N партии
SRVC               .         Барковский                    : Начальник партии
TLFamily_DEPT      .         Measured Depth                : 
TLFamily_LM        .         Casing Collar locator         : 
TLFamily_METKA     .                                       : 
TLFamily_MN        .                                       : 
TLFamily_TM        .         Temperature                   : 
group              .         second                        : 
~Curve Information
#_______________________________________________________________________________
#
#LOGNAME           .UNIT     LOG_ID                        : DESCRIPTION
#_______________________________________________________________________________
DEPT               .M                                      : Depth curve 
LM                 .е.ацп                                  : Локатор муфт,е.ацп 
METKA              .е.ацп                                  : Магнитные метки,е.ацп 
MN                 .атм                                    : 12 Давление, атм. -  160.0 см 
TM                 .град.C                                 : Термограмма по стволу скважины,град.C 
~Ascii
# ...
774.8      277        2          72.764     22.052    
775        272.999    0          72.777     22.061    
775.2      256.003    0          72.817     22.07     
775.4      318.004    0          72.84      22.073    
775.6      398.997    0          72.849     22.076    
775.8      331.998    0          72.862     22.081    
776        302        0          72.879     22.078    
776.2      299.999    0          72.905     22.081    
776.4      281.002    0          72.91      22.081    
776.6      321.003    0          72.912     22.085    
776.8      376.002    0          72.967     22.085    
777        409.999    0          72.98      22.089    
777.2      392.999    0          72.99      22.098    
777.4      367.997    0          73.011     22.103    
777.6      314.999    0          73.017     22.11     
777.8      294.005    0          73.045     22.12     
778        399.002    0          73.042     22.13     
778.2      447.999    0          73.058     22.14     
778.4      429.005    0          73.101     22.15     
778.6      530        0          73.119     22.156    
778.8      539        0          73.131     22.161    
779        535.995    0          73.124     22.165    
779.2      430.001    0          73.166     22.167    
779.4      457.001    0          73.173     22.169    
779.6      484.999    0          73.187     22.173    
779.8      463.999    0          73.188     22.174    
780        438.994    0          73.209     22.177    
780.2      326.996    0          73.254     22.177    
780.4      250.997    0          73.263     22.177    
780.6      198.309    0          73.251     22.181    
780.8      6260.89    0          73.287     22.181    
781        4099.939   0          73.294     22.183    
781.2      2903.957   0          73.314     22.185    
781.4      2063.971   0          73.326     22.189    
781.6      1496.981   0          73.336     22.193    
781.8      1115.985   0          73.378     22.195    
782        820.994    0          73.399     22.197    
782.2      703.004    0          73.4       22.201    
782.4      786.995    0          73.415     22.206    
782.6      696.007    0          73.422     22.211    
782.8      835.001    0          73.446     22.217    
783        850.008    0          73.472     22.224    
783.2      1002.001   0          73.487     22.229    
783.4      1012.011   0          73.488     22.239    
783.6      1225.004   0          73.53      22.243    
783.8      1302.006   0          73.536     22.248    
784        1413.998   0          73.553     22.253    
784.2      1365.991   1          73.553     22.258    
784.4      1180.995   0          73.593     22.263    
784.6      1082.989   0          73.596     22.266    
784.8      876.992    2          73.604     22.269    
785        714.994    0          73.628     22.27     
785.2      598.997    0          73.639     22.274    
785.4      546.011    0          73.66      22.28     
785.6      767.994    0          73.682     22.286    
785.8      652.005    0          73.692     22.292    
786        757.006    0          73.718     22.298    
786.2      869.985    0          73.726     22.303    
786.4      582.994    0          73.748     22.308    
786.6      471.005    0          73.753     22.315    
786.8      562.999    0          73.77      22.321    
787        539.004    0          73.797     22.326    
787.2      610        0          73.813     22.331    
787.4      608.994    0          73.817     22.336    
787.6      483.015    0          73.843     22.344    
787.8      775.008    0          73.871     22.35     
788        922.985    0          73.879     22.355    
788.2      638.996    0          73.901     22.362    
788.4      561.003    0          73.907     22.369    
788.6      614.995    0          73.934     22.374    
788.8      515.994    0          73.945     22.379    
789        406.997    0          73.965     22.384    
789.2      356.999    0          73.97      22.388    
789.4      342        0          73.996     22.393    
789.6      348        0          74.009     22.394    
789.8      349        0          74.044     22.398    
790        356.015    0          74.033     22.398    
790.2      637.226    0          74.073     22.401    
790.4      5010.914   0          74.073     22.406    
790.6      3348.945   0          74.102     22.407    
790.8      2287.939   0          74.117     22.413    
791        1113.993   0          74.122     22.421    
791.2      975.988    0          74.16      22.426    
791.4      752.996    0          74.172     22.43     
791.6      676        0          74.182     22.439    
791.8      669.992    0          74.205     22.444    
792        522.999    0          74.226     22.452    
792.2      506.002    0          74.238     22.462    
792.4      537.012    0          74.249     22.468    
792.6      759.996    0          74.269     22.476    
792.8      689.002    0          74.314     22.483    
793        727.002    0          74.314     22.49     
793.2      768.991    0          74.326     22.491    
793.4      593        0          74.335     22.492    
793.6      585.008    0          74.377     22.495    
793.8      732.995    0          74.378     22.5      
794        628.004    0          74.39      22.506    
794.2      706.999    0          74.416     22.516    
794.4      680.011    0          74.443     22.524    
794.6      889.99     0          74.447     22.527    
794.8      694.028    2          74.465     22.53     
795        1226.986   0          74.478     22.531    
795.2      963.006    0          74.487     22.535    
795.4      1072.007   0          74.529     22.537    
795.6      1200.983   0          74.53      22.542    
795.8      871.988    0          74.55      22.546    
796        633.999    0          74.573     22.556    
796.2      611.002    0          74.593     22.56     
796.4      651.004    0          74.596     22.565    
796.6      736.001    0          74.613     22.575    
796.8      762        0          74.639     22.577    
797        760.995    0          74.66      22.582    
797.2      656.998    0          74.669     22.583    
797.4      621.996    0          74.696     22.587    
797.6      548.995    0          74.702     22.587    
797.8      455.995    0          74.727     22.589    
798        355.018    0          74.744     22.591    
798.2      697.991    0          74.745     22.591    
798.4      527.274    0          74.762     22.595    
798.6      5759.902   0          74.787     22.597    
798.8      3894.932   0          74.793     22.602    
799        2595.956   0          74.819     22.603    
799.2      1753.978   0          74.844     22.607    
799.4      1330.975   0          74.851     22.607    
799.6      859.99     0          74.872     22.609    
799.8      674.995    0          74.879     22.611    
800        581.996    0          74.906     22.611    
800.2      501.01     0          74.914     22.615    
800.4      698.01     0          74.935     22.615    
800.6      888.992    0          74.957     22.618    
800.8      733.997    0          74.966     22.619    
801        685.995    0          74.991     22.62     
801.2      592.999    0          75.017     22.624    
801.4      565.001    0          75.02      22.625    
801.6      593.003    0          75.027     22.628    
801.8      642.004    0          75.042     22.631    
802        710        0          75.06      22.636    
802.2      717.998    0          75.085     22.641    
802.4      675        0          75.102     22.646    
802.6      675.004    0          75.105     22.654    
802.8      757.993    0          75.143     22.66     
803        629.996    0          75.152     22.67     
803.2      553.999    0          75.154     22.678    
803.4      537        0          75.182     22.688    
803.6      534.998    0          75.208     22.699    
803.8      502.996    0          75.236     22.709    
