~Version
 VERS              .         2.0                           : CWLS LOG ASCII STANDARD - VERSION 2.0
 WRAP              .         NO                            : ONE LINE PER DEPTH STEP
 DLM               .         SPACE                         : DELIMITING CHARACTER(SPACE TAB OR COMMA)
~Well Information
#_______________________________________________________________________________
#
#PARAMETER_NAME    .UNIT     VALUE                         : DESCRIPTION
#_______________________________________________________________________________
STRT               .M        21.55                         : First reference value
STOP               .M        2764.75                       : Last reference value
STEP               .M        0.2                           : Step increment
NULL               .         -9999                         : Missing value
COMP               .                                       : Company
WELL               .         616                           : Well name
FLD                .                                       : Field
LOC                .                                       : Location
CNTY               .                                       : County
STAT               .                                       : State
CTRY               .                                       : Country
SRVC               .                                       : Service Company
DATE               .                                       : Date
API                .                                       : API number
PROJECT_UPGRADE_TIME .         2021-03-18T21_24_50           : 
group              .         Good                          : 
~Parameter Information Block
#_______________________________________________________________________________
#
#PARAMETER_NAME    .UNIT     VALUE                         : DESCRIPTION
#_______________________________________________________________________________
SET                .         D7028_D_2                     : 
NPR                .         155                           : Номер прибора
OTHER              .         Kedr.exe версия 2.1.2.32      : 
OTHER_10           .         TM.GRD = 0.00404*TM$.UE + 0.07: 
OTHER_11           .         MN.ATM = (6.33279e-006*TM.GRD + 0.02401)*(MN$.UE + 2.72*TM.GRD + -2018): 
OTHER_12           .         GK.MKR/H = GK$.UE / 43.5489 + 0: 
OTHER_13           .         RES.SM = 0.00476*CRES.UE - 1.51709: 
OTHER_14           .         PL.GSM3 = 0 + 0 * (PL.UE / 1) +  0 * (PL.UE / 1)^2: 
OTHER_15           .         Постоянная времени ГГП = 6 сек: 
OTHER_16           .         Постоянная времени ГК = 6 сек : 
OTHER_2            .         KedrData.dll версия 3.2.2.14  : 
OTHER_3            .         LasInf.dll версия 3.2.0.13    : 
OTHER_4            .         Драйвер версия 1.2.0.5        : 
OTHER_5            .         Прибор_ КСА-M1                : 
OTHER_6            .         Номер прибора_ 155+р204       : 
OTHER_7            .         Режим_ КСА-М1 + ГГП + Резистивиметр: 
OTHER_8            .         Форма_ 223\2                  : 
OTHER_9            .         Тарировки_                    : 
PR                 .         КСА-Т7 М1                     : Тип прибора
PROJECT_UPGRADE_TIME .         2021-03-18T21_24_50           : 
PRTY               .         ПП-223_2                      : Номер партии
SRV                .         ЦКРС                          : Заказчик
SRVC               .         Лузин  А.Б.                   : Начальник партии
TLFamily_DEPT      .         Measured Depth                : 
TLFamily_LM        .         Casing Collar locator         : 
TLFamily_MN        .                                       : 
TLFamily_SPID      .         Spontaneous Potential         : 
TLFamily_TM        .         Temperature                   : 
group              .         second                        : 
~Curve Information
#_______________________________________________________________________________
#
#LOGNAME           .UNIT     LOG_ID                        : DESCRIPTION
#_______________________________________________________________________________
DEPT               .M                                      : Depth curve 
LM                 .е.ацп                                  : Локация муфт 
MN                 .атм                                    : Манометрия, атм 
SPID               .м/ч                                    : Скорость записи,м/час 
TM                 .град.С                                 : Термометрия,град.С 
~Ascii
21.55      -9999      -9999      -9999      -9999     
21.75      -9999      -9999      -9999      -9999     
21.95      -9999      -9999      -1540.001  -9999     
22.15      700.003    -9999      -1745.999  -9999     
22.35      1012.999   -9999      -1860      -9999     
22.55      1407.999   -9999      -1802      -9999     
22.75      1637.999   -9999      -1530.001  -9999     
22.95      1129.002   -9999      -1789.999  -9999     
23.15      1362.999   -9999      -1871      -9999     
23.35      1192.001   -9999      -1654.001  -9999     
23.55      1560.999   0.97       -1540      -9999     
23.75      1774.999   1          -1821.999  16.03     
23.95      883.003    1          -1730      16.03     
24.15      1069.999   1.03       -1692      16.03     
24.35      1393.999   1.07       -1629      16.02     
24.55      1485       1.08       -1919.999  16.02     
24.75      1958.998   1.09       -1800      16.03     
24.95      2729.997   1.12       -1600.001  16.02     
25.15      4105.995   1.12       -1540      16.02     
25.35      6155.993   1.14       -1979.998  16.02     
25.55      1593.016   1.17       -1920      16.02     
25.75      1033.002   1.2        -1600.001  16.03     
25.95      795.001    1.22       -1600      16.02     
26.15      851        1.22       -1802.999  16.02     
26.35      1071.999   1.22       -1679      16.02     
26.55      1400.999   1.27       -1540      16.02     
26.75      1524       1.29       -1633      16.02     
26.95      1639       1.32       -1979.999  16.02     
27.15      1825.999   1.34       -1892      16.02     
27.35      1469.001   1.35       -1580.001  16.03     
27.55      1255.001   1.39       -1729.999  16.03     
27.75      881.001    1.4        -1842      16.03     
27.95      1245.999   1.43       -1612.001  16.03     
28.15      125.004    1.45       -1470      16.03     
28.35      138        1.46       -1813.999  16.04     
28.55      175        1.49       -1790      16.04     
28.75      182        1.51       -1728      16.04     
28.95      262        1.51       -1646      16.04     
29.15      382        1.53       -1919.999  16.04     
29.35      576.999    1.56       -1783      16.04     
29.55      822.999    1.57       -1632      16.05     
29.75      1253.999   1.6        -1600      16.04     
29.95      1346       1.63       -1859.999  16.05     
30.15      1457       1.64       -1818      16.05     
30.35      695.002    1.66       -1660      16.05     
30.55      1052.999   1.68       -1660      16.05     
30.75      913        1.7        -1733      16.05     
30.95      994        1.73       -1749      16.06     
31.15      469.002    1.75       -1730      16.06     
31.35      308        1.75       -1730      16.06     
31.55      308        1.8        -1730      16.07     
31.75      308        1.81       -1730      16.07     
31.95      459        1.82       -1730      16.07     
32.15      705.999    1.83       -1730      16.07     
32.35      792        1.86       -1730      16.07     
32.55      997.999    1.87       -1730      16.07     
32.75      1046       1.91       -1730      16.08     
32.95      968        1.92       -1730      16.08     
33.15      1160.999   1.92       -1730      16.08     
33.35      1194       1.92       -1730      16.08     
33.55      1499.999   1.95       -1730      16.08     
33.75      1249.001   1.95       -1730      16.08     
33.95      1271       1.99       -1664      16.07     
34.15      872.001    2.02       -1660      16.09     
34.35      1122.999   2          -1776      16.09     
34.55      871.001    2.04       -1730      16.09     
34.75      1201.999   2.05       -1730      16.1      
34.95      1495.999   2.08       -1763      16.09     
35.15      1277.001   2.11       -1790      16.1      
35.35      1520.999   2.12       -1681      16.1      
35.55      1314.001   2.14       -1660      16.1      
35.75      1239       2.17       -1730      16.1      
35.95      1561.999   2.18       -1730      16.11     
36.15      1881.999   2.2        -1704      16.11     
36.35      1965       2.21       -1725      16.11     
36.55      2783.998   2.25       -1790      16.12     
36.75      6564.99    2.25       -1744      16.12     
36.95      1598.013   2.28       -1730      16.12     
37.15      1621       2.31       -1730      16.12     
37.35      944.002    2.31       -1730      16.12     
37.55      850        2.34       -1730      16.12     
37.75      787        2.37       -1730      16.12     
37.95      1082.999   2.38       -1730      16.12     
38.15      1390.999   2.4        -1730      16.12     
38.35      1167.001   2.43       -1676      16.12     
38.55      910.001    2.45       -1782      16.13     
38.75      949        2.46       -1787      16.13     
38.95      1085       2.5        -1730      16.13     
39.15      1215       2.49       -1730      16.13     
39.35      1621.999   2.53       -1730      16.13     
39.55      1592       2.54       -1730      16.13     
39.75      1545       2.57       -1730      16.13     
39.95      1773.999   2.61       -1672      16.13     
40.15      887.002    2.6        -1783      16.13     
40.35      1301.999   2.63       -1783      16.12     
40.55      1406       2.65       -1730      16.12     
40.75      1236       2.66       -1730      16.12     
40.95      1540.999   2.69       -1730      16.12     
41.15      796.002    2.71       -1730      16.12     
41.35      1183.999   2.73       -1730      16.12     
41.55      1269       2.74       -1668      16.12     
41.75      1601.999   2.77       -1660      16.12     
41.95      1310.001   2.77       -1740      16.12     
42.15      1559.999   2.8        -1790      16.12     
42.35      1435       2.83       -1763      16.11     
42.55      1403       2.84       -1730      16.12     
42.75      1534       2.87       -1730      16.12     
42.95      1719       2.89       -1675      16.11     
43.15      1876       2.91       -1726      16.11     
43.35      1665       2.91       -1730      16.11     
43.55      1472       2.96       -1712      16.11     
43.75      1450       2.94       -1660      16.11     
43.95      1412       2.97       -1725      16.11     
44.15      1591       3.01       -1706      16.1      
44.35      949.001    3.03       -1660      16.11     
44.55      1022       3.01       -1776      16.1      
44.75      638.001    3.05       -1730      16.1      
44.95      840        3.08       -1721      16.1      
45.15      678        3.11       -1682      16.1      
45.35      631        3.14       -1730      16.1      
45.55      773        3.15       -1730      16.1      
45.75      670        3.15       -1730      16.09     
45.95      1025.999   3.17       -1730      16.09     
46.15      859        3.2        -1730      16.09     
46.35      729        3.2        -1730      16.09     
46.55      1009.999   3.23       -1730      16.09     
46.75      1490.999   3.26       -1730      16.09     
46.95      1770.999   3.27       -1730      16.09     
47.15      2030       3.3        -1730      16.08     
47.35      2918.998   3.32       -1730      16.08     
47.55      7024.992   3.32       -1664      16.08     
47.75      2431.009   3.34       -1730      16.08     
47.95      1487.002   3.37       -1743      16.08     
48.15      1723       3.4        -1769      16.08     
48.35      1994       3.42       -1730      16.08     
48.55      1469.001   3.42       -1689      16.07     
48.75      1167.001   3.43       -1754      16.07     
48.95      1288       3.46       -1790      16.07     
49.15      1273       3.51       -1660      16.07     
49.35      1314       3.49       -1790      16.07     
49.55      1177       3.54       -1776      16.05     
49.75      674.001    3.56       -1752      16.06     
49.95      842        3.56       -1790      16.06     
50.15      779        3.57       -1753      16.06     
50.35      647        3.58       -1730      16.06     
50.55      926        3.62       -1730      16.06     
