~Version
 VERS              .         2.0                           : CWLS LOG ASCII STANDARD - VERSION 2.0
 WRAP              .         NO                            : ONE LINE PER DEPTH STEP
 DLM               .         SPACE                         : DELIMITING CHARACTER(SPACE TAB OR COMMA)
~Well Information
#_______________________________________________________________________________
#
#PARAMETER_NAME    .UNIT     VALUE                         : DESCRIPTION
#_______________________________________________________________________________
STRT               .M        44.8                          : First reference value
STOP               .M        2755.2                        : Last reference value
STEP               .M        0.2                           : Step increment
NULL               .         -9999                         : Missing value
COMP               .                                       : Company
WELL               .         616                           : Well name
FLD                .                                       : Field
LOC                .                                       : Location
CNTY               .                                       : County
STAT               .                                       : State
CTRY               .                                       : Country
SRVC               .                                       : Service Company
DATE               .                                       : Date
API                .                                       : API number
PROJECT_UPGRADE_TIME .         2021-03-18T21_24_50           : 
group              .         Good                          : 
~Parameter Information Block
#_______________________________________________________________________________
#
#PARAMETER_NAME    .UNIT     VALUE                         : DESCRIPTION
#_______________________________________________________________________________
SET                .         D4390_D_2                     : 
COMM               .                                       : 
OTHER              .         Запись производится в присутствии: 
OTHER_10           .         Максимальная температура      : 
OTHER_100          .         GK.FLT = 0.1*GR.UR/H[-1] + (1-0.1)*GR.UR/H[0]: 
OTHER_11           .         Тип промывочной жидкости      : 
OTHER_12           .         Сопротивление ПЖ (Ом*м) при 20°C: 
OTHER_13           .         Плотность ПЖ(г/см3)           : 
OTHER_14           .         Вязкость ПЖ(с)                : 
OTHER_15           .         Водоотдача ПЖ(см3/30мин)      : 
OTHER_16           .         Уровень ПЖ                    : 
OTHER_17           .         Нефть ПЖ (%)                  : 
OTHER_18           .         Барит ПЖ (%)                  : 
OTHER_19           .         Гематит ПЖ (%)                : 
OTHER_2            .         Заказчик ННСН  ЦДНГ-1         : 
OTHER_20           .         КМЦ ПЖ (%)                    : 
OTHER_21           .         Разгазирование ПЖ (да,нет)    : 
OTHER_22           .         Подъемник                     : 
OTHER_23           .         Лаборатория                   : 
OTHER_24           .         Тип кабеля                    : 
OTHER_25           .         Длина кабеля (м)              : 
OTHER_26           .         Цена последней метки          : 
OTHER_27           .         Цена контрольной метки        : 
OTHER_28           .         Диаметр долота (мм)           : 
OTHER_29           .         Глубина бурения (м)           : 
OTHER_3            .         Площадь                       : 
OTHER_30           .         Искусственный забой (м)       : 
OTHER_31           .         Диаметр колонны (мм)          : 
OTHER_32           .         Толщина колонны (мм)          : 
OTHER_33           .         Башмак колонны (м)            : 
OTHER_34           .         Диаметр НКТ (мм)              : 
OTHER_35           .         Толщина НКТ (мм)              : 
OTHER_36           .         Воронка НКТ (м)               : 
OTHER_37           .         Дата цементожа                : 
OTHER_38           .         Тип, количество(т) и плотность цемента: 
OTHER_39           .         Интервалы перфорации (м)      : 
OTHER_4            .         Категория                     : 
OTHER_40           .         Направление, диаметр (мм)     : 
OTHER_41           .         Направление, глубина (м)      : 
OTHER_42           .         Кондуктор, диаметр (мм)       : 
OTHER_43           .         Кондуктор, глубина (м)        : 
OTHER_44           .         Техническая колонна, диаметр (мм): 
OTHER_45           .         Техническая колонна, глубина (м): 
OTHER_46           .         Эксплуатационная колонна, диаметр (мм): 
OTHER_47           .         Эксплуатационная колонна, глубина (м): 
OTHER_48           .         Программа Кедр-02 версия 3.4  : 
OTHER_49           .         Операционная система Windows NT 5.1 build 2600 Service Pack 2: 
OTHER_5            .         Назначение исследований       : 
OTHER_50           .         Программное обеспечение станции MONITOR-386EX 25/12/99 15_08_10   BGF V54 20/09/05 15_32_17   3.3__BGF_9030071: 
OTHER_51           .         Kedr.exe версия 3.4.2.74      : 
OTHER_52           .         KedrData.dll версия 3.4.2.29  : 
OTHER_53           .         Мнемоники версия 3.18 S       : 
OTHER_54           .         Драйвер версия 2.1.1.4        : 
OTHER_55           .         LasInf.dll 4.3.0.35           : 
OTHER_56           .         Прибор_ КСА-Т4                : 
OTHER_57           .         Номер прибора_ 160            : 
OTHER_58           .         Режим_ КСА-Т4                 : 
OTHER_59           .         Форма_ С.А.Б.                 : 
OTHER_6            .         Альтитуда стола ротора        : 
OTHER_60           .         Тарировки_                    : 
OTHER_61           .         <_techsia_sc_> Дата тарировки температуры 25.05.2010: 
OTHER_62           .         Ручной ввод коэффициентов     : 
OTHER_63           .         TM.DEGC = 0.00402*RTM.E.ACP + -0.994: 
OTHER_64           .         <_techsia_sc_> Дата тарировки давления 25.05.2010: 
OTHER_65           .         Ручной ввод коэффициентов     : 
OTHER_66           .         MN.ATM = (2.27521e-006*TM.DEGC + 0.02078)*(RMN.E.ACP + 6.2*TM.DEGC + -1688): 
OTHER_67           .         <_techsia_sc_> Дата тарировки ГК 25.05.2010: 
OTHER_68           .         Ручной ввод коэффициентов     : 
OTHER_69           .         GR.UR/H = RGR.IMP/MIN / 45.5144: 
OTHER_7            .         Вид исследований 3  6         : 
OTHER_70           .         GK.FLT = 0.1*GR.UR/H[-1] + (1-0.1)*GR.UR/H[0]: 
OTHER_71           .         <_techsia_sc_> Дата тарировки температуры 25.05.2010: 
OTHER_72           .         Ручной ввод коэффициентов     : 
OTHER_73           .         TM.DEGC = 0.00402*RTM.E.ACP + -0.994: 
OTHER_74           .         <_techsia_sc_> Дата тарировки давления 25.05.2010: 
OTHER_75           .         Ручной ввод коэффициентов     : 
OTHER_76           .         MN.ATM = (2.27521e-006*TM.DEGC + 0.02078)*(RMN.E.ACP + 6.2*TM.DEGC + -1688): 
OTHER_77           .         <_techsia_sc_> Дата тарировки ГК 25.05.2010: 
OTHER_78           .         Ручной ввод коэффициентов     : 
OTHER_79           .         GR.UR/H = RGR.IMP/MIN / 45.5144: 
OTHER_8            .         Начало бурения интервала каротажа: 
OTHER_80           .         GK.FLT = 0.1*GR.UR/H[-1] + (1-0.1)*GR.UR/H[0]: 
OTHER_81           .         <_techsia_sc_> Дата тарировки температуры 25.05.2010: 
OTHER_82           .         Ручной ввод коэффициентов     : 
OTHER_83           .         TM.DEGC = 0.00402*RTM.E.ACP + -0.994: 
OTHER_84           .         <_techsia_sc_> Дата тарировки давления 25.05.2010: 
OTHER_85           .         Ручной ввод коэффициентов     : 
OTHER_86           .         MN.ATM = (2.27521e-006*TM.DEGC + 0.02078)*(RMN.E.ACP + 6.2*TM.DEGC + -1688): 
OTHER_87           .         <_techsia_sc_> Дата тарировки ГК 25.05.2010: 
OTHER_88           .         Ручной ввод коэффициентов     : 
OTHER_89           .         GR.UR/H = RGR.IMP/MIN / 45.5144: 
OTHER_9            .         Окончание бурения интервала каротажа: 
OTHER_90           .         GK.FLT = 0.1*GR.UR/H[-1] + (1-0.1)*GR.UR/H[0]: 
OTHER_91           .         <_techsia_sc_> Дата тарировки температуры 25.05.2010: 
OTHER_92           .         Ручной ввод коэффициентов     : 
OTHER_93           .         TM.DEGC = 0.00402*RTM.E.ACP + -0.994: 
OTHER_94           .         <_techsia_sc_> Дата тарировки давления 25.05.2010: 
OTHER_95           .         Ручной ввод коэффициентов     : 
OTHER_96           .         MN.ATM = (2.27521e-006*TM.DEGC + 0.02078)*(RMN.E.ACP + 6.2*TM.DEGC + -1688): 
OTHER_97           .         <_techsia_sc_> Дата тарировки ГК 25.05.2010: 
OTHER_98           .         Ручной ввод коэффициентов     : 
OTHER_99           .         GR.UR/H = RGR.IMP/MIN / 45.5144: 
PROJECT_UPGRADE_TIME .         2021-03-18T21_24_50           : 
PRTY               .         ПП-601-1                      : N партии
SRVC               .         Барковский                    : Начальник партии
TLFamily_DEPT      .         Measured Depth                : 
TLFamily_LM        .         Casing Collar locator         : 
TLFamily_METKA     .                                       : 
TLFamily_MN        .                                       : 
TLFamily_TM        .         Temperature                   : 
group              .         second                        : 
~Curve Information
#_______________________________________________________________________________
#
#LOGNAME           .UNIT     LOG_ID                        : DESCRIPTION
#_______________________________________________________________________________
DEPT               .M                                      : Depth curve 
LM                 .е.ацп                                  : Локатор муфт,е.ацп 
METKA              .е.ацп                                  : Магнитные метки,е.ацп 
MN                 .атм                                    : 12 Давление, атм. -  160.0 см 
TM                 .град.C                                 : Термограмма по стволу скважины,град.C 
~Ascii
# ...
1475.6     559.005    0          130.636    39.076    
1475.8     608.002    0          130.667    39.081    
1476       630.996    0          130.667    39.085    
1476.2     593.012    0          130.707    39.087    
1476.4     712.014    0          130.69     39.091    
1476.6     844.981    0          130.715    39.096    
1476.8     661.996    0          130.74     39.101    
1477       623.987    0          130.754    39.105    
1477.2     499.002    0          130.754    39.11     
1477.4     522.004    0          130.817    39.111    
1477.6     558.988    0          130.801    39.114    
1477.8     444.001    0          130.818    39.117    
1478       450.61     0          130.83     39.121    
1478.2     6371.775   0          130.84     39.126    
1478.4     4185.859   0          130.861    39.131    
1478.6     2815.86    0          130.887    39.136    
1478.8     1458.968   0          130.897    39.141    
1479       1151.979   0          130.909    39.146    
1479.2     951.002    0          130.927    39.15     
1479.4     974.034    0          130.948    39.155    
1479.6     1300.953   0          130.972    39.158    
1479.8     841.987    0          130.985    39.161    
1480       713.027    0          130.983    39.166    
1480.2     972.973    0          131.009    39.175    
1480.4     712.016    0          131.033    39.179    
1480.6     863.033    0          131.057    39.182    
1480.8     1183.985   0          131.057    39.185    
1481       1038.98    0          131.08     39.19     
1481.2     845.985    0          131.086    39.194    
1481.4     702.011    0          131.1      39.199    
1481.6     806.032    0          131.142    39.202    
1481.8     1112.98    0          131.129    39.205    
1482       914.996    0          131.165    39.21     
1482.2     871.978    0          131.172    39.215    
1482.4     662.989    0          131.186    39.219    
1482.6     557.994    0          131.211    39.222    
1482.8     496        0          131.23     39.225    
1483       499.994    0          131.241    39.226    
1483.2     444.001    0          131.238    39.23     
1483.4     451.994    1          131.269    39.235    
1483.6     393.006    0          131.277    39.238    
1483.8     449.018    0          131.302    39.241    
1484       621.005    0          131.317    39.246    
1484.2     670.991    1          131.317    39.251    
1484.4     581.025    0          131.355    39.254    
1484.6     820.996    0          131.36     39.256    
1484.8     778.002    2          131.368    39.261    
1485       801.009    0          131.394    39.266    
1485.2     886.995    0          131.404    39.271    
1485.4     838.999    0          131.444    39.276    
1485.6     825.991    0          131.465    39.28     
1485.8     736.04     0          131.455    39.282    
1486       1119.033   0          131.48     39.286    
1486.2     1435.978   0          131.506    39.291    
1486.4     1227.989   0          131.512    39.296    
1486.6     1117.979   0          131.533    39.299    
1486.8     914.365    0          131.568    39.303    
1487       4441.066   0          131.557    39.308    
1487.2     5074.824   0          131.577    39.313    
1487.4     3373.894   0          131.588    39.318    
1487.6     2353.939   0          131.599    39.323    
1487.8     1761.966   0          131.636    39.331    
1488       1436.949   0          131.642    39.332    
1488.2     941.979    0          131.669    39.337    
1488.4     735.993    0          131.675    39.342    
1488.6     667.016    0          131.679    39.347    
1488.8     817.001    0          131.722    39.353    
1489       822.998    0          131.728    39.359    
1489.2     800.012    0          131.721    39.364    
1489.4     916.996    0          131.763    39.367    
1489.6     880.985    0          131.766    39.371    
1489.8     735.006    0          131.791    39.376    
1490       793.012    0          131.815    39.381    
1490.2     911.019    0          131.811    39.385    
1490.4     1097.984   0          131.859    39.387    
1490.6     944.997    0          131.847    39.391    
1490.8     914.992    0          131.875    39.395    
1491       837.016    0          131.902    39.399    
1491.2     990.008    0          131.908    39.403    
1491.4     1062.988   0          131.924    39.406    
1491.6     950.995    0          131.938    39.411    
1491.8     900.021    0          131.946    39.416    
1492       1105.006   0          131.969    39.421    
1492.2     1164.996   0          131.99     39.426    
1492.4     1128.002   0          132        39.431    
1492.6     1150.986   0          132.025    39.435    
1492.8     1019.011   0          132.033    39.439    
1493       1129.005   0          132.056    39.441    
1493.2     1174.996   0          132.076    39.446    
1493.4     1134.998   0          132.067    39.451    
1493.6     1110.984   0          132.097    39.455    
1493.8     958.011    0          132.119    39.456    
1494       1065.993   0          132.12     39.461    
1494.2     993.958    0          132.145    39.466    
1494.4     591.995    0          132.162    39.467    
1494.6     548.001    0          132.176    39.471    
1494.8     558.012    0          132.202    39.476    
1495       669.991    2          132.206    39.479    
1495.2     579.992    0          132.214    39.482    
1495.4     505.001    0          132.249    39.486    
1495.6     518.014    0          132.26     39.491    
1495.8     653.019    0          132.271    39.496    
1496       830.998    0          132.313    39.501    
1496.2     811.995    0          132.319    39.506    
1496.4     768.351    0          132.342    39.507    
1496.6     4135.853   0          132.347    39.511    
1496.8     2723.91    0          132.367    39.516    
1497       1858.94    0          132.359    39.52     
1497.2     1284.935   0          132.381    39.524    
1497.4     658.006    0          132.401    39.53     
1497.6     719.994    0          132.412    39.535    
1497.8     666.993    0          132.437    39.54     
1498       601.003    0          132.463    39.545    
1498.2     629.989    0          132.467    39.552    
1498.4     529.012    0          132.478    39.558    
1498.6     646.995    0          132.51     39.563    
1498.8     595.997    0          132.525    39.568    
1499       571.008    0          132.55     39.573    
1499.2     645        0          132.553    39.576    
1499.4     641.005    0          132.561    39.579    
1499.6     692        0          132.587    39.584    
1499.8     690.986    0          132.611    39.588    
1500       555.01     0          132.618    39.592    
1500.2     648.985    0          132.624    39.594    
1500.4     506.997    0          132.661    39.599    
1500.6     478.999    0          132.65     39.604    
1500.8     469.998    0          132.688    39.608    
1501       454.011    0          132.705    39.609    
1501.2     554.989    0          132.709    39.617    
1501.4     454.005    0          132.733    39.62     
1501.6     498.995    0          132.748    39.624    
1501.8     455.994    0          132.749    39.629    
1502       397.006    0          132.792    39.634    
1502.2     458.996    0          132.795    39.638    
1502.4     419.005    0          132.814    39.643    
1502.6     463.001    0          132.815    39.648    
1502.8     477.014    0          132.849    39.653    
1503       613.999    0          132.879    39.658    
1503.2     601.998    0          132.866    39.663    
1503.4     582.997    0          132.9      39.664    
1503.6     550.001    0          132.913    39.672    
1503.8     563.997    0          132.938    39.673    
1504       536.987    0          132.965    39.678    
1504.2     416.999    0          132.95     39.683    
1504.4     408        0          132.975    39.688    
1504.6     409.01     0          132.987    39.688    
