~Version
 VERS              .         2.0                           : CWLS LOG ASCII STANDARD - VERSION 2.0
 WRAP              .         NO                            : ONE LINE PER DEPTH STEP
 DLM               .         SPACE                         : DELIMITING CHARACTER(SPACE TAB OR COMMA)
~Well Information
#_______________________________________________________________________________
#
#PARAMETER_NAME    .UNIT     VALUE                         : DESCRIPTION
#_______________________________________________________________________________
STRT               .M        12                            : First reference value
STOP               .M        2758.6                        : Last reference value
STEP               .M        0.2                           : Step increment
NULL               .         -9999                         : Missing value
COMP               .                                       : Company
WELL               .         616                           : Well name
FLD                .                                       : Field
LOC                .                                       : Location
CNTY               .                                       : County
STAT               .                                       : State
CTRY               .                                       : Country
SRVC               .                                       : Service Company
DATE               .                                       : Date
API                .                                       : API number
PROJECT_UPGRADE_TIME .         2021-03-18T21_24_50           : 
group              .         Good                          : 
~Parameter Information Block
#_______________________________________________________________________________
#
#PARAMETER_NAME    .UNIT     VALUE                         : DESCRIPTION
#_______________________________________________________________________________
SET                .         616ULN                        : 
PROJECT_UPGRADE_TIME .         2021-03-18T21_24_49           : 
TLFamily_AK4       .                                       : 
TLFamily_ALFAK     .                                       : 
TLFamily_AMPL      .                                       : 
TLFamily_DEPTH     .         Measured Depth                : 
TLFamily_DK1       .                                       : 
TLFamily_DK2       .                                       : 
TLFamily_DTK       .         Compressional Slowness        : 
TLFamily_QCBL      .                                       : 
TLFamily_T1        .         Travel Time 1                 : 
TLFamily_T2        .         Travel Time 2                 : 
group              .         prim                          : 
~Curve Information
#_______________________________________________________________________________
#
#LOGNAME           .UNIT     LOG_ID                        : DESCRIPTION
#_______________________________________________________________________________
DEPTH              .M                                      : 0 Depth curve 
AK4                .                                       : 2 Амплитуда - Волна по колонне - Канал1 
ALFAK              .дБ/м                                   : 1 Затухание - Волна по колонне 
AMPL               .                                       : 8 Коэффициент усиления ВС 
DK1                .дБ                                     : 3 Кривая ослабления - Волна по колонне - Канал1 
DK2                .дБ                                     : 4 Кривая ослабления - Волна по колонне - Канал2 
DTK                .мкс/м                                  : 5 ДельтаТ - Волна по породе 
QCBL               .                                       : 9 Контакт цемент-колонна 
T1                 .мкс                                    : 6 Время пробега - Волна по породе - Канал1 
T2                 .мкс                                    : 7 Время пробега - Волна по породе - Канал2 
~Ascii
# ...
1107       512.054    28.111     1          27.643     41.464     220.85     3          305.53     416.96    
1107.2     504.033    26.658     1          27.8       40.224     210.215    3          306.457    413.775   
1107.4     489.395    24.748     1          28.044     39.044     198.217    3          306.885    408.204   
1107.6     468.553    22.293     1          28.37      38.324     190.361    3          306.85     404.241   
1107.8     440.36     19.85      1          28.626     37.837     182.955    3          306.294    399.982   
1108       433.644    18.791     1          28.725     37.681     180.627    3          305.465    396.984   
1108.2     442.007    19.115     1          28.561     37.65      179.45     3          304.621    394.396   
1108.4     451.9      19.658     1          28.359     37.866     178.884    3          304.026    393.566   
1108.6     454.215    20.332     1          28.313     38.052     181.73     3          303.765    393.79    
1108.8     459.724    21.025     1          28.198     38.207     188.513    3          303.82     395.339   
1109       466.683    22.119     1          28.055     38.861     201.527    3          304.347    397.765   
1109.2     472.343    23.391     1          27.943     39.432     218.055    3          305.014    402.688   
1109.4     474.818    24.357     1          27.898     39.936     238.633    3          305.815    409.777   
1109.6     483.886    25.06      1          27.73      39.982     256.317    3          306.378    416.767   
1109.8     492.216    25.486     1          27.575     39.923     271.042    3          306.887    423.325   
1110       497.045    25.386     1          27.484     39.509     278.29     3          307.176    428.635   
1110.2     497.906    24.991     1          27.47      39.161     278.592    3          307.471    431.941   
1110.4     502.959    25.105     1          27.387     38.947     272.408    3          307.601    432.933   
1110.6     507.916    24.933     1          27.306     38.942     262.567    3          307.755    429.863   
1110.8     514.659    25.115     1          27.194     39.436     249.133    3          307.662    426.263   
1111       523.083    25.333     1          27.052     40.179     235.5      3          307.48     422.475   
1111.2     532.053    25.597     1          26.901     40.799     225.056    3          307.28     420.058   
1111.4     532.83     25.486     1          26.887     40.851     217.887    3          307.214    418.314   
1111.6     528.958    25.891     1          26.952     40.795     213.917    3          307.115    419.791   
1111.8     523.732    26.811     1          27.038     40.511     213.652    3          306.992    421.277   
1112       514.695    27.929     1          27.199     39.998     213.766    3          306.851    421.192   
1112.2     496.123    28.572     1          27.533     39.521     214.34     3          306.715    419.438   
1112.4     471.999    28.9       1          27.982     39.239     215.444    3          306.24     417.653   
1112.6     444.143    29.08      1          28.543     39.195     216.908    3          305.617    415.858   
1112.8     405.437    28.782     1          29.417     39         218.458    3          304.955    414.23    
1113       360.972    28.344     1          30.492     38.98      219.508    3          304.665    414.465   
1113.2     319.029    27.771     1          31.568     38.881     221.843    3          304.762    415.581   
1113.4     289.336    27.053     1          32.361     39.217     228.788    3          305.406    419.506   
1113.6     270.455    26.72      1          32.863     39.715     243.782    3          306.289    427.738   
1113.8     267.821    26.575     1          32.905     40.322     258.112    3          307.343    435.851   
1114       278.942    26.448     1          32.556     40.887     272.362    3          307.952    441.576   
1114.2     315.73     26.737     1          31.922     41.257     277.342    3          308.031    444.428   
1114.4     358.234    26.317     1          31.192     41.041     269.603    3          307.537    440.348   
1114.6     403.892    24.725     1          30.434     40.105     248.402    3          306.988    429.346   
1114.8     433.708    21.622     1          29.727     38.638     226.956    3          306.464    418.205   
1115       463.437    18.385     1          29.062     36.992     205.062    3          306.101    408.904   
1115.2     472.155    15.221     1          28.546     35.562     192.153    3          305.752    401.965   
1115.4     474.553    13.572     1          28.185     34.705     187.039    3          305.538    399.059   
1115.6     473.9      13.477     1          27.918     34.656     186.994    3          305.198    398.696   
1115.8     490.401    15.371     1          27.628     35.377     190.799    3          304.803    400.204   
1116       508.286    17.861     1          27.321     36.378     194.97     3          304.446    401.933   
1116.2     520.032    20.725     1          27.116     37.543     198.337    3          304.235    403.333   
1116.4     523.307    22.674     1          27.064     38.774     201.597    3          304.03     404.757   
1116.6     521.426    24.038     1          27.094     39.963     204.96     3          303.868    406.282   
1116.8     510.366    24.583     1          27.291     40.718     204.908    3          303.669    406.056   
1117       494.589    24.498     1          27.565     40.946     208.033    3          303.575    407.524   
1117.2     492.016    24.11      1          27.637     40.989     210.948    3          303.47     408.95    
1117.4     508.898    24.691     1          27.38      41.032     217.339    3          303.491    412.166   
1117.6     528.37     25.338     1          27.079     41.225     223.908    3          303.419    415.374   
1117.8     544.212    26.344     1          26.812     44.215     230.677    3          303.267    418.607   
1118       562.303    27.278     1          26.52      48.673     234.851    3          302.908    420.335   
1118.2     570.872    27.808     1          26.373     52.552     239.006    3          302.584    422.088   
1118.4     549.674    27.475     1          26.789     55.541     235.913    3          302.308    420.266   
1118.6     527.411    26.788     1          27.236     57.284     232.158    3          302.267    418.347   
1118.8     512.998    25.645     1          27.355     55.508     228.344    3          302.443    416.617   
1119       519.484    24.623     1          27.289     52.473     227.984    3          302.643    416.636   
1119.2     552.092    24.098     1          26.83      49.269     228.157    3          302.563    416.755   
1119.4     612.35     24.211     1          25.909     46.085     232.119    3          302.315    418.599   
1119.6     687.546    24.292     1          24.812     43.396     231.54     3          302.01     418.116   
1119.8     755.549    24.396     1          24.011     41.203     226.154    3          301.721    416.282   
1120       769.206    24.747     1          23.636     39.149     216.905    3          301.502    413.206   
1120.2     738.144    25.422     1          23.862     39.751     212.161    3          301.551    410.772   
1120.4     694.65     25.97      1          24.224     41.942     209.333    3          301.908    410.774   
1120.6     637.368    26.285     1          24.942     44.971     213.282    3          302.502    413.231   
1120.8     570.342    26.58      1          25.903     48.114     221.752    3          303.123    416.939   
1121       521.524    26.153     1          26.655     51.038     226.862    3          303.287    418.435   
1121.2     506.049    24.913     1          27.157     50.012     226.306    2          302.974    417.843   
1121.4     514.649    22.745     1          27.237     47.055     221.908    2          301.765    413.264   
