~Version
 VERS              .         2.0                           : CWLS LOG ASCII STANDARD - VERSION 2.0
 WRAP              .         NO                            : ONE LINE PER DEPTH STEP
 DLM               .         SPACE                         : DELIMITING CHARACTER(SPACE TAB OR COMMA)
~Well Information
#_______________________________________________________________________________
#
#PARAMETER_NAME    .UNIT     VALUE                         : DESCRIPTION
#_______________________________________________________________________________
STRT               .M        2698.8                        : First reference value
STOP               .M        2753.2                        : Last reference value
STEP               .M        0.1999996                     : Step increment
NULL               .         -9999                         : Missing value
COMP               .                                       : Company
WELL               .         616                           : Well name
FLD                .                                       : Field
LOC                .                                       : Location
CNTY               .                                       : County
STAT               .                                       : State
CTRY               .                                       : Country
SRVC               .                                       : Service Company
DATE               .                                       : Date
API                .                                       : API number
PROJECT_UPGRADE_TIME .         2021-03-18T21_24_50           : 
group              .         Good                          : 
~Parameter Information Block
#_______________________________________________________________________________
#
#PARAMETER_NAME    .UNIT     VALUE                         : DESCRIPTION
#_______________________________________________________________________________
SET                .         D1802_D                       : 
OTHER              .         Программное обеспечение станции MONITOR-386EX 25/12/99 15_08_10   BGF V52 22/08/01 16_56_30   3.1_SNGF___BGF_N_092049: 
OTHER_10           .         Тарировки_                    : 
OTHER_11           .         TM.GRD = 0.00403*TM$.UE + -1.07: 
OTHER_12           .         MN.ATM = (9.34907e-006*TM.GRD + 0.02171)*(MN$.UE + -7.93*TM.GRD + -1787): 
OTHER_13           .         GK.MKR/H = LM. / 42.4676      : 
OTHER_14           .         GK.FLT = 0.1*GK.MKR/H[-1] + (1-0.1)*GK.MKR/H[0]: 
OTHER_2            .         Kedr.exe версия 3.4.2.51      : 
OTHER_3            .         KedrData.dll версия 3.4.2.24  : 
OTHER_4            .         Драйвер версия 2.1.1.3        : 
OTHER_5            .         Мнемоники версия 3.3 S        : 
OTHER_6            .         Прибор_ КСА-Т4                : 
OTHER_7            .         Номер прибора_ 03             : 
OTHER_8            .         Режим_ КСА-Т4                 : 
OTHER_9            .         Форма_ КВА.                   : 
PROJECT_UPGRADE_TIME .         2021-03-18T21_24_49           : 
TLFamily_DEPT      .         Measured Depth                : 
TLFamily_GK        .         Gamma Ray                     : 
TLFamily_GK$       .                                       : 
TLFamily_GK_2      .         Gamma Ray                     : 
TLFamily_LM        .         Casing Collar locator         : 
TLFamily_METKA     .                                       : 
TLFamily_MN        .                                       : 
TLFamily_MN$       .                                       : 
TLFamily_RCOR      .                                       : 
TLFamily_SPID      .         Spontaneous Potential         : 
TLFamily_TENS      .         Cable Tension                 : 
TLFamily_TIME      .         Time                          : 
TLFamily_TM        .         Temperature                   : 
TLFamily_TM$       .         Temperature                   : 
group              .         prim                          : 
~Curve Information
#_______________________________________________________________________________
#
#LOGNAME           .UNIT     LOG_ID                        : DESCRIPTION
#_______________________________________________________________________________
DEPT               .M                                      : 1 Глубина, м -    0.0 см 
GK                 .MKR/H                                  : 13 Гамма-активность, мкр./ч -  110.0 см 
GK$                .UE                                     : 10 Гамма-активность, усл.ед. -  110.0 см 
GK_2               .FLT                                    : 14 Гамма-активность фильтрованная, мкр./ч -  110.0 см 
LM                 .                                       : 9 Локатор муфт,  -   20.0 см 
METKA              .                                       : 3 Метки,  -    0.0 см 
MN                 .ATM                                    : 12 Давление, атм. -  160.0 см 
MN$                .UE                                     : 8 Давление, усл.ед. -  160.0 см 
RCOR               .CM/KM                                  : 5 Коррекция по ролику, см/км -    0.0 см 
SPID               .M/H                                    : 2 Скорость, м/час -    0.0 см 
TENS               .T                                      : 6 Натяжение кабеля, т -    0.0 см 
TIME               .S                                      : 4 Время, сек -    0.0 см 
TM                 .GRD                                    : 11 Температура, °C -  170.0 см 
TM$                .UE                                     : 7 Температура, усл.ед. -  170.0 см 
~Ascii
# ...
2709.2     11.18      475        11.19      64         0          248.124    13356      -642       -202       0.17       9230.5     45.122     11462     
2709.4     11.89      505        11.89      69         0          248.147    13357      -642       -194       0.17       9226.77    45.114     11460     
2709.6     11.61      493        11.61      73         0          248.147    13357      -642       -196       0.17       9223.23    45.11      11459     
2709.8     11.8       501        11.81      119        0          248.17     13358      -642       -211       0.17       9219.69    45.11      11459     
2710       12.15      516        12.08      97         2          248.192    13359      -634       -202       0.16       9214.66    45.106     11458     
2710.2     11.3       480        11.31      95         0          248.214    13360      -634       -204       0.17       9211.11    45.104     11458     
2710.4     12.43      528        12.55      69         0          248.236    13361      -634       -191       0.17       9207.58    45.102     11457     
2710.6     12.41      527        12.4       69         0          248.251    13362      -634       -206       0.17       9204.03    45.102     11457     
2710.8     10.74      456        10.71      107        0          248.258    13362      -634       -197       0.16       9200.12    45.102     11457     
2711       10.48      445        10.48      74         0          248.281    13363      -634       -200       0.17       9196.58    45.102     11457     
2711.2     10.03      426        10.03      70         0          248.303    13364      -634       -205       0.17       9193.03    45.102     11457     
2711.4     9.84       418        9.83       101        0          248.325    13365      -634       -204       0.17       9189.38    45.102     11457     
2711.6     9.72       413        9.78       74         0          248.347    13366      -634       -207       0.17       9185.95    45.102     11457     
2711.8     10.95      465        11.03      70         0          248.347    13366      -634       -194       0.17       9182.22    45.102     11457     
2712       13.38      568        14.01      100        0          248.381    13368      -634       -197       0.17       9178.69    45.098     11456     
2712.2     14.93      634        14.92      101        0          248.414    13369      -634       -194       0.17       9174.95    45.094     11455     
2712.4     14.29      607        13.95      105        0          248.414    13369      -634       -196       0.17       9171.41    45.088     11454     
2712.6     11.63      494        11.63      107        1          248.459    13371      -634       -205       0.17       9167.88    45.086     11453     
2712.8     10.88      462        11         84         0          248.459    13371      -634       -197       0.17       9164.14    45.086     11453     
2713       14.69      624        14.69      50         0          248.481    13372      -634       -204       0.17       9160.61    45.082     11452     
2713.2     15.26      648        15.26      83         0          248.503    13373      -634       -194       0.17       9157.06    45.082     11452     
2713.4     15.26      648        15.26      123        0          248.514    13373      -634       -198       0.17       9153.52    45.08      11452     
2713.6     12.62      536        12.53      109        0          248.548    13375      -634       -192       0.17       9149.98    45.078     11451     
2713.8     9.86       419        9.44       74         0          248.57     13376      -634       -192       0.17       9146.06    45.08      11451     
2714       7.61       323        7.61       151        0          248.57     13376      -634       -202       0.17       9142.52    45.082     11452     
2714.2     7.7        327        7.82       1666       0          248.592    13377      -634       -195       0.17       9138.98    45.078     11451     
2714.4     8.29       352        8.29       86         0          248.615    13378      -634       -202       0.17       9135.44    45.078     11451     
2714.6     7.89       335        7.92       100        0          248.637    13379      -634       -196       0.17       9131.89    45.069     11449     
2714.8     7.72       328        7.72       70         0          248.659    13380      -634       -198       0.17       9128.17    45.069     11449     
2715       7.37       313        7.39       74         0          248.681    13381      -634       -188       0.16       9124.81    45.065     11448     
2715.2     8.92       379        9.16       60         0          248.703    13382      -634       -192       0.17       9121.09    45.067     11448     
2715.4     12.43      528        12.46      54         0          248.726    13383      -634       -203       0.17       9117.36    45.065     11448     
2715.6     14.83      630        15.34      63         0          248.747    13384      -634       -201       0.17       9113.81    45.069     11449     
2715.8     17.02      723        17.03      64         0          248.77     13385      -634       -200       0.17       9110.09    45.069     11449     
2716       17.17      729        16.9       64         0          248.792    13386      -634       -197       0.17       9106.55    45.065     11448     
2716.2     11.16      474        11.16      91         0          248.815    13387      -634       -205       0.17       9103       45.065     11448     
2716.4     9.56       406        9.57       70         0          248.837    13388      -634       -200       0.17       9099.47    45.061     11447     
2716.6     10.4       442        10.41      56         0          248.859    13389      -634       -201       0.17       9095.92    45.061     11447     
2716.8     10.24      435        10.23      72         0          248.87     13390      -634       -184       0.17       9092.2     45.059     11446     
2717       9.72       413        9.78       104        0          248.903    13391      -634       -204       0.17       9088.47    45.061     11447     
2717.2     10.03      426        10.03      124        0          248.925    13392      -634       -210       0.17       9084.92    45.057     11446     
2717.4     9.7        412        9.54       90         0          248.925    13392      -634       -198       0.17       9081.39    45.061     11447     
2717.6     9.54       405        9.54       52         0          248.947    13393      -634       -200       0.17       9077.84    45.061     11447     
2717.8     9.44       401        9.45       59         0          248.97     13394      -634       -197       0.17       9074.12    45.061     11447     
2718       11.23      477        11.23      76         0          248.992    13395      -634       -199       0.17       9070.58    45.057     11446     
2718.2     11.4       484        11.36      68         0          248.992    13395      -634       -200       0.17       9067.03    45.053     11445     
2718.4     10.36      440        10.36      65         0          249.036    13397      -634       -190       0.17       9063.38    45.053     11445     
2718.6     10.5       446        10.5       60         0          249.059    13398      -634       -202       0.17       9059.77    45.057     11446     
2718.8     10.6       450        10.54      91         0          249.081    13399      -634       -193       0.17       9056.03    45.053     11445     
2719       10.01      425        10.01      148        0          249.081    13399      -634       -200       0.17       9052.5     45.049     11444     
2719.2     10.74      456        10.78      136        0          249.125    13401      -634       -208       0.17       9048.95    45.049     11444     
2719.4     11.35      482        11.35      154        0          249.136    13401      -634       -202       0.17       9045.41    45.039     11441     
