~Version
 VERS              .         2.0                           : CWLS LOG ASCII STANDARD - VERSION 2.0
 WRAP              .         NO                            : ONE LINE PER DEPTH STEP
 DLM               .         SPACE                         : DELIMITING CHARACTER(SPACE TAB OR COMMA)
~Well Information
#_______________________________________________________________________________
#
#PARAMETER_NAME    .UNIT     VALUE                         : DESCRIPTION
#_______________________________________________________________________________
STRT               .M        2659.4                        : First reference value
STOP               .M        2769.4                        : Last reference value
STEP               .M        0.2                           : Step increment
NULL               .         -9999                         : Missing value
COMP               .                                       : Company
WELL               .         616                           : Well name
FLD                .                                       : Field
LOC                .                                       : Location
CNTY               .                                       : County
STAT               .                                       : State
CTRY               .                                       : Country
SRVC               .                                       : Service Company
DATE               .                                       : Date
API                .                                       : API number
PROJECT_UPGRADE_TIME .         2021-03-18T21_24_50           : 
group              .         Good                          : 
~Parameter Information Block
#_______________________________________________________________________________
#
#PARAMETER_NAME    .UNIT     VALUE                         : DESCRIPTION
#_______________________________________________________________________________
SET                .         D1171_D                       : 
OTHER              .         Программное обеспечение станции MONITOR-386EX 25/12/99 15_08_10   BGF V52 22/08/01 16_56_30   3.2_BGF_N_3070031: 
OTHER_10           .         Тарировки_                    : 
OTHER_11           .         TM.GRD = 0.00403*TM$.UE + -1.19: 
OTHER_12           .         MN.ATM = (7.1e-006*TM.GRD + 0.02017)*(MN$.UE + -3.03*TM.GRD + -1833): 
OTHER_13           .         Id error                      : 
OTHER_2            .         Kedr.exe версия 3.4.2.51      : 
OTHER_3            .         KedrData.dll версия 3.4.2.24  : 
OTHER_4            .         Драйвер версия 2.1.1.8        : 
OTHER_5            .         Мнемоники версия 3.3 S        : 
OTHER_6            .         Прибор_ КСА-М1                : 
OTHER_7            .         Номер прибора_ 265            : 
OTHER_8            .         Режим_ КСА-М1                 : 
OTHER_9            .         Форма_ ТЕРМОМЕТР              : 
PROJECT_UPGRADE_TIME .         2021-03-18T21_24_49           : 
TLFamily_DEPT      .         Measured Depth                : 
TLFamily_GK        .         Gamma Ray                     : 
TLFamily_GK$       .                                       : 
TLFamily_LM        .         Casing Collar locator         : 
TLFamily_METKA     .                                       : 
TLFamily_MN        .                                       : 
TLFamily_MN$       .                                       : 
TLFamily_RCOR      .                                       : 
TLFamily_SPID      .         Spontaneous Potential         : 
TLFamily_STD       .                                       : 
TLFamily_TENS      .         Cable Tension                 : 
TLFamily_TIME      .         Time                          : 
TLFamily_TM        .         Temperature                   : 
TLFamily_TM$       .         Temperature                   : 
TLFamily_VGD       .         Gas Volume                    : 
group              .         prim                          : 
~Curve Information
#_______________________________________________________________________________
#
#LOGNAME           .UNIT     LOG_ID                        : DESCRIPTION
#_______________________________________________________________________________
DEPT               .M                                      : 1 Глубина, м -    0.0 см 
GK                 .MKR/H                                  : 15 Гамма-активность, мкр./ч -  110.0 см 
GK$                .UE                                     : 12 Гамма-активность, усл.ед. -  110.0 см 
LM                 .                                       : 10 Локатор муфт,  -   20.0 см 
METKA              .                                       : 3 Метки,  -    0.0 см 
MN                 .ATM                                    : 14 Давление, атм. -  160.0 см 
MN$                .UE                                     : 8 Давление, усл.ед. -  160.0 см 
RCOR               .CM/KM                                  : 5 Коррекция по ролику, см/км -    0.0 см 
SPID               .M/H                                    : 2 Скорость, м/час -    0.0 см 
STD                .                                       : 11 Приток,  -  170.0 см 
TENS               .T                                      : 6 Натяжение кабеля, т -    0.0 см 
TIME               .S                                      : 4 Время, сек -    0.0 см 
TM                 .GRD                                    : 13 Температура, °C -  180.0 см 
TM$                .UE                                     : 7 Температура, усл.ед. -  180.0 см 
VGD                .                                       : 9 Влагомер,  -  170.0 см 
~Ascii
# ...
2728       5.59       237        1          0          261.644    14685      -1400      604        31418      0          28009.6    85.837     21595      6568      
2728.2     5.56       237        1          0          261.663    14685      -1400      604        31445      0          28010.79   85.894     21609      6567      
2728.4     5.68       247        1          0          261.68     14686      -1400      609        31479      0          28011.9    85.97      21628      6567      
2728.6     5.75       247        1          0          261.703    14687      -1400      612        31514      0          28013.13   86.055     21649      6566      
2728.8     5.77       247        1          0          261.736    14688      -1400      610        31554      0          28014.32   86.166     21677      6566      
2729       5.77       247        1          0          261.752    14689      -1400      610        31600      0          28015.51   86.286     21706      6566      
2729.2     6.09       271        1          0          261.777    14690      -1400      612        31651      0          28016.7    86.43      21742      6565      
2729.4     6.26       271        1          0          261.795    14691      -1400      614        31706      0          28017.87   86.582     21780      6565      
2729.6     6.59       298        1          0          261.824    14692      -1400      615        31759      0          28019.1    86.701     21809      6565      
2729.8     6.85       298        1          0          261.848    14693      -1400      610        31816      0          28020.27   86.802     21834      6564      
2730       7.05       312        1          2          261.871    14694      -1400      617        31865      0          28021.46   86.911     21861      6564      
2730.2     7.21       312        1          0          261.893    14695      -1400      598        31918      0          28022.79   87.023     21889      6564      
2730.4     7.3        315        1          0          261.913    14696      -1400      600        31976      0          28023.9    87.165     21924      6564      
2730.6     7.39       318        1          0          261.932    14696      -1400      606        32030      0          28025.09   87.317     21962      6563      
2730.8     7.56       335        1          0          261.952    14697      -1400      608        32084      0          28026.32   87.465     21999      6563      
2731       7.75       335        1          0          261.973    14698      -1400      605        32138      0          28027.51   87.602     22033      6563      
2731.2     8.06       366        1          0          262.012    14700      -1400      602        32193      0          28028.69   87.718     22062      6562      
2731.4     8.48       371        1          0          262.021    14700      -1400      607        32243      0          28029.86   87.844     22093      6562      
2731.6     8.56       364        1          0          262.044    14701      -1400      600        32294      0          28031.09   87.955     22120      6563      
2731.8     8.27       348        1          0          262.068    14702      -1400      606        32346      0          28032.26   88.062     22147      6561      
2732       8.18       348        1          0          262.073    14702      -1400      606        32392      0          28033.38   88.167     22173      6561      
2732.2     7.44       301        1          0          262.093    14703      -1400      614        32374      0          28034.65   88.248     22193      6561      
2732.4     7.17       301        1          0          262.116    14704      -1400      610        32375      0          28035.83   88.342     22216      6561      
2732.6     6.66       269        1          0          262.139    14705      -1400      612        32375      0          28036.98   88.429     22238      6561      
2732.8     6.4        269        1          0          262.141    14705      -1400      613        32375      0          28038.17   88.508     22257      6561      
2733       6.76       297        1          0          262.179    14707      -1400      610        32375      0          28039.41   88.586     22277      6561      
2733.2     6.89       297        1          0          262.199    14708      -1400      611        32375      0          28040.57   88.67      22298      6561      
2733.4     7.35       327        1          0          262.225    14709      -1400      617        32375      0          28041.72   88.752     22318      6560      
2733.6     7.55       327        1          0          262.232    14709      -1400      613        32375      0          28042.86   88.814     22333      6560      
2733.8     7.47       314        1          0          262.251    14710      -1400      605        32375      0          28044.11   88.866     22346      6560      
2734       7.38       314        1          0          262.277    14711      -1400      612        32375      0          28045.29   88.926     22361      6560      
2734.2     7.42       321        1          0          262.283    14711      -1400      613        32375      0          28046.44   88.981     22375      6560      
2734.4     7.48       321        1          0          262.3      14712      -1400      604        32375      0          28047.68   89.031     22387      6560      
2734.6     7.68       344        1          0          262.322    14713      -1400      608        32375      0          28048.85   89.082     22400      6559      
2734.8     8.23       362        1          0          262.335    14714      -1400      610        32375      0          28050      89.125     22411      6560      
2735       8.63       389        1          0          262.366    14715      -1400      616        32375      0          28051.22   89.16      22419      6560      
2735.2     8.94       389        1          0          262.367    14715      -1400      607        32375      0          28052.44   89.203     22430      6559      
2735.4     8.88       368        1          0          262.389    14716      -1400      610        32375      0          28053.58   89.245     22441      6559      
2735.6     8.43       352        1          0          262.411    14717      -1400      612        32376      0          28054.73   89.285     22450      6559      
2735.8     8.28       350        1          0          262.414    14717      -1400      607        32374      0          28055.96   89.322     22459      6559      
2736       8.05       339        1          0          262.433    14718      -1400      606        32375      0          28057.15   89.349     22466      6559      
2736.2     7.97       339        1          0          262.469    14720      -1400      609        32375      0          28058.32   89.376     22473      6559      
2736.4     7.47       306        1          0          262.476    14720      -1400      615        32375      0          28059.52   89.405     22480      6559      
2736.6     7.26       306        1          0          262.498    14721      -1400      594        32375      0          28060.73   89.439     22488      6559      
2736.8     7.13       302        1998       0          262.519    14722      -1400      600        32375      0          28061.91   89.47      22496      6559      
2737       7.08       302        736        0          262.512    14722      -1400      598        32375      0          28063.09   89.493     22502      6559      
2737.2     7.06       301        27         0          262.541    14723      -1400      592        32375      0          28064.31   89.508     22506      6558      
2737.4     7.05       301        1          0          262.562    14724      -1400      591        32375      0          28065.44   89.522     22509      6559      
2737.6     7.14       309        1          0          262.562    14724      -1400      603        32375      0          28066.68   89.538     22513      6558      
