~Version
 VERS              .         2.0                           : CWLS LOG ASCII STANDARD - VERSION 2.0
 WRAP              .         NO                            : ONE LINE PER DEPTH STEP
 DLM               .         SPACE                         : DELIMITING CHARACTER(SPACE TAB OR COMMA)
~Well Information
#_______________________________________________________________________________
#
#PARAMETER_NAME    .UNIT     VALUE                         : DESCRIPTION
#_______________________________________________________________________________
STRT               .M        11                            : First reference value
STOP               .M        2775.8                        : Last reference value
STEP               .M        0.2                           : Step increment
NULL               .         -9999                         : Missing value
COMP               .                                       : Company
WELL               .         616                           : Well name
FLD                .                                       : Field
LOC                .                                       : Location
CNTY               .                                       : County
STAT               .                                       : State
CTRY               .                                       : Country
SRVC               .                                       : Service Company
DATE               .                                       : Date
API                .                                       : API number
PROJECT_UPGRADE_TIME .         2021-03-18T21_24_50           : 
group              .         Good                          : 
~Parameter Information Block
#_______________________________________________________________________________
#
#PARAMETER_NAME    .UNIT     VALUE                         : DESCRIPTION
#_______________________________________________________________________________
SET                .         D1813_D                       : 
OTHER              .         Программное обеспечение станции MONITOR-386EX 25/12/99 15_08_10   BGF V52 22/08/01 16_56_30   3.1_SNGF___BGF_N_092049: 
OTHER_10           .         Тарировки_                    : 
OTHER_11           .         TM.GRD = 0.00403*TM$.UE + -1.07: 
OTHER_12           .         MN.ATM = (9.34907e-006*TM.GRD + 0.02171)*(MN$.UE + -7.93*TM.GRD + -1787): 
OTHER_13           .         GK.MKR/H = LM. / 42.4676      : 
OTHER_14           .         GK.FLT = 0.1*GK.MKR/H[-1] + (1-0.1)*GK.MKR/H[0]: 
OTHER_2            .         Kedr.exe версия 3.4.2.51      : 
OTHER_3            .         KedrData.dll версия 3.4.2.24  : 
OTHER_4            .         Драйвер версия 2.1.1.3        : 
OTHER_5            .         Мнемоники версия 3.3 S        : 
OTHER_6            .         Прибор_ КСА-Т4                : 
OTHER_7            .         Номер прибора_ 03             : 
OTHER_8            .         Режим_ КСА-Т4                 : 
OTHER_9            .         Форма_ КВА.                   : 
PROJECT_UPGRADE_TIME .         2021-03-18T21_24_49           : 
TLFamily_DEPT      .         Measured Depth                : 
TLFamily_GK        .         Gamma Ray                     : 
TLFamily_GK$       .                                       : 
TLFamily_GK_2      .         Gamma Ray                     : 
TLFamily_LM        .         Casing Collar locator         : 
TLFamily_METKA     .                                       : 
TLFamily_MN        .                                       : 
TLFamily_MN$       .                                       : 
TLFamily_RCOR      .                                       : 
TLFamily_SPID      .         Spontaneous Potential         : 
TLFamily_TENS      .         Cable Tension                 : 
TLFamily_TIME      .         Time                          : 
TLFamily_TM        .         Temperature                   : 
TLFamily_TM$       .         Temperature                   : 
group              .         prim                          : 
~Curve Information
#_______________________________________________________________________________
#
#LOGNAME           .UNIT     LOG_ID                        : DESCRIPTION
#_______________________________________________________________________________
DEPT               .M                                      : 1 Глубина, м -    0.0 см 
GK                 .MKR/H                                  : 13 Гамма-активность, мкр./ч -  110.0 см 
GK$                .UE                                     : 10 Гамма-активность, усл.ед. -  110.0 см 
GK_2               .FLT                                    : 14 Гамма-активность фильтрованная, мкр./ч -  110.0 см 
LM                 .                                       : 9 Локатор муфт,  -   20.0 см 
METKA              .                                       : 3 Метки,  -    0.0 см 
MN                 .ATM                                    : 12 Давление, атм. -  160.0 см 
MN$                .UE                                     : 8 Давление, усл.ед. -  160.0 см 
RCOR               .CM/KM                                  : 5 Коррекция по ролику, см/км -    0.0 см 
SPID               .M/H                                    : 2 Скорость, м/час -    0.0 см 
TENS               .T                                      : 6 Натяжение кабеля, т -    0.0 см 
TIME               .S                                      : 4 Время, сек -    0.0 см 
TM                 .GRD                                    : 11 Температура, °C -  170.0 см 
TM$                .UE                                     : 7 Температура, усл.ед. -  170.0 см 
~Ascii
# ...
2028.6     8.1        344        8.08       565        0          181.841    10401      -1050      -2345      0.07       8992.04    53.944     13651     
2028.8     8.07       343        8.05       569        0          181.859    10401      -1050      -2350      0.07       8991.72    53.947     13652     
2029       8.03       341        8.03       531        0          181.877    10402      -1050      -2348      0.07       8991.44    53.951     13653     
2029.2     8.03       341        8.03       586        0          181.895    10403      -1050      -2351      0.07       8991.14    53.954     13654     
2029.4     8.03       341        8.03       586        0          181.914    10404      -1050      -2355      0.07       8990.83    53.957     13654     
2029.6     8.03       341        8.02       552        0          181.931    10405      -1050      -2357      0.07       8990.52    53.961     13655     
2029.8     8.03       341        8.02       558        2          181.949    10405      -1050      -2351      0.07       8990.2     53.964     13656     
2030       8.03       341        8          577        0          181.974    10407      -1046      -2342      0.07       8989.83    53.967     13657     
2030.2     8.03       341        7.97       597        0          182.006    10408      -1046      -2334      0.07       8989.52    53.968     13657     
2030.4     8.03       341        7.9        632        0          182.025    10409      -1046      -2339      0.07       8989.22    53.97      13658     
2030.6     7.75       329        7.72       640        0          182.042    10410      -1046      -2341      0.07       8988.91    53.973     13658     
2030.8     7.68       326        7.68       640        0          182.06     10411      -1046      -2339      0.07       8988.6     53.976     13659     
2031       7.68       326        7.68       572        0          182.079    10411      -1046      -2337      0.07       8988.31    53.976     13659     
2031.2     7.68       326        7.67       572        0          182.097    10412      -1046      -2340      0.09       8988       53.979     13660     
2031.4     7.68       326        7.67       598        0          182.115    10413      -1046      -2338      0.07       8987.69    53.982     13661     
2031.6     7.68       326        7.66       706        0          182.137    10414      -1046      -2335      0.07       8987.38    53.986     13662     
2031.8     7.68       326        7.65       784        0          182.155    10415      -1046      -2332      0.08       8987.08    53.99      13662     
2032       7.68       326        7.61       784        0          182.172    10416      -1046      -2330      0.09       8986.77    53.993     13663     
2032.2     7.56       321        7.52       662        0          182.19     10417      -1046      -2333      0.07       8986.48    53.996     13664     
2032.4     7.46       317        7.46       538        0          182.209    10417      -1046      -2336      0.07       8986.16    54         13665     
2032.6     7.46       317        7.45       530        0          182.226    10418      -1046      -2333      0.09       8985.84    54         13665     
2032.8     7.46       317        7.43       584        0          182.244    10419      -1046      -2330      0.09       8985.55    54.002     13666     
2033       7.46       317        7.38       584        0          182.263    10420      -1046      -2327      0.1        8985.24    54.005     13666     
2033.2     7.46       317        7.26       668        0          182.28     10421      -1046      -2324      0.11       8984.92    54.009     13667     
2033.4     7.46       317        6.98       676        0          182.298    10421      -1046      -2327      0.09       8984.6     54.012     13668     
2033.6     6.8        289        6.31       665        0          182.321    10422      -1046      -2329      0.09       8984.31    54.012     13668     
2033.8     5.46       232        5.46       595        0          182.355    10424      -1046      -2331      0.09       8984       54.015     13669     
2034       5.46       232        5.47       628        0          182.375    10425      -1046      -2331      0.1        8983.71    54.018     13669     
2034.2     5.46       232        5.47       628        0          182.393    10426      -1046      -2329      0.11       8983.42    54.021     13670     
2034.4     5.46       232        5.48       727        0          182.411    10427      -1046      -2332      0.11       8983.09    54.025     13671     
2034.6     5.46       232        5.49       653        0          182.428    10427      -1046      -2335      0.09       8982.77    54.028     13672     
2034.8     5.46       232        5.53       576        0          182.447    10428      -1046      -2327      0.07       8982.48    54.031     13673     
2035       5.46       232        5.6        594        0          182.466    10429      -1046      -2330      0.08       8982.17    54.032     13673     
2035.2     5.46       232        5.76       612        0          182.483    10430      -1046      -2338      0.09       8981.87    54.034     13673     
2035.4     6.09       258        6.19       612        0          182.501    10431      -1046      -2343      0.09       8981.56    54.037     13674     
2035.6     6.36       270        6.36       755        0          182.508    10431      -1046      -2342      0.09       8981.24    54.041     13675     
2035.8     6.36       270        6.37       950        0          182.514    10431      -1046      -2345      0.07       8980.94    54.044     13676     
2036       6.36       270        6.38       952        0          182.536    10432      -1046      -2349      0.08       8980.64    54.044     13676     
2036.2     6.36       270        6.4        642        0          182.574    10434      -1046      -2350      0.09       8980.33    54.047     13677     
2036.4     6.36       270        6.46       642        0          182.591    10435      -1046      -2348      0.09       8980.03    54.05      13677     
2036.6     6.36       270        6.61       593        0          182.609    10436      -1046      -2346      0.09       8979.73    54.053     13678     
2036.8     6.36       270        6.95       648        0          182.627    10436      -1046      -2344      0.07       8979.42    54.056     13679     
2037       7.08       301        7.68       745        0          182.645    10437      -1046      -2353      0.07       8979.11    54.056     13679     
2037.2     8.71       370        8.72       821        0          182.663    10438      -1046      -2350      0.07       8978.8     54.062     13680     
2037.4     8.71       370        8.72       1030       0          182.682    10439      -1046      -2343      0.08       8978.48    54.064     13681     
2037.6     8.71       370        8.74       1030       0          182.699    10440      -1046      -2339      0.08       8978.18    54.066     13681     
2037.8     8.71       370        8.77       1088       0          182.717    10441      -1046      -2342      0.07       8977.89    54.069     13682     
2038       8.71       370        8.84       1123       0          182.735    10441      -1046      -2339      0.09       8977.56    54.072     13683     
2038.2     8.71       370        8.99       1530       0          182.752    10442      -1046      -2336      0.09       8977.26    54.072     13683     
2038.4     8.78       373        9.32       2264       0          182.77     10443      -1046      -2338      0.08       8976.95    54.075     13684     
2038.6     10.05      427        10.12      2264       0          182.789    10444      -1046      -2341      0.07       8976.65    54.078     13684     
2038.8     10.24      435        10.24      3466       0          182.807    10445      -1046      -2344      0.07       8976.36    54.081     13685     
