~Version
 VERS              .         2.0                           : CWLS LOG ASCII STANDARD - VERSION 2.0
 WRAP              .         NO                            : ONE LINE PER DEPTH STEP
 DLM               .         SPACE                         : DELIMITING CHARACTER(SPACE TAB OR COMMA)
~Well Information
#_______________________________________________________________________________
#
#PARAMETER_NAME    .UNIT     VALUE                         : DESCRIPTION
#_______________________________________________________________________________
STRT               .M        44                            : First reference value
STOP               .M        2769.2                        : Last reference value
STEP               .M        0.2                           : Step increment
NULL               .         -9999                         : Missing value
COMP               .                                       : Company
WELL               .         616                           : Well name
FLD                .                                       : Field
LOC                .                                       : Location
CNTY               .                                       : County
STAT               .                                       : State
CTRY               .                                       : Country
SRVC               .                                       : Service Company
DATE               .                                       : Date
API                .                                       : API number
PROJECT_UPGRADE_TIME .         2021-03-18T21_24_50           : 
group              .         Good                          : 
~Parameter Information Block
#_______________________________________________________________________________
#
#PARAMETER_NAME    .UNIT     VALUE                         : DESCRIPTION
#_______________________________________________________________________________
SET                .         D1160_D                       : 
OTHER              .         Программное обеспечение станции MONITOR-386EX 25/12/99 15_08_10   BGF V52 22/08/01 16_56_30   3.2_BGF_N_3070031: 
OTHER_10           .         Тарировки_                    : 
OTHER_11           .         TM.GRD = 0.00403*TM$.UE + -1.19: 
OTHER_12           .         MN.ATM = (7.1e-006*TM.GRD + 0.02017)*(MN$.UE + -3.03*TM.GRD + -1833): 
OTHER_13           .         Id error                      : 
OTHER_2            .         Kedr.exe версия 3.4.2.51      : 
OTHER_3            .         KedrData.dll версия 3.4.2.24  : 
OTHER_4            .         Драйвер версия 2.1.1.8        : 
OTHER_5            .         Мнемоники версия 3.3 S        : 
OTHER_6            .         Прибор_ КСА-М1                : 
OTHER_7            .         Номер прибора_ 265            : 
OTHER_8            .         Режим_ КСА-М1                 : 
OTHER_9            .         Форма_ ТЕРМОМЕТР              : 
PROJECT_UPGRADE_TIME .         2021-03-18T21_24_49           : 
TLFamily_DEPT      .         Measured Depth                : 
TLFamily_GK        .         Gamma Ray                     : 
TLFamily_GK$       .                                       : 
TLFamily_LM        .         Casing Collar locator         : 
TLFamily_METKA     .                                       : 
TLFamily_MN        .                                       : 
TLFamily_MN$       .                                       : 
TLFamily_RCOR      .                                       : 
TLFamily_SPID      .         Spontaneous Potential         : 
TLFamily_STD       .                                       : 
TLFamily_TENS      .         Cable Tension                 : 
TLFamily_TIME      .         Time                          : 
TLFamily_TM        .         Temperature                   : 
TLFamily_TM$       .         Temperature                   : 
TLFamily_VGD       .         Gas Volume                    : 
group              .         prim                          : 
~Curve Information
#_______________________________________________________________________________
#
#LOGNAME           .UNIT     LOG_ID                        : DESCRIPTION
#_______________________________________________________________________________
DEPT               .M                                      : 1 Глубина, м -    0.0 см 
GK                 .MKR/H                                  : 15 Гамма-активность, мкр./ч -  110.0 см 
GK$                .UE                                     : 12 Гамма-активность, усл.ед. -  110.0 см 
LM                 .                                       : 10 Локатор муфт,  -   20.0 см 
METKA              .                                       : 3 Метки,  -    0.0 см 
MN                 .ATM                                    : 14 Давление, атм. -  160.0 см 
MN$                .UE                                     : 8 Давление, усл.ед. -  160.0 см 
RCOR               .CM/KM                                  : 5 Коррекция по ролику, см/км -    0.0 см 
SPID               .M/H                                    : 2 Скорость, м/час -    0.0 см 
STD                .                                       : 11 Приток,  -  170.0 см 
TENS               .T                                      : 6 Натяжение кабеля, т -    0.0 см 
TIME               .S                                      : 4 Время, сек -    0.0 см 
TM                 .GRD                                    : 13 Температура, °C -  180.0 см 
TM$                .UE                                     : 7 Температура, усл.ед. -  180.0 см 
VGD                .                                       : 9 Влагомер,  -  170.0 см 
~Ascii
# ...
2582.2     7.4        315        1          0          239.802    13634      -1400      1846       31119      0          15263.5    84.94      21372      6497      
2582.4     7.39       315        1          0          239.821    13635      -1400      1841       31122      0          15263.89   84.945     21373      6497      
2582.6     7.38       315        1          0          239.84     13636      -1400      1839       31122      0          15264.29   84.952     21375      6497      
2582.8     7.38       315        1          0          239.859    13637      -1400      1841       31125      0          15264.67   84.956     21376      6497      
2583       7.38       315        1          0          239.878    13638      -1400      1841       31127      0          15265.05   84.963     21378      6497      
2583.2     7.37       315        1          0          239.88     13638      -1400      1836       31127      0          15265.43   84.967     21379      6497      
2583.4     7.39       317        1          0          239.896    13639      -1400      1832       31129      0          15265.82   84.971     21380      6497      
2583.6     7.79       368        1          0          239.928    13640      -1400      1835       31131      0          15266.23   84.974     21381      6497      
2583.8     8.06       370        1          0          239.955    13642      -1400      1831       31133      0          15266.61   84.978     21382      6497      
2584       8.24       370        1          0          239.974    13643      -1400      1837       31138      0          15266.99   84.984     21383      6497      
2584.2     8.37       370        1          0          239.985    13643      -1400      1845       31137      0          15267.38   84.992     21385      6498      
2584.4     8.46       370        1          0          239.997    13644      -1400      1841       31141      0          15267.78   84.997     21386      6497      
2584.6     8.52       370        1          0          240.027    13645      -1400      1840       31143      0          15268.18   85.002     21388      6497      
2584.8     8.57       371        1          0          240.03     13645      -1400      1842       31144      0          15268.57   85.008     21389      6498      
2585       8.61       372        1          0          240.068    13647      -1400      1837       31147      0          15268.96   85.012     21390      6497      
2585.2     8.64       372        1          0          240.088    13648      -1400      1835       31150      0          15269.36   85.016     21391      6497      
2585.4     8.66       372        1          0          240.106    13649      -1400      1837       31151      0          15269.75   85.02      21392      6497      
2585.6     8.67       372        1          0          240.125    13650      -1400      1838       31153      0          15270.14   85.026     21394      6497      
2585.8     8.68       372        1          0          240.131    13650      -1400      1834       31157      0          15270.55   85.034     21395      6497      
2586       8.69       372        1          0          240.155    13651      -1400      1830       31156      0          15270.92   85.038     21397      6497      
2586.2     8.69       371        1          0          240.183    13653      -1400      1832       31161      0          15271.3    85.042     21398      6497      
2586.4     8.68       371        1          0          240.211    13654      -1400      1835       31162      0          15271.68   85.048     21399      6497      
2586.6     8.68       371        1          0          240.235    13655      -1400      1833       31163      0          15272.06   85.054     21400      6497      
2586.8     8.68       371        1095       0          240.241    13655      -1400      1832       31167      0          15272.46   85.057     21401      6497      
2587       8.68       371        605        0          240.26     13656      -1400      1835       31168      0          15272.86   85.061     21402      6498      
2587.2     8.68       371        605        0          240.279    13657      -1400      1837       31170      0          15273.25   85.066     21403      6497      
2587.4     8.7        373        307        0          240.299    13658      -1400      1837       31172      0          15273.64   85.073     21405      6498      
2587.6     8.76       380        118        0          240.317    13659      -1400      1835       31174      0          15274.03   85.08      21407      6498      
2587.8     8.8        380        1          0          240.336    13660      -1400      1843       31176      0          15274.4    85.08      21407      6498      
2588       8.83       380        1          0          240.369    13661      -1400      1850       31179      0          15274.81   85.087     21409      6497      
2588.2     8.85       380        1          0          240.381    13662      -1400      1845       31179      0          15275.2    85.091     21410      6497      
2588.4     8.86       380        1          0          240.392    13663      -1400      1845       31183      0          15275.59   85.097     21411      6497      
2588.6     8.59       345        1          0          240.42     13664      -1400      1842       31185      0          15275.99   85.102     21413      6497      
2588.8     8.34       332        1          0          240.444    13665      -1400      1837       31187      0          15276.39   85.106     21413      6497      
2589       8.16       332        1          0          240.45     13665      -1400      1837       31190      0          15276.78   85.111     21415      6497      
2589.2     8.03       332        1          0          240.469    13666      -1400      1842       31190      0          15277.17   85.118     21416      6497      
2589.4     7.95       332        1          0          240.487    13667      -1400      1841       31192      0          15277.56   85.122     21417      6497      
2589.6     7.89       332        1          0          240.507    13668      -1400      1831       31195      0          15277.95   85.129     21419      6497      
2589.8     7.83       330        1          0          240.526    13669      -1400      1826       31196      0          15278.34   85.133     21420      6497      
2590       7.74       323        1          0          240.545    13670      -1400      1835       31199      0          15278.74   85.136     21421      6497      
2590.2     7.68       323        1          2          240.564    13671      -1400      1842       31202      0          15279.11   85.147     21423      6498      
2590.4     7.64       323        1          0          240.584    13672      -1400      1844       31202      0          15279.5    85.149     21424      6497      
2590.6     7.62       323        1          0          240.603    13673      -1400      1845       31206      0          15279.91   85.154     21425      6497      
2590.8     7.6        323        1          0          240.622    13674      -1400      1847       31207      0          15280.3    85.159     21427      6497      
2591       7.58       323        1          0          240.641    13674      -1400      1843       31209      0          15280.69   85.165     21428      6497      
2591.2     7.72       341        1          0          240.66     13675      -1400      1842       31213      0          15281.06   85.171     21429      6497      
2591.4     7.89       353        1          0          240.679    13676      -1400      1840       31213      0          15281.45   85.174     21430      6497      
2591.6     8.01       353        1          0          240.698    13677      -1400      1836       31216      0          15281.85   85.179     21431      6497      
2591.8     8.09       353        1          0          240.717    13678      -1400      1834       31219      0          15282.24   85.186     21433      6497      
