~Version
 VERS              .         2.0                           : CWLS LOG ASCII STANDARD - VERSION 2.0
 WRAP              .         NO                            : ONE LINE PER DEPTH STEP
 DLM               .         SPACE                         : DELIMITING CHARACTER(SPACE TAB OR COMMA)
~Well Information
#_______________________________________________________________________________
#
#PARAMETER_NAME    .UNIT     VALUE                         : DESCRIPTION
#_______________________________________________________________________________
STRT               .M        2698.8                        : First reference value
STOP               .M        2753.2                        : Last reference value
STEP               .M        0.1999996                     : Step increment
NULL               .         -9999                         : Missing value
COMP               .                                       : Company
WELL               .         616                           : Well name
FLD                .                                       : Field
LOC                .                                       : Location
CNTY               .                                       : County
STAT               .                                       : State
CTRY               .                                       : Country
SRVC               .                                       : Service Company
DATE               .                                       : Date
API                .                                       : API number
PROJECT_UPGRADE_TIME .         2021-03-18T21_24_50           : 
group              .         Good                          : 
~Parameter Information Block
#_______________________________________________________________________________
#
#PARAMETER_NAME    .UNIT     VALUE                         : DESCRIPTION
#_______________________________________________________________________________
SET                .         D1802_D                       : 
OTHER              .         Программное обеспечение станции MONITOR-386EX 25/12/99 15_08_10   BGF V52 22/08/01 16_56_30   3.1_SNGF___BGF_N_092049: 
OTHER_10           .         Тарировки_                    : 
OTHER_11           .         TM.GRD = 0.00403*TM$.UE + -1.07: 
OTHER_12           .         MN.ATM = (9.34907e-006*TM.GRD + 0.02171)*(MN$.UE + -7.93*TM.GRD + -1787): 
OTHER_13           .         GK.MKR/H = LM. / 42.4676      : 
OTHER_14           .         GK.FLT = 0.1*GK.MKR/H[-1] + (1-0.1)*GK.MKR/H[0]: 
OTHER_2            .         Kedr.exe версия 3.4.2.51      : 
OTHER_3            .         KedrData.dll версия 3.4.2.24  : 
OTHER_4            .         Драйвер версия 2.1.1.3        : 
OTHER_5            .         Мнемоники версия 3.3 S        : 
OTHER_6            .         Прибор_ КСА-Т4                : 
OTHER_7            .         Номер прибора_ 03             : 
OTHER_8            .         Режим_ КСА-Т4                 : 
OTHER_9            .         Форма_ КВА.                   : 
PROJECT_UPGRADE_TIME .         2021-03-18T21_24_49           : 
TLFamily_DEPT      .         Measured Depth                : 
TLFamily_GK        .         Gamma Ray                     : 
TLFamily_GK$       .                                       : 
TLFamily_GK_2      .         Gamma Ray                     : 
TLFamily_LM        .         Casing Collar locator         : 
TLFamily_METKA     .                                       : 
TLFamily_MN        .                                       : 
TLFamily_MN$       .                                       : 
TLFamily_RCOR      .                                       : 
TLFamily_SPID      .         Spontaneous Potential         : 
TLFamily_TENS      .         Cable Tension                 : 
TLFamily_TIME      .         Time                          : 
TLFamily_TM        .         Temperature                   : 
TLFamily_TM$       .         Temperature                   : 
group              .         prim                          : 
~Curve Information
#_______________________________________________________________________________
#
#LOGNAME           .UNIT     LOG_ID                        : DESCRIPTION
#_______________________________________________________________________________
DEPT               .M                                      : 1 Глубина, м -    0.0 см 
GK                 .MKR/H                                  : 13 Гамма-активность, мкр./ч -  110.0 см 
GK$                .UE                                     : 10 Гамма-активность, усл.ед. -  110.0 см 
GK_2               .FLT                                    : 14 Гамма-активность фильтрованная, мкр./ч -  110.0 см 
LM                 .                                       : 9 Локатор муфт,  -   20.0 см 
METKA              .                                       : 3 Метки,  -    0.0 см 
MN                 .ATM                                    : 12 Давление, атм. -  160.0 см 
MN$                .UE                                     : 8 Давление, усл.ед. -  160.0 см 
RCOR               .CM/KM                                  : 5 Коррекция по ролику, см/км -    0.0 см 
SPID               .M/H                                    : 2 Скорость, м/час -    0.0 см 
TENS               .T                                      : 6 Натяжение кабеля, т -    0.0 см 
TIME               .S                                      : 4 Время, сек -    0.0 см 
TM                 .GRD                                    : 11 Температура, °C -  170.0 см 
TM$                .UE                                     : 7 Температура, усл.ед. -  170.0 см 
~Ascii
# ...
2719.6     11.54      490        11.46      65         0          249.148    13402      -634       -207       0.17       9041.88    45.045     11443     
2719.8     10.05      427        10.06      99         0          249.17     13403      -634       -197       0.17       9038.14    45.045     11443     
2720       10.46      444        10.45      89         2          249.192    13404      -627       -202       0.17       9033.11    45.045     11443     
2720.2     10.29      437        10.26      111        0          249.214    13405      -627       -201       0.17       9029.58    45.045     11443     
2720.4     10.78      458        10.79      111        0          249.236    13406      -627       -203       0.17       9026.03    45.045     11443     
2720.6     11.11      472        11.11      146        0          249.258    13407      -627       -200       0.17       9022.48    45.045     11443     
2720.8     10.67      453        10.67      160        0          249.258    13407      -627       -201       0.17       9018.77    45.045     11443     
2721       10.62      451        10.59      77         0          249.303    13409      -627       -205       0.17       9015.22    45.045     11443     
2721.2     9.68       411        9.63       56         0          249.303    13409      -627       -194       0.17       9011.67    45.045     11443     
2721.4     9.47       402        9.47       107        0          249.325    13410      -627       -192       0.17       9008.14    45.045     11443     
2721.6     9.61       408        9.71       71         0          249.326    13410      -627       -202       0.17       9004.41    45.041     11442     
2721.8     10.5       446        10.5       73         0          249.369    13412      -627       -198       0.17       9000.69    45.041     11442     
2722       9.98       424        10.02      83         0          249.391    13413      -627       -207       0.17       8997.14    45.041     11442     
2722.2     11.11      472        11.09      68         0          249.414    13414      -627       -196       0.17       8993.59    45.041     11442     
2722.4     11.18      475        11.19      92         0          249.436    13415      -627       -204       0.17       8990.06    45.041     11442     
2722.6     11.8       501        11.94      74         0          249.458    13416      -627       -195       0.17       8986.52    45.037     11441     
2722.8     11.7       497        11.7       101        0          249.48     13417      -627       -192       0.17       8982.79    45.041     11442     
2723       11.28      479        11.67      72         0          249.491    13418      -627       -185       0.17       8979.25    45.037     11441     
2723.2     11.73      498        11.72      106        0          249.514    13419      -627       -197       0.17       8975.52    45.037     11441     
2723.4     9.3        395        9.21       100        0          249.535    13419      -627       -195       0.17       8971.98    45.037     11441     
2723.6     7.53       320        7.38       107        0          249.547    13420      -627       -202       0.17       8968.44    45.033     11440     
2723.8     6.78       288        6.79       84         0          249.58     13422      -627       -193       0.17       8964.7     45.031     11439     
2724       7.49       318        7.31       91         0          249.591    13422      -627       -202       0.17       8961.36    45.033     11440     
2724.2     6.55       278        6.55       119        0          249.624    13424      -627       -205       0.17       8957.63    45.031     11439     
2724.4     7.61       323        7.72       227        0          249.647    13425      -627       -195       0.17       8954.09    45.031     11439     
2724.6     7.25       308        7.25       138        0          249.658    13425      -627       -198       0.17       8950.55    45.029     11439     
2724.8     6.88       292        6.87       255        0          249.68     13426      -627       -194       0.17       8946.63    45.029     11439     
2725       7.25       308        7.25       1048       0          249.702    13427      -627       -201       0.17       8943.2     45.029     11439     
2725.2     7.91       336        7.91       203        0          249.724    13428      -627       -196       0.17       8939.55    45.025     11438     
2725.4     8.47       360        8.47       98         0          249.747    13429      -627       -202       0.17       8936.19    45.021     11437     
2725.6     8.17       347        8.17       166        0          249.769    13430      -627       -198       0.17       8932.46    45.021     11437     
2725.8     7.59       322        7.69       193        0          249.769    13430      -627       -203       0.17       8928.92    45.021     11437     
2726       8.1        344        8.1        168        0          249.802    13431      -627       -207       0.17       8925.38    45.029     11439     
2726.2     8.27       351        8.22       62         0          249.835    13433      -627       -188       0.17       8921.84    45.029     11439     
2726.4     6.81       289        6.81       69         0          249.857    13434      -627       -209       0.17       8918.11    45.029     11439     
2726.6     6.97       296        6.98       79         0          249.879    13435      -627       -202       0.17       8914.38    45.025     11438     
2726.8     6.62       281        6.62       71         0          249.902    13436      -627       -209       0.17       8911.03    45.021     11437     
2727       7.3        310        7.31       55         0          249.902    13436      -627       -197       0.17       8907.3     45.021     11437     
2727.2     7.86       334        7.81       58         0          249.947    13438      -627       -205       0.17       8903.76    45.013     11435     
2727.4     7.58       322        7.57       71         0          249.948    13438      -627       -193       0.17       8900.22    45.004     11433     
2727.6     6.85       291        6.88       86         0          249.972    13439      -627       -195       0.17       8896.67    44.971     11425     
2727.8     9.07       385        9.07       125        0          249.988    13440      -627       -187       0.17       8893.14    45.013     11435     
2728       10.95      465        11         195        0          250.008    13441      -627       -202       0.17       8889.41    45.061     11447     
2728.2     11.07      470        11.07      191        0          250.053    13443      -627       -208       0.17       8885.86    45.078     11451     
2728.4     10.64      452        10.66      398        0          250.053    13443      -627       -203       0.17       8882.33    45.073     11450     
2728.6     11.82      502        11.73      85         0          250.075    13444      -627       -198       0.17       8878.78    45.078     11451     
2728.8     10.95      465        10.96      288        0          250.097    13445      -627       -203       0.17       8875.23    45.078     11451     
2729       11.82      502        11.49      108        0          250.118    13446      -627       -207       0.17       8871.7     45.082     11452     
2729.2     8.31       353        8.31       202        0          250.137    13447      -627       -204       0.17       8867.97    45.111     11459     
2729.4     7.46       317        7.4        166        0          250.159    13448      -627       -205       0.17       8864.56    45.142     11467     
2729.6     7.35       312        7.35       112        0          250.181    13449      -627       -209       0.17       8860.7     45.146     11468     
2729.8     7.37       313        7.36       127        0          250.214    13450      -627       -205       0.17       8857.34    45.146     11468     
