~Version
 VERS              .         2.0                           : CWLS LOG ASCII STANDARD - VERSION 2.0
 WRAP              .         NO                            : ONE LINE PER DEPTH STEP
 DLM               .         SPACE                         : DELIMITING CHARACTER(SPACE TAB OR COMMA)
~Well Information
#_______________________________________________________________________________
#
#PARAMETER_NAME    .UNIT     VALUE                         : DESCRIPTION
#_______________________________________________________________________________
STRT               .M        2664                          : First reference value
STOP               .M        2769.2                        : Last reference value
STEP               .M        0.1999999                     : Step increment
NULL               .         -9999                         : Missing value
COMP               .                                       : Company
WELL               .         616                           : Well name
FLD                .                                       : Field
LOC                .                                       : Location
CNTY               .                                       : County
STAT               .                                       : State
CTRY               .                                       : Country
SRVC               .                                       : Service Company
DATE               .                                       : Date
API                .                                       : API number
PROJECT_UPGRADE_TIME .         2021-03-18T21_24_50           : 
group              .         Good                          : 
~Parameter Information Block
#_______________________________________________________________________________
#
#PARAMETER_NAME    .UNIT     VALUE                         : DESCRIPTION
#_______________________________________________________________________________
SET                .         D1161_D                       : 
OTHER              .         Программное обеспечение станции MONITOR-386EX 25/12/99 15_08_10   BGF V52 22/08/01 16_56_30   3.2_BGF_N_3070031: 
OTHER_10           .         Тарировки_                    : 
OTHER_11           .         TM.GRD = 0.00403*TM$.UE + -1.19: 
OTHER_12           .         MN.ATM = (7.1e-006*TM.GRD + 0.02017)*(MN$.UE + -3.03*TM.GRD + -1833): 
OTHER_13           .         Id error                      : 
OTHER_2            .         Kedr.exe версия 3.4.2.51      : 
OTHER_3            .         KedrData.dll версия 3.4.2.24  : 
OTHER_4            .         Драйвер версия 2.1.1.8        : 
OTHER_5            .         Мнемоники версия 3.3 S        : 
OTHER_6            .         Прибор_ КСА-М1                : 
OTHER_7            .         Номер прибора_ 265            : 
OTHER_8            .         Режим_ КСА-М1                 : 
OTHER_9            .         Форма_ ТЕРМОМЕТР              : 
PROJECT_UPGRADE_TIME .         2021-03-18T21_24_49           : 
TLFamily_DEPT      .         Measured Depth                : 
TLFamily_GK        .         Gamma Ray                     : 
TLFamily_GK$       .                                       : 
TLFamily_LM        .         Casing Collar locator         : 
TLFamily_METKA     .                                       : 
TLFamily_MN        .                                       : 
TLFamily_MN$       .                                       : 
TLFamily_RCOR      .                                       : 
TLFamily_SPID      .         Spontaneous Potential         : 
TLFamily_STD       .                                       : 
TLFamily_TENS      .         Cable Tension                 : 
TLFamily_TIME      .         Time                          : 
TLFamily_TM        .         Temperature                   : 
TLFamily_TM$       .         Temperature                   : 
TLFamily_VGD       .         Gas Volume                    : 
group              .         prim                          : 
~Curve Information
#_______________________________________________________________________________
#
#LOGNAME           .UNIT     LOG_ID                        : DESCRIPTION
#_______________________________________________________________________________
DEPT               .M                                      : 1 Глубина, м -    0.0 см 
GK                 .MKR/H                                  : 15 Гамма-активность, мкр./ч -  110.0 см 
GK$                .UE                                     : 12 Гамма-активность, усл.ед. -  110.0 см 
LM                 .                                       : 10 Локатор муфт,  -   20.0 см 
METKA              .                                       : 3 Метки,  -    0.0 см 
MN                 .ATM                                    : 14 Давление, атм. -  160.0 см 
MN$                .UE                                     : 8 Давление, усл.ед. -  160.0 см 
RCOR               .CM/KM                                  : 5 Коррекция по ролику, см/км -    0.0 см 
SPID               .M/H                                    : 2 Скорость, м/час -    0.0 см 
STD                .                                       : 11 Приток,  -  170.0 см 
TENS               .T                                      : 6 Натяжение кабеля, т -    0.0 см 
TIME               .S                                      : 4 Время, сек -    0.0 см 
TM                 .GRD                                    : 13 Температура, °C -  180.0 см 
TM$                .UE                                     : 7 Температура, усл.ед. -  180.0 см 
VGD                .                                       : 9 Влагомер,  -  170.0 см 
~Ascii
# ...
2693.4     9.27       396        1          0          249.998    14122      -1400      -310       32373      0          17006.85   88.01      22134      6509      
2693.6     9.26       398        1          0          250.003    14122      -1400      -310       32372      0          17004.59   88.01      22134      6508      
2693.8     8.95       382        1          0          250.045    14124      -1400      -308       32373      0          17002.22   88.018     22136      6508      
2694       9.04       383        1          0          250.055    14125      -1400      -311       32374      0          16999.74   88.026     22138      6508      
2694.2     9.53       405        1          0          250.071    14125      -1400      -307       32374      0          16997.38   88.034     22140      6509      
2694.4     9.98       429        1          0          250.087    14126      -1400      -307       32373      0          16995.04   88.042     22142      6508      
2694.6     9.58       414        1          0          250.108    14127      -1400      -306       32373      0          16992.74   88.046     22143      6507      
2694.8     9.34       405        1          0          250.129    14128      -1400      -307       32373      0          16990.3    88.054     22145      6508      
2695       9.57       408        1          0          250.149    14129      -1400      -307       32373      0          16987.9    88.054     22145      6508      
2695.2     9.28       403        1          0          250.17     14130      -1400      -305       32373      0          16985.57   88.059     22146      6508      
2695.4     9.14       394        1          0          250.191    14131      -1400      -310       32373      0          16983.16   88.062     22147      6508      
2695.6     9.25       387        1          0          250.207    14132      -1400      -310       32373      0          16980.79   88.066     22148      6508      
2695.8     9.43       405        1          0          250.233    14133      -1400      -303       32373      0          16978.43   88.079     22151      6506      
2696       9.46       400        1          0          250.24     14133      -1400      -298       32374      0          16976.06   88.087     22153      6507      
2696.2     9.43       409        1          0          250.275    14135      -1400      -303       32373      0          16973.65   88.089     22154      6508      
2696.4     9.19       396        1          0          250.296    14136      -1400      -304       32373      0          16971.32   88.095     22155      6507      
2696.6     9.21       384        1          0          250.301    14136      -1400      -304       32373      0          16968.95   88.099     22156      6507      
2696.8     9.85       417        1          0          250.331    14138      -1400      -308       32373      0          16966.48   88.103     22157      6507      
2697       10.13      436        1          0          250.343    14138      -1400      -308       32373      0          16964.18   88.105     22158      6506      
2697.2     9.76       425        1          0          250.38     14140      -1400      -306       32373      0          16961.85   88.113     22160      6507      
2697.4     9.12       397        1          0          250.4      14141      -1400      -303       32373      0          16959.48   88.122     22162      6507      
2697.6     8.41       359        1          0          250.421    14142      -1400      -305       32373      0          16957      88.124     22162      6507      
2697.8     8.51       359        1          0          250.442    14143      -1400      -301       32373      0          16954.63   88.134     22165      6507      
2698       9.35       398        1          0          250.463    14144      -1400      -300       32373      0          16952.27   88.14      22166      6507      
2698.2     9.64       411        1          0          250.484    14145      -1400      -305       32373      0          16949.9    88.147     22168      6507      
2698.4     9.78       420        1          0          250.505    14146      -1400      -298       32373      0          16947.53   88.155     22170      6507      
2698.6     9.37       405        1          0          250.512    14146      -1400      -301       32373      0          16945.16   88.155     22170      6506      
2698.8     8.46       374        1          0          250.531    14147      -1400      -297       32373      0          16942.91   88.159     22171      6506      
2699       7.84       351        1          0          250.568    14149      -1400      -297       32372      0          16940.43   88.167     22173      6506      
2699.2     7.41       329        1          0          250.589    14150      -1400      -299       32373      0          16938.07   88.172     22174      6506      
2699.4     6.84       305        1          0          250.599    14150      -1400      -291       32373      0          16935.7    88.179     22176      6506      
2699.6     6.4        288        1          0          250.61     14151      -1400      -303       32373      0          16933.22   88.183     22177      6506      
2699.8     6.05       264        1          0          250.641    14152      -1400      -297       32373      0          16930.89   88.191     22179      6506      
2700       6.14       251        1          2          250.652    14153      -1400      -297       32373      0          16928.38   88.199     22181      6506      
2700.2     6.51       277        1          0          250.673    14154      -1400      -301       32373      0          16925.9    88.203     22182      6506      
2700.4     6.38       285        1          0          250.694    14155      -1400      -304       32373      0          16923.42   88.212     22184      6505      
2700.6     6          254        1          0          250.715    14156      -1400      -301       32373      0          16921.05   88.22      22186      6505      
2700.8     6.3        259        1          0          250.736    14157      -1400      -302       32373      0          16918.69   88.228     22188      6504      
2701       7          292        1          0          250.757    14158      -1400      -309       32373      0          16916.25   88.236     22190      6507      
2701.2     7.38       325        1          0          250.778    14159      -1400      -304       32373      0          16913.95   88.244     22192      6507      
2701.4     6.51       290        1          0          250.799    14160      -1400      -301       32373      0          16911.58   88.252     22194      6506      
2701.6     5.96       246        1          0          250.809    14160      -1400      -295       32373      0          16909.21   88.26      22196      6505      
2701.8     6.69       281        1          0          250.841    14162      -1400      -305       32373      0          16906.74   88.274     22200      6505      
2702       7.15       309        1          0          250.862    14163      -1400      -301       32373      0          16904.37   88.284     22202      6505      
2702.2     6.8        289        1          0          250.872    14164      -1400      -295       32373      0          16902.04   88.296     22205      6505      
2702.4     7.09       300        142        0          250.904    14165      -1400      -303       32373      0          16899.53   88.298     22206      6504      
2702.6     7.4        318        1489       0          250.925    14166      -1400      -303       32373      0          16897.16   88.304     22207      6505      
2702.8     7.13       307        1          0          250.945    14167      -1400      -307       32373      0          16894.79   88.312     22209      6505      
2703       6.78       290        1          0          250.967    14168      -1400      -303       32373      0          16892.53   88.316     22210      6505      
