~Version
 VERS              .         2.0                           : CWLS LOG ASCII STANDARD - VERSION 2.0
 WRAP              .         NO                            : ONE LINE PER DEPTH STEP
 DLM               .         SPACE                         : DELIMITING CHARACTER(SPACE TAB OR COMMA)
~Well Information
#_______________________________________________________________________________
#
#PARAMETER_NAME    .UNIT     VALUE                         : DESCRIPTION
#_______________________________________________________________________________
STRT               .M        2658.8                        : First reference value
STOP               .M        2765.199894                   : Last reference value
STEP               .M        0.1999998                     : Step increment
NULL               .         -9999                         : Missing value
COMP               .                                       : Company
WELL               .         616                           : Well name
FLD                .                                       : Field
LOC                .                                       : Location
CNTY               .                                       : County
STAT               .                                       : State
CTRY               .                                       : Country
SRVC               .                                       : Service Company
DATE               .                                       : Date
API                .                                       : API number
PROJECT_UPGRADE_TIME .         2021-03-18T21_24_50           : 
group              .         Good                          : 
~Parameter Information Block
#_______________________________________________________________________________
#
#PARAMETER_NAME    .UNIT     VALUE                         : DESCRIPTION
#_______________________________________________________________________________
SET                .         D7023_D_2                     : 
NPR                .         155                           : Номер прибора
OTHER              .         Kedr.exe версия 2.1.2.32      : 
OTHER_10           .         TM.GRD = 0.00404*TM$.UE + 0.07: 
OTHER_11           .         MN.ATM = (6.33279e-006*TM.GRD + 0.02401)*(MN$.UE + 2.72*TM.GRD + -2018): 
OTHER_12           .         GK.MKR/H = GK$.UE / 43.5489 + 0: 
OTHER_13           .         RES.SM = 0.00476*CRES.UE - 1.51709: 
OTHER_14           .         PL.GSM3 = 0 + 0 * (PL.UE / 1) +  0 * (PL.UE / 1)^2: 
OTHER_15           .         Постоянная времени ГГП = 6 сек: 
OTHER_16           .         Постоянная времени ГК = 6 сек : 
OTHER_2            .         KedrData.dll версия 3.2.2.14  : 
OTHER_3            .         LasInf.dll версия 3.2.0.13    : 
OTHER_4            .         Драйвер версия 1.2.0.5        : 
OTHER_5            .         Прибор_ КСА-M1                : 
OTHER_6            .         Номер прибора_ 155+р204       : 
OTHER_7            .         Режим_ КСА-М1 + ГГП + Резистивиметр: 
OTHER_8            .         Форма_ 223\2                  : 
OTHER_9            .         Тарировки_                    : 
PR                 .         КСА-Т7 М1                     : Тип прибора
PROJECT_UPGRADE_TIME .         2021-03-18T21_24_50           : 
PRTY               .         ПП-223_2                      : Номер партии
SRV                .         ЦКРС                          : Заказчик
SRVC               .         Лузин  А.Б.                   : Начальник партии
TLFamily_DEPT      .         Measured Depth                : 
TLFamily_LM        .         Casing Collar locator         : 
TLFamily_MN        .                                       : 
TLFamily_SPID      .         Spontaneous Potential         : 
TLFamily_TM        .         Temperature                   : 
group              .         second                        : 
~Curve Information
#_______________________________________________________________________________
#
#LOGNAME           .UNIT     LOG_ID                        : DESCRIPTION
#_______________________________________________________________________________
DEPT               .M                                      : Depth curve 
LM                 .е.ацп                                  : Локация муфт 
MN                 .атм                                    : Манометрия, атм 
SPID               .м/ч                                    : Скорость записи,м/час 
TM                 .град.С                                 : Термометрия,град.С 
~Ascii
# ...
2687.599971 108.001    359.2      579.997    54.18     
2687.799971 111.007    358.72     567.986    54.17     
2687.999971 138.987    358.47     510.014    54.17     
2688.199971 87.004     357.61     568.003    54.15     
2688.39997 102        357.95     579.985    54.14     
2688.59997 99.999     357.83     521.015    54.12     
2688.79997 94.995     357.33     579.986    54.12     
2688.99997 76.006     357.58     522.007    54.11     
2689.19997 101.007    359.31     552.007    54.11     
2689.399969 129.013    359.94     580        54.1      
2689.599969 182.98     360.79     579.985    54.09     
2689.799969 101.999    360.06     520.009    54.09     
2689.999969 95.994     360.67     557.003    54.08     
2690.199969 70.999     361.24     568.003    54.08     
2690.399968 65         361.7      579.988    54.08     
2690.599968 66         360.92     533.012    54.07     
2690.799968 64.001     360.71     580        54.07     
2690.999968 69.002     359.83     579.991    54.06     
2691.199968 76.188     359.31     544.996    54.05     
2691.399967 837.054    359.45     530.012    54.04     
2691.599967 1057.801   360.9      580        54.03     
2691.799967 252.957    361.23     579.993    54.02     
2691.999967 76.99      360.66     549.993    54.01     
2692.199967 35         361.4      522.014    54        
2692.399966 33         361.7      580        54        
2692.599966 33         361.02     580        54        
2692.799966 32         360.5      580        53.99     
2692.999966 33.001     360.36     579.983    53.98     
2693.199966 37.999     359.2      510.017    53.97     
2693.399965 35         358.75     580        53.96     
2693.599965 32.999     359.1      579.997    53.95     
2693.799965 28.002     358.26     567.986    53.94     
2693.999965 34.999     358.19     510        53.94     
2694.199965 30.003     359.23     510.009    53.93     
2694.399964 41.999     359.85     545.006    53.93     
2694.599964 36.001     361.31     568.985    53.92     
2694.799964 39.997     359.74     510.017    53.92     
2694.999964 26         360.33     579.993    53.91     
2695.199964 26         360.97     549.993    53.91     
2695.399963 28.006     362.14     522.014    53.9      
2695.599963 50.998     362.14     580        53.89     
2695.799963 43.998     361.64     579.99     53.88     
2695.999963 33.997     361.84     539.998    53.87     
2696.199963 23         361.29     533.012    53.86     
2696.399962 25.006     361.72     580        53.86     
2696.599962 47.998     360.97     580        53.86     
2696.799962 41.015     360.58     580        53.85     
2696.999962 100.001    359.97     579.983    53.85     
2697.199962 105.007    359.67     510        53.84     
2697.399961 132.99     359.43     510.017    53.83     
2697.599961 93.995     360.38     580        53.83     
2697.799961 75         359.38     580        53.82     
2697.999961 76.001     358.36     579.983    53.81     
2698.199961 80.001     359.7      510.006    53.8      
2698.39996 84.997     360.29     533.012    53.79     
2698.59996 73.997     361.55     580        53.79     
2698.79996 63.005     361.63     579.988    53.78     
2698.99996 82.992     362.51     533.012    53.78     
2699.19996 51         362.1      579.985    53.77     
2699.399959 52.996     362.24     520.015    53.77     
2699.599959 35.999     362.58     579.993    53.76     
2699.799959 30.999     362.2      550.007    53.74     
2699.999959 25.021     361.44     580        53.74     
2700.199959 109        361.1      579.994    53.73     
2700.399958 107.997    360.63     556.988    53.72     
2700.599958 94.996     360.42     510.014    53.72     
2700.799958 77.998     360.32     568.003    53.71     
2700.999958 69.999     359.82     579.994    53.7      
2701.199958 64.001     360.13     557.006    53.7      
2701.399957 67.009     360.66     579.986    53.7      
2701.599957 103.003    361.03     522.006    53.69     
2701.799957 115.006    362.29     545.009    53.69     
2701.999957 142.184    361.39     579.997    53.67     
2702.199957 4926.435   360.91     567.989    53.67     
2702.399956 6683.746   360.96     522.003    53.66     
2702.599956 1616.701   360.57     534.011    53.65     
2702.799956 406.931    360.04     580        53.64     
2702.999956 127.989    360.36     580        53.64     
2703.199956 85.006     360.18     580        53.63     
2703.399955 110.004    361.78     580        53.62     
2703.599955 124.995    361.74     580        53.61     
2703.799955 106.024    362.62     580        53.6      
2703.999955 200.987    363.14     580        53.59     
2704.199955 149.98     362.21     579.993    53.57     
2704.399954 68.997     363.3      550.007    53.56     
2704.599954 55.998     363.78     580        53.54     
2704.799954 48         363.72     579.988    53.53     
2704.999954 49.003     363.01     533        53.53     
2705.199954 62.003     362.78     532.994    53.52     
2705.399953 73         362.73     510.014    53.51     
2705.599953 74.009     362.39     568.003    53.49     
2705.799953 111.986    362.43     579.997    53.49     
2705.999953 53.995     361.83     566.003    53.47     
2706.199953 35         361.19     579.997    53.46     
2706.399952 35.001     361.13     568.003    53.45     
2706.599952 38.008     361.54     579.983    53.45     
2706.799952 70.005     360.92     510.017    53.45     
2706.999952 90.008     361.83     580        53.43     
2707.199952 122.994    361.27     580        53.42     
2707.399951 97.995     362.27     579.983    53.41     
2707.599951 78.996     364.06     510        53.4      
2707.799951 61.004     364.06     510.017    53.39     
2707.999951 77.003     364.47     580        53.38     
2708.199951 87.999     363.79     580        53.37     
2708.39995 82.001     364.56     580        53.37     
2708.59995 86.996     364.36     579.994    53.36     
2708.79995 69.996     364.37     557.004    53.34     
2708.99995 54.003     363.19     575.001    53.32     
2709.19995 66.006     362.53     580        53.3      
2709.399949 88.998     361.98     579.989    53.3      
2709.599949 81.003     361.47     533.99     53.28     
2709.799949 94.994     361.96     493.022    53.27     
2709.999949 68.998     361.41     579.991    53.26     
2710.199949 59.006     361.65     545.009    53.26     
2710.399948 84.002     362.16     580        53.25     
2710.599948 91.996     362.7      580        53.24     
2710.799948 75.999     363.71     579.993    53.24     
2710.999948 71.002     362.91     549.993    53.22     
2711.199948 80.002     363.63     522.014    53.21     
2711.399947 86.997     364.16     580        53.2      
2711.599947 75.997     365.48     579.993    53.17     
2711.799947 64.999     361.53     549.993    53.16     
2711.999947 59         361.88     522.014    53.14     
2712.199947 58.002     361        579.988    53.13     
2712.399946 66.997     362.74     533.004    53.12     
2712.599946 55.005     363.19     549.99     53.11     
2712.799946 76.997     364.07     510.017    53.09     
2712.999946 63.018     364.32     579.988    53.08     
2713.199946 136.684    363.85     533.012    53.07     
2713.399945 2892.577   364.82     580        53.06     
2713.599945 5213.907   365.24     580        53.04     
2713.799945 811.854    365.87     579.983    53.02     
2713.999945 224.964    364.77     510.01     53.02     
2714.199945 80.997     364.56     552.007    53.01     
2714.399944 66.998     364.24     580        53        
2714.599944 58.005     363.97     580        52.98     
2714.799944 77         363.96     579.991    52.97     
2714.999944 76.999     363.58     545.009    52.97     
2715.199944 73.003     363.11     579.983    52.96     
2715.399943 86.997     362.34     510.014    52.95     
2715.599943 74.002     363.13     568.003    52.94     
2715.799943 83.994     362.71     579.988    52.92     
2715.999943 59.998     363.81     533.012    52.92     
2716.199943 49.997     362.09     580        52.91     
