~Version
 VERS              .         2.0                           : CWLS LOG ASCII STANDARD - VERSION 2.0
 WRAP              .         NO                            : ONE LINE PER DEPTH STEP
 DLM               .         SPACE                         : DELIMITING CHARACTER(SPACE TAB OR COMMA)
~Well Information
#_______________________________________________________________________________
#
#PARAMETER_NAME    .UNIT     VALUE                         : DESCRIPTION
#_______________________________________________________________________________
STRT               .M        2666.2                        : First reference value
STOP               .M        2778.8                        : Last reference value
STEP               .M        0.2000002                     : Step increment
NULL               .         -9999                         : Missing value
COMP               .                                       : Company
WELL               .         616                           : Well name
FLD                .                                       : Field
LOC                .                                       : Location
CNTY               .                                       : County
STAT               .                                       : State
CTRY               .                                       : Country
SRVC               .                                       : Service Company
DATE               .                                       : Date
API                .                                       : API number
PROJECT_UPGRADE_TIME .         2021-03-18T21_24_50           : 
group              .         Good                          : 
~Parameter Information Block
#_______________________________________________________________________________
#
#PARAMETER_NAME    .UNIT     VALUE                         : DESCRIPTION
#_______________________________________________________________________________
SET                .         D0400_D                       : 
OTHER              .         Прибор_ АКП4_90               : 
OTHER_2            .         Номер прибора_ 56             : 
OTHER_3            .         Режим_ АКП4_90 - все каналы   : 
OTHER_4            .         Форма_ Г-1                    : 
OTHER_5            .         Тарировки_                    : 
OTHER_6            .         TM.GRD = 0.00379*TM$.UE + 7.11: 
OTHER_7            .         MN.ATM = (8e-006*TM.GRD + 0.02)*(MN$.UE + -8*TM.GRD + -1800): 
OTHER_8            .         GK.MKR/H = GK$.UE / 57.17 + 0 : 
PROJECT_UPGRADE_TIME .         2021-03-18T21_24_49           : 
TLFamily_DEPT      .         Measured Depth                : 
TLFamily_GK        .         Gamma Ray                     : 
TLFamily_GK$       .                                       : 
TLFamily_LM        .         Casing Collar locator         : 
TLFamily_METKA     .                                       : 
TLFamily_METKA_1   .                                       : 
TLFamily_MN        .                                       : 
TLFamily_MN$       .                                       : 
TLFamily_RCOR      .                                       : 
TLFamily_SPID      .         Spontaneous Potential         : 
TLFamily_TIME      .         Time                          : 
TLFamily_TM        .         Temperature                   : 
TLFamily_TM$       .         Temperature                   : 
group              .         second                        : 
~Curve Information
#_______________________________________________________________________________
#
#LOGNAME           .UNIT     LOG_ID                        : DESCRIPTION
#_______________________________________________________________________________
DEPT               .M                                      : 1 Глубина, м -    0.0 см 
GK                 .MKR/H                                  : 12 Гамма-активность, мкр./ч -   65.0 см 
GK$                .UE                                     : 9 Гамма-активность, усл.ед. -   65.0 см 
LM                 .                                       : 8 Локатор муфт,  -   30.0 см 
METKA              .                                       : 3 Метки,  -    0.0 см 
METKA_1            .                                       : 13 Маркеры - 65 см 
MN                 .ATM                                    : 11 Давление, атм. -  140.0 см 
MN$                .UE                                     : 7 Давление, усл.ед. -  140.0 см 
RCOR               .CM/KM                                  : 5 Коррекция по ролику, см/км -    0.0 см 
SPID               .M/H                                    : 2 Скорость, м/час -    0.0 см 
TIME               .S                                      : 4 Время, сек -    0.0 см 
TM                 .GRD                                    : 10 Температура, °C -  145.0 см 
TM$                .UE                                     : 6 Температура, усл.ед. -  145.0 см 
~Ascii
# ...
2733.4     5.89       386        649        0          0          264.883    15288      0          -260       2700.77    84.784     20494     
2733.6     5.54       335        718        0          0          264.917    15290      0          -300       2698.33    84.794     20497     
2733.8     5.61       307        638        0          0          264.986    15293      0          -320       2695.88    84.8       20499     
2734       5.52       334        562        0          0          265.001    15294      0          -260       2693.43    84.801     20499     
2734.2     5.14       305        572        0          0          265.033    15295      0          -280       2691       84.805     20500     
2734.4     5.2        287        623        0          0          265.067    15297      0          -275       2688.52    84.81      20501     
2734.6     5.42       291        846        0          0          265.077    15297      0          -320       2686.1     84.816     20503     
2734.8     5.53       306        848        0          0          265.087    15298      0          -320       2683.54    84.816     20503     
2735       5.58       318        601        0          0          265.08     15298      0          -275       2681.18    84.821     20504     
2735.2     5.53       324        583        0          0          265.073    15297      0          -305       2678.68    84.824     20505     
2735.4     5.56       310        632        0          0          265.087    15298      0          -280       2676.2     84.832     20507     
2735.6     5.57       320        607        0          0          265.079    15298      0          -320       2673.76    84.839     20509     
2735.8     5.23       347        692        0          0          265.065    15297      0          -280       2671.31    84.847     20511     
2736       5.04       298        703        0          0          265.085    15298      0          -300       2668.88    84.853     20513     
2736.2     5.35       251        627        0          0          265.057    15297      0          -320       2666.42    84.858     20514     
2736.4     6.07       269        615        0          0          265.074    15298      0          -290       2663.92    84.866     20516     
2736.6     6.8        329        657        0          0          265.095    15299      0          -320       2661.41    84.869     20517     
2736.8     6.96       411        620        0          0          265.133    15300      0          -260       2658.97    84.873     20518     
2737       6.8        403        699        0          0          265.167    15302      0          -320       2656.58    84.877     20519     
2737.2     6.87       373        751        0          0          265.194    15303      0          -305       2654.17    84.881     20520     
2737.4     7.06       389        730        0          0          265.228    15305      0          -260       2651.67    84.885     20521     
2737.6     7.23       397        731        0          0          265.27     15307      0          -280       2649.19    84.885     20521     
2737.8     7.39       412        835        0          0          265.291    15308      0          -320       2646.74    84.888     20522     
2738       7.58       412        800        0          0          265.352    15311      0          -260       2644.29    84.892     20523     
2738.2     7.85       426        788        0          0          265.351    15311      0          -300       2641.86    84.898     20525     
2738.4     7.9        470        898        0          0          265.361    15311      0          -260       2639.41    84.904     20526     
2738.6     7.64       465        750        0          0          265.413    15314      0          -320       2636.97    84.911     20528     
2738.8     7.44       423        838        0          0          265.438    15315      0          -300       2634.52    84.919     20530     
2739       7.48       423        842        0          0          265.46     15316      0          -260       2632.08    84.926     20532     
2739.2     7.45       440        694        0          0          265.494    15318      0          -260       2629.63    84.935     20534     
2739.4     7.21       441        850        0          0          265.507    15319      0          -320       2627.07    84.945     20537     
2739.6     6.74       441        804        0          0          265.52     15319      0          -320       2624.55    84.957     20540     
2739.8     6.25       369        776        1          0          265.533    15320      0          -320       2622.05    84.958     20540     
2740       6.25       331        763        0          0          265.533    15320      0          -260       2618.58    84.967     20543     
2740.2     6.53       360        949        0          0          265.547    15321      0          -320       2616.12    84.972     20544     
2740.4     6.58       393        758        0          0          265.553    15321      0          -320       2613.54    84.974     20544     
2740.6     6.41       375        954        0          0          265.553    15321      0          -260       2610.97    84.983     20547     
2740.8     6.77       322        2638       0          0          265.552    15321      0          -260       2608.5     84.991     20549     
2741       7.33       367        8065       0          0          265.531    15320      0          -320       2606.05    84.998     20551     
2741.2     7.54       426        748        0          0          265.531    15320      0          -320       2603.48    85.01      20554     
2741.4     7.66       423        631        0          0          265.612    15324      0          -280       2601.02    85.021     20557     
2741.6     7.82       431        717        0          0          265.647    15326      0          -260       2598.44    85.032     20560     
2741.8     7.82       451        676        0          0          265.695    15328      0          -300       2596.01    85.031     20560     
2742       7.79       448        608        0          0          265.709    15329      0          -260       2593.44    85.029     20559     
2742.2     7.83       440        640        0          0          265.715    15329      0          -320       2590.87    85.035     20561     
2742.4     8          437        709        0          0          265.722    15329      0          -260       2588.42    85.044     20563     
2742.6     8.06       459        818        0          0          265.734    15330      0          -300       2585.85    85.051     20565     
2742.8     8.09       460        1525       0          0          265.747    15331      0          -320       2583.4     85.063     20568     
2743       8.15       465        2368       0          0          265.713    15329      0          -233       2580.82    85.069     20570     
2743.2     7.97       479        836        0          0          265.734    15330      0          -320       2578.13    85.07      20570     
2743.4     7.64       463        866        0          0          265.734    15330      0          -260       2575.67    85.07      20570     
2743.6     7.5        440        944        0          0          265.719    15329      0          -260       2573.11    85.078     20572     
2743.8     7.57       425        851        0          0          265.732    15330      0          -275       2570.56    85.087     20574     
2744       7.7        427        1178       0          0          265.752    15331      0          -320       2568.07    85.104     20579     
2744.2     7.9        455        829        0          0          265.752    15331      0          -280       2565.51    85.112     20581     
2744.4     7.85       459        638        0          0          265.799    15333      0          -300       2563.06    85.116     20582     
