~Version
 VERS              .         2.0                           : CWLS LOG ASCII STANDARD - VERSION 2.0
 WRAP              .         NO                            : ONE LINE PER DEPTH STEP
 DLM               .         SPACE                         : DELIMITING CHARACTER(SPACE TAB OR COMMA)
~Well Information
#_______________________________________________________________________________
#
#PARAMETER_NAME    .UNIT     VALUE                         : DESCRIPTION
#_______________________________________________________________________________
STRT               .M        2647.6                        : First reference value
STOP               .M        2757.2                        : Last reference value
STEP               .M        0.1999997                     : Step increment
NULL               .         -9999                         : Missing value
COMP               .                                       : Company
WELL               .         616                           : Well name
FLD                .                                       : Field
LOC                .                                       : Location
CNTY               .                                       : County
STAT               .                                       : State
CTRY               .                                       : Country
SRVC               .                                       : Service Company
DATE               .                                       : Date
API                .                                       : API number
PROJECT_UPGRADE_TIME .         2021-03-18T21_24_50           : 
group              .         Good                          : 
~Parameter Information Block
#_______________________________________________________________________________
#
#PARAMETER_NAME    .UNIT     VALUE                         : DESCRIPTION
#_______________________________________________________________________________
SET                .         D7017_D                       : 
OTHER              .         Kedr.exe версия 2.1.2.32      : 
OTHER_10           .         TM.GRD = 0.00404*TM$.UE + 0.07: 
OTHER_11           .         MN.ATM = (6.33279e-006*TM.GRD + 0.02401)*(MN$.UE + 2.72*TM.GRD + -2018): 
OTHER_12           .         GK.MKR/H = GK$.UE / 43.5489 + 0: 
OTHER_13           .         RES.SM = 0.00476*CRES.UE - 1.51709: 
OTHER_14           .         PL.GSM3 = 0 + 0 * (PL.UE / 1) +  0 * (PL.UE / 1)^2: 
OTHER_15           .         Постоянная времени ГГП = 6 сек: 
OTHER_16           .         Постоянная времени ГК = 6 сек : 
OTHER_2            .         KedrData.dll версия 3.2.2.14  : 
OTHER_3            .         LasInf.dll версия 3.2.0.13    : 
OTHER_4            .         Драйвер версия 1.2.0.5        : 
OTHER_5            .         Прибор_ КСА-M1                : 
OTHER_6            .         Номер прибора_ 155+р204       : 
OTHER_7            .         Режим_ КСА-М1 + ГГП + Резистивиметр: 
OTHER_8            .         Форма_ 223\2                  : 
OTHER_9            .         Тарировки_                    : 
PROJECT_UPGRADE_TIME .         2021-03-18T21_24_50           : 
TLFamily_CRES      .                                       : 
TLFamily_DEPT      .         Measured Depth                : 
TLFamily_GK        .         Gamma Ray                     : 
TLFamily_GK$       .                                       : 
TLFamily_LM        .         Casing Collar locator         : 
TLFamily_METKA     .                                       : 
TLFamily_MN        .                                       : 
TLFamily_MN$       .                                       : 
TLFamily_PL        .                                       : 
TLFamily_PL_2      .                                       : 
TLFamily_RCOR      .                                       : 
TLFamily_RES       .         Mud Resistivity               : 
TLFamily_SPID      .         Spontaneous Potential         : 
TLFamily_STD       .                                       : 
TLFamily_TIME      .         Time                          : 
TLFamily_TM        .         Temperature                   : 
TLFamily_TM$       .         Temperature                   : 
TLFamily_VGD       .         Gas Volume                    : 
group              .         prim                          : 
~Curve Information
#_______________________________________________________________________________
#
#LOGNAME           .UNIT     LOG_ID                        : DESCRIPTION
#_______________________________________________________________________________
DEPT               .M                                      : 1 Глубина, м -    0.0 см 
CRES               .UE                                     : 9 Проводимость, усл.ед. -  222.0 см 
GK                 .MKR/H                                  : 16 Гамма-активность, мкр./ч -  106.0 см 
GK$                .UE                                     : 13 Гамма-активность, усл.ед. -  106.0 см 
LM                 .                                       : 11 Локатор муфт,  -   16.0 см 
METKA              .                                       : 3 Метки,  -    0.0 см 
MN                 .ATM                                    : 15 Давление, атм. -  160.0 см 
MN$                .UE                                     : 7 Давление, усл.ед. -  160.0 см 
PL                 .UE                                     : 10 Плотность, усл.ед. -  270.0 см 
PL_2               .GSM3                                   : 18 Плотность, г./см3 -  270.0 см 
RCOR               .CM/KM                                  : 5 Коррекция по ролику, см/км -    0.0 см 
RES                .SM                                     : 17 Проводимость,  -  222.0 см 
SPID               .M/H                                    : 2 Скорость, м/час -    0.0 см 
STD                .                                       : 12 Приток,  -  170.0 см 
TIME               .S                                      : 4 Время, сек -    0.0 см 
TM                 .GRD                                    : 14 Температура, °C -  180.0 см 
TM$                .UE                                     : 6 Температура, усл.ед. -  180.0 см 
VGD                .                                       : 8 Влагомер,  -  170.0 см 
~Ascii
# ...
2746       1480       7.79       333        222        0          253.096    12243      14         0          0          5.5261     -260       11356      7787.05    57.689     14262      6650      
2746.2     1482       7.36       359        224        0          253.126    12243      14         0          0          5.5388     -260       11394      7784.31    57.94      14324      6649      
2746.4     1485       6.95       309        382        0          253.155    12244      13         0          0          5.5531     -260       11420      7781.46    58.106     14365      6650      
2746.6     1487       7.89       299        4924       0          253.211    12245      13         0          0          5.561      -278       11445      7778.65    58.207     14390      6646      
2746.8     1460       8.84       380        707        0          253.247    12246      14         0          0          5.4343     -260       11479      7775.85    58.378     14433      6644      
2747       1487       9.18       388        282        0          253.296    12247      14         0          0          5.5627     -260       11502      7773.07    58.534     14471      6644      
2747.2     1497       9.76       431        283        0          253.352    12249      14         0          0          5.6102     -260       11525      7770.27    58.654     14501      6645      
2747.4     1469       9.26       434        246        0          253.39     12250      14         0          0          5.4741     -260       11545      7767.48    58.775     14531      6641      
2747.6     1491       8.34       373        398        0          253.429    12251      13         0          0          5.5794     -260       11558      7764.67    58.872     14555      6638      
2747.8     1501       8.11       352        322        0          253.464    12252      13         0          0          5.6262     -260       11575      7761.85    58.983     14582      6639      
2748       1481       8.01       357        419        0          253.498    12253      14         0          0          5.534      -260       11591      7759.05    59.07      14604      6637      
2748.2     1501       8.45       355        322        0          253.53     12254      14         0          0          5.6277     -260       11608      7756.23    59.138     14621      6642      
2748.4     1507       8.92       385        354        0          253.595    12256      14         0          0          5.6578     -260       11627      7753.42    59.199     14636      6640      
2748.6     1501       8.66       380        159        0          253.634    12257      14         0          0          5.628      -260       11643      7750.61    59.321     14666      6631      
2748.8     1496       8.57       368        117        0          253.685    12259      14         0          0          5.6033     -260       11660      7747.79    59.434     14694      6629      
2749       1511       8.92       371        153        0          253.708    12259      14         0          0          5.6753     -280       11668      7744.99    59.511     14713      6635      
2749.2     1512       9.26       408        87         0          253.745    12261      13         0          0          5.6799     -260       11681      7742.24    59.56      14725      6638      
2749.4     1495       9.2        396        93         0          253.785    12262      14         0          0          5.5992     -190       11703      7739.23    59.59      14733      6630      
2749.6     1511       10.51      367        120        0          253.853    12264      14         0          0          5.6753     -260       11753      7736.42    59.649     14747      6625      
2749.8     1508       12.21      504        423        1          253.996    12265      13         0          0          5.6606     -260       11862      7733.73    59.853     14798      6624      
2750       1487       11.17      523        429        0          254.094    12267      14         0          0          5.561      -260       11998      7731.12    60.693     15006      6627      
2750.2     1258       10.48      452        119        0          254.12     12268      13         0          0          4.471      -260       12042      7729.33    61.125     15113      6627      
2750.4     1170       10.65      470        20         0          254.148    12269      13         0          0          4.0521     -260       12045      7726.51    61.137     15116      6610      
2750.6     1176       10.38      459        16         0          254.186    12270      13         0          0          4.0803     -260       12051      7723.56    61.17      15124      6597      
2750.8     1157       9.97       455        17         0          254.231    12272      14         0          0          3.99       -260       12056      7720.76    61.203     15132      6599      
2751       1132       9.64       409        16         0          254.269    12274      14         0          0          3.8713     -260       12061      7717.94    61.177     15125      6592      
2751.2     1146       9.87       418        17         0          254.298    12276      14         0          0          3.9379     -260       12103      7715.27    61.098     15106      6591      
2751.4     1134       10.14      454        17         0          254.268    12278      13         0          0          3.8796     -260       12222      7712.46    60.949     15069      6604      
2751.6     1126       9.92       427        18         0          254.275    12279      14         0          0          3.8404     -280       12340      7709.64    60.411     14936      6612      
2751.8     1133       10.08      436        18         0          254.272    12279      14         0          0          3.8756     -280       12345      7706.83    60.217     14888      6616      
2752       1123       10.09      441        18         0          254.309    12281      14         0          0          3.8284     -300       12345      7704.02    60.199     14883      6615      
2752.2     1120       10.3       444        18         0          254.288    12280      14         0          0          3.8141     -277       12344      7701.21    60.169     14876      6617      
2752.4     979        10.41      449        19         0          254.333    12282      14         0          0          3.143      -260       12343      7698.4     60.137     14868      6616      
2752.6     978        10.68      466        18         0          254.329    12282      14         0          0          3.1382     -260       12340      7695.58    60.104     14860      6615      
2752.8     978        10.68      461        20         0          254.349    12283      14         0          0          3.1382     -260       12339      7692.78    60.072     14852      6613      
2753       977        10.93      464        20         0          254.345    12283      14         0          0          3.1334     -260       12338      7689.84    60.041     14844      6611      
2753.2     977        11.22      487        20         0          254.365    12284      14         0          0          3.1334     -260       12337      7687.15    60.009     14836      6611      
2753.4     977        11.11      495        20         0          254.385    12285      13         0          0          3.1334     -260       12335      7684.34    59.976     14828      6608      
2753.6     977        10.43      491        19         0          254.406    12286      14         0          0          3.1334     -260       12335      7681.49    59.948     14821      6610      
2753.8     977        10.2       439        19         0          254.426    12287      14         0          0          3.1334     -260       12332      7678.58    59.916     14813      6613      
2754       976        10.57      462        21         0          254.422    12287      14         0          0          3.1287     -260       12332      7675.78    59.884     14805      6612      
