~Version
 VERS              .         2.0                           : CWLS LOG ASCII STANDARD - VERSION 2.0
 WRAP              .         NO                            : ONE LINE PER DEPTH STEP
 DLM               .         SPACE                         : DELIMITING CHARACTER(SPACE TAB OR COMMA)
~Well Information
#_______________________________________________________________________________
#
#PARAMETER_NAME    .UNIT     VALUE                         : DESCRIPTION
#_______________________________________________________________________________
STRT               .M        21.55                         : First reference value
STOP               .M        2764.75                       : Last reference value
STEP               .M        0.2                           : Step increment
NULL               .         -9999                         : Missing value
COMP               .                                       : Company
WELL               .         616                           : Well name
FLD                .                                       : Field
LOC                .                                       : Location
CNTY               .                                       : County
STAT               .                                       : State
CTRY               .                                       : Country
SRVC               .                                       : Service Company
DATE               .                                       : Date
API                .                                       : API number
PROJECT_UPGRADE_TIME .         2021-03-18T21_24_50           : 
group              .         Good                          : 
~Parameter Information Block
#_______________________________________________________________________________
#
#PARAMETER_NAME    .UNIT     VALUE                         : DESCRIPTION
#_______________________________________________________________________________
SET                .         D7028_D_2                     : 
NPR                .         155                           : Номер прибора
OTHER              .         Kedr.exe версия 2.1.2.32      : 
OTHER_10           .         TM.GRD = 0.00404*TM$.UE + 0.07: 
OTHER_11           .         MN.ATM = (6.33279e-006*TM.GRD + 0.02401)*(MN$.UE + 2.72*TM.GRD + -2018): 
OTHER_12           .         GK.MKR/H = GK$.UE / 43.5489 + 0: 
OTHER_13           .         RES.SM = 0.00476*CRES.UE - 1.51709: 
OTHER_14           .         PL.GSM3 = 0 + 0 * (PL.UE / 1) +  0 * (PL.UE / 1)^2: 
OTHER_15           .         Постоянная времени ГГП = 6 сек: 
OTHER_16           .         Постоянная времени ГК = 6 сек : 
OTHER_2            .         KedrData.dll версия 3.2.2.14  : 
OTHER_3            .         LasInf.dll версия 3.2.0.13    : 
OTHER_4            .         Драйвер версия 1.2.0.5        : 
OTHER_5            .         Прибор_ КСА-M1                : 
OTHER_6            .         Номер прибора_ 155+р204       : 
OTHER_7            .         Режим_ КСА-М1 + ГГП + Резистивиметр: 
OTHER_8            .         Форма_ 223\2                  : 
OTHER_9            .         Тарировки_                    : 
PR                 .         КСА-Т7 М1                     : Тип прибора
PROJECT_UPGRADE_TIME .         2021-03-18T21_24_50           : 
PRTY               .         ПП-223_2                      : Номер партии
SRV                .         ЦКРС                          : Заказчик
SRVC               .         Лузин  А.Б.                   : Начальник партии
TLFamily_DEPT      .         Measured Depth                : 
TLFamily_LM        .         Casing Collar locator         : 
TLFamily_MN        .                                       : 
TLFamily_SPID      .         Spontaneous Potential         : 
TLFamily_TM        .         Temperature                   : 
group              .         second                        : 
~Curve Information
#_______________________________________________________________________________
#
#LOGNAME           .UNIT     LOG_ID                        : DESCRIPTION
#_______________________________________________________________________________
DEPT               .M                                      : Depth curve 
LM                 .е.ацп                                  : Локация муфт 
MN                 .атм                                    : Манометрия, атм 
SPID               .м/ч                                    : Скорость записи,м/час 
TM                 .град.С                                 : Термометрия,град.С 
~Ascii
# ...
1277.15    642.989    114.01     -1790.005  40.8      
1277.35    522.005    114.01     -1843.002  40.8      
1277.55    576.005    114.03     -1860      40.81     
1277.75    632.003    114.05     -1860      40.81     
1277.95    666.99     114.08     -1860      40.82     
1278.15    553        114.09     -1859.994  40.82     
1278.35    555.006    114.1      -1796.999  40.82     
1278.55    623.01     114.11     -1790.006  40.83     
1278.75    729.01     114.13     -1853.001  40.83     
1278.95    837.009    114.16     -1859.994  40.84     
1279.15    933.02     114.16     -1793.006  40.84     
1279.35    1154.965   114.18     -1860      40.84     
1279.55    765.994    114.21     -1855.994  40.84     
1279.75    698.994    114.21     -1790      40.85     
1279.95    636.001    114.23     -1790.001  40.85     
1280.15    649.003    114.24     -1797.004  40.85     
1280.35    684.998    114.26     -1838.99   40.85     
1280.55    668.009    114.29     -1730      40.86     
1280.75    764.008    114.29     -1730.002  40.87     
1280.95    857.02     114.31     -1748.004  40.87     
1281.15    1077.072   114.34     -1790      40.87     
1281.35    1882.092   114.34     -1790.006  40.88     
1281.55    2901.121   114.36     -1860      40.88     
1281.75    4247.193   114.39     -1860      40.89     
1281.95    6392.524   114.39     -1855.994  40.89     
1282.15    1108.984   114.44     -1790      40.89     
1282.35    935.996    114.45     -1790.001  40.9      
1282.55    890.98     114.44     -1797.006  40.9      
1282.75    672.996    114.47     -1860      40.9      
1282.95    624.99     114.48     -1859.999  40.9      
1283.15    514.009    114.51     -1845.995  40.91     
1283.35    608.99     114.54     -1790      40.92     
1283.55    498.008    114.56     -1790      40.92     
1283.75    588.008    114.56     -1790      40.93     
1283.95    678.007    114.58     -1790      40.93     
1284.15    752.001    114.59     -1790      40.93     
1284.35    762.996    114.61     -1790.003  40.94     
1284.55    719.016    114.61     -1819.004  40.94     
1284.75    897.014    114.63     -1860      40.95     
1284.95    1053.007   114.64     -1859.997  40.95     
1285.15    1130.023   114.68     -1821.997  40.95     
1285.35    1387.011   114.69     -1790      40.96     
1285.55    1505.939   114.71     -1790.004  40.96     
1285.75    835.011    114.73     -1830.999  40.96     
1285.95    957.963    114.73     -1815.998  40.97     
1286.15    549        114.74     -1790      40.97     
1286.35    552.003    114.78     -1790.004  40.98     
1286.55    588.017    114.81     -1839.002  40.98     
1286.75    771        114.81     -1860      40.98     
1286.95    771        114.82     -1859.995  40.98     
1287.15    767.993    114.85     -1806.998  40.99     
1287.35    693.015    114.86     -1790      40.99     
1287.55    856.014    114.87     -1790.006  41        
1287.75    1015.01    114.88     -1853.001  41        
1287.95    1131.012   114.9      -1859.994  40.99     
1288.15    1258.979   114.92     -1797.005  41        
1288.35    1029.018   114.93     -1856      41.01     
1288.55    1232.039   114.95     -1860      41.02     
1288.75    1660.014   114.96     -1859.994  41.02     
1288.95    1818.993   114.98     -1790.006  41.02     
1289.15    1737.992   115        -1860      41.03     
1289.35    1651.002   115.01     -1860      41.03     
1289.55    1669.984   115.05     -1859.994  41.04     
1289.75    1497.977   115.06     -1790      41.04     
1289.95    1242.004   115.08     -1794.006  41.04     
1290.15    1288.975   115.1      -1860      41.05     
1290.35    1009.958   115.11     -1859.999  41.06     
1290.55    541.994    115.13     -1852.995  41.06     
1290.75    479.009    115.15     -1800.005  41.06     
1290.95    573.005    115.15     -1860      41.07     
1291.15    629.991    115.16     -1859.996  41.07     
1291.35    529.006    115.18     -1820.002  41.07     
1291.55    594.022    115.2      -1847.001  41.07     
1291.75    836.016    115.21     -1860      41.08     
1291.95    1016.033   115.23     -1860      41.08     
1292.15    1384.063   115.26     -1860      41.09     
1292.35    2075.105   115.28     -1859.995  41.09     
1292.55    3231.177   115.28     -1799.999  41.09     
1292.75    5176.692   115.28     -1790      41.1      
1292.95    1787.946   115.32     -1790.006  41.11     
1293.15    1194.954   115.33     -1855.994  41.11     
1293.35    690.002    115.35     -1790      41.11     
1293.55    712.99     115.38     -1790.006  41.12     
1293.75    602.002    115.4      -1860      41.12     
1293.95    624.011    115.43     -1859.999  41.13     
1294.15    741.004    115.43     -1852.995  41.13     
1294.35    783.008    115.43     -1794.006  41.14     
1294.55    869.007    115.45     -1859.999  41.14     
1294.75    944.013    115.48     -1849.995  41.14     
1294.95    1085.03    115.48     -1798.006  41.14     
1295.15    1409.051   115.5      -1860      41.15     
1295.35    1974.076   115.53     -1860      41.15     
1295.55    2806.903   115.55     -1859.999  41.15     
1295.75    1736.986   115.55     -1846.995  41.16     
1295.95    1582.97    115.58     -1790      41.17     
1296.15    1251.969   115.6      -1790.002  41.17     
1296.35    914.996    115.58     -1807.005  41.17     
1296.55    866.996    115.63     -1859.998  41.18     
1296.75    826.983    115.63     -1838.998  41.18     
1296.95    640.002    115.65     -1813.004  41.18     
1297.15    661.012    115.66     -1859.998  41.19     
1297.35    788.016    115.68     -1833.999  41.19     
1297.55    962.998    115.71     -1819.004  41.19     
1297.75    938.008    115.73     -1860      41.2      
1297.95    1030.001   115.73     -1859.997  41.2      
1298.15    1040.999   115.74     -1829.999  41.21     
1298.35    1025.977   115.78     -1821.004  41.21     
1298.55    779.003    115.8      -1860      41.21     
1298.75    812.99     115.81     -1860      41.22     
1298.95    701        115.83     -1860      41.22     
1299.15    704.017    115.85     -1859.996  41.22     
1299.35    886.983    115.86     -1820.997  41.23     
1299.55    703.995    115.88     -1790      41.23     
1299.75    648.006    115.9      -1790      41.23     
1299.95    713.013    115.91     -1790.004  41.24     
1300.15    860.012    115.92     -1836.002  41.25     
1300.35    989        115.94     -1860      41.25     
1300.55    987.979    115.96     -1859.995  41.25     
1300.75    757.009    115.97     -1807.998  41.25     
1300.95    851.028    115.99     -1790      41.26     
1301.15    1156.987   116.01     -1790.002  41.26     
1301.35    1017.008   116.02     -1817.004  41.27     
1301.55    1099.006   116.04     -1860      41.27     
1301.75    1168.971   116.05     -1859.997  41.27     
1301.95    855.011    116.07     -1828.996  41.27     
1302.15    978.004    116.07     -1790.003  41.28     
1302.35    1025.001   116.09     -1825      41.29     
1302.55    1035.008   116.12     -1824.997  41.29     
1302.75    1117.991   116.12     -1790.004  41.29     
1302.95    1017.011   116.16     -1828.999  41.3      
1303.15    1138.036   116.18     -1818.997  41.3      
1303.35    1528.071   116.2      -1790.004  41.31     
1303.55    2305.123   116.21     -1833.002  41.31     
1303.75    3650.19    116.23     -1860      41.31     
1303.95    5724.575   116.25     -1859.996  41.32     
1304.15    1096.01    116.26     -1814.002  41.32     
1304.35    1203.989   116.27     -1835.994  41.32     
1304.55    1088.013   116.27     -1770.996  41.32     
1304.75    1228.097   116.3      -1730.004  41.33     
1304.95    2281.903   116.34     -1776.011  41.33     
1305.15    1227.964   116.36     -1894.002  41.34     
1305.35    836.991    116.37     -1919.995  41.34     
1305.55    736.985    116.39     -1868.999  41.35     
1305.75    571.012    116.4      -1860      41.35     
1305.95    706.002    116.43     -1859.995  41.35     
1306.15    733.018    116.44     -1804.004  41.35     
