~Version
 VERS              .         2.0                           : CWLS LOG ASCII STANDARD - VERSION 2.0
 WRAP              .         NO                            : ONE LINE PER DEPTH STEP
 DLM               .         SPACE                         : DELIMITING CHARACTER(SPACE TAB OR COMMA)
~Well Information
#_______________________________________________________________________________
#
#PARAMETER_NAME    .UNIT     VALUE                         : DESCRIPTION
#_______________________________________________________________________________
STRT               .M        2667.4                        : First reference value
STOP               .M        2776                          : Last reference value
STEP               .M        0.2000002                     : Step increment
NULL               .         -9999                         : Missing value
COMP               .                                       : Company
WELL               .         616                           : Well name
FLD                .                                       : Field
LOC                .                                       : Location
CNTY               .                                       : County
STAT               .                                       : State
CTRY               .                                       : Country
SRVC               .                                       : Service Company
DATE               .                                       : Date
API                .                                       : API number
PROJECT_UPGRADE_TIME .         2021-03-18T21_24_50           : 
group              .         Good                          : 
~Parameter Information Block
#_______________________________________________________________________________
#
#PARAMETER_NAME    .UNIT     VALUE                         : DESCRIPTION
#_______________________________________________________________________________
SET                .         D1800_D                       : 
OTHER              .         Программное обеспечение станции MONITOR-386EX 25/12/99 15_08_10   BGF V52 22/08/01 16_56_30   3.1_SNGF___BGF_N_092049: 
OTHER_10           .         Тарировки_                    : 
OTHER_11           .         TM.GRD = 0.00403*TM$.UE + -1.07: 
OTHER_12           .         MN.ATM = (9.34907e-006*TM.GRD + 0.02171)*(MN$.UE + -7.93*TM.GRD + -1787): 
OTHER_13           .         GK.MKR/H = LM. / 42.4676      : 
OTHER_14           .         GK.FLT = 0.1*GK.MKR/H[-1] + (1-0.1)*GK.MKR/H[0]: 
OTHER_2            .         Kedr.exe версия 3.4.2.51      : 
OTHER_3            .         KedrData.dll версия 3.4.2.24  : 
OTHER_4            .         Драйвер версия 2.1.1.3        : 
OTHER_5            .         Мнемоники версия 3.3 S        : 
OTHER_6            .         Прибор_ КСА-Т4                : 
OTHER_7            .         Номер прибора_ 03             : 
OTHER_8            .         Режим_ КСА-Т4                 : 
OTHER_9            .         Форма_ КВА.                   : 
PROJECT_UPGRADE_TIME .         2021-03-18T21_24_49           : 
TLFamily_DEPT      .         Measured Depth                : 
TLFamily_GK        .         Gamma Ray                     : 
TLFamily_GK$       .                                       : 
TLFamily_GK_2      .         Gamma Ray                     : 
TLFamily_LM        .         Casing Collar locator         : 
TLFamily_METKA     .                                       : 
TLFamily_MN        .                                       : 
TLFamily_MN$       .                                       : 
TLFamily_RCOR      .                                       : 
TLFamily_SPID      .         Spontaneous Potential         : 
TLFamily_TENS      .         Cable Tension                 : 
TLFamily_TIME      .         Time                          : 
TLFamily_TM        .         Temperature                   : 
TLFamily_TM$       .         Temperature                   : 
group              .         prim                          : 
~Curve Information
#_______________________________________________________________________________
#
#LOGNAME           .UNIT     LOG_ID                        : DESCRIPTION
#_______________________________________________________________________________
DEPT               .M                                      : 1 Глубина, м -    0.0 см 
GK                 .MKR/H                                  : 13 Гамма-активность, мкр./ч -  110.0 см 
GK$                .UE                                     : 10 Гамма-активность, усл.ед. -  110.0 см 
GK_2               .FLT                                    : 14 Гамма-активность фильтрованная, мкр./ч -  110.0 см 
LM                 .                                       : 9 Локатор муфт,  -   20.0 см 
METKA              .                                       : 3 Метки,  -    0.0 см 
MN                 .ATM                                    : 12 Давление, атм. -  160.0 см 
MN$                .UE                                     : 8 Давление, усл.ед. -  160.0 см 
RCOR               .CM/KM                                  : 5 Коррекция по ролику, см/км -    0.0 см 
SPID               .M/H                                    : 2 Скорость, м/час -    0.0 см 
TENS               .T                                      : 6 Натяжение кабеля, т -    0.0 см 
TIME               .S                                      : 4 Время, сек -    0.0 см 
TM                 .GRD                                    : 11 Температура, °C -  170.0 см 
TM$                .UE                                     : 7 Температура, усл.ед. -  170.0 см 
~Ascii
# ...
2688.2     10.03      426        10.03      82         0          246.044    13264      -660       -233       0.17       7393.59    45.741     11616     
2688.4     10.22      434        10.22      84         0          246.066    13265      -660       -231       0.17       7390.48    45.742     11616     
2688.6     10.31      438        10.3       96         0          246.067    13265      -660       -227       0.17       7387.31    45.73      11613     
2688.8     9.86       419        9.8        105        0          246.089    13266      -660       -225       0.17       7384.27    45.726     11612     
2689       10.5       446        10.51      107        0          246.133    13268      -660       -227       0.17       7381.17    45.73      11613     
2689.2     11.51      489        11.5       212        0          246.135    13268      -660       -224       0.17       7378       45.722     11611     
2689.4     11.23      477        11.21      236        0          246.158    13269      -660       -230       0.17       7374.83    45.698     11605     
2689.6     10.97      466        10.9       193        0          246.181    13270      -660       -233       0.17       7371.65    45.682     11601     
2689.8     10.46      444        10.46      106        0          246.203    13271      -660       -242       0.17       7368.48    45.682     11601     
2690       11.3       480        11.3       121        2          246.227    13272      -660       -229       0.17       7365.52    45.67      11598     
2690.2     11.42      485        11.39      155        0          246.239    13273      -653       -231       0.17       7361.22    45.65      11593     
2690.4     10.74      456        10.74      103        0          246.272    13274      -653       -239       0.17       7358.17    45.644     11592     
2690.6     10.1       429        10.1       103        0          246.272    13274      -653       -226       0.17       7354.95    45.65      11593     
2690.8     10.27      436        10.28      105        0          246.262    13273      -653       -239       0.17       7351.72    45.636     11589     
2691       10.57      449        10.59      92         0          246.318    13276      -653       -231       0.17       7348.73    45.622     11586     
2691.2     10.46      444        10.46      143        0          246.339    13277      -653       -234       0.17       7345.56    45.626     11587     
2691.4     11.07      470        11.12      98         0          246.361    13278      -653       -222       0.17       7342.39    45.636     11590     
2691.6     11.61      493        11.24      86         0          246.384    13279      -653       -227       0.17       7339.29    45.634     11589     
2691.8     9.61       408        9.6        76         0          246.398    13280      -653       -234       0.17       7336.19    45.605     11582     
2692       8.55       363        8.55       176        0          246.431    13281      -653       -228       0.17       7333.08    45.581     11576     
2692.2     8.59       365        8.65       1710       0          246.454    13282      -653       -228       0.17       7329.97    45.577     11575     
2692.4     9.54       405        9.54       270        0          246.477    13283      -653       -228       0.17       7326.73    45.569     11573     
2692.6     10.1       429        10.1       140        0          246.499    13284      -653       -239       0.17       7323.56    45.569     11573     
2692.8     10.81      459        10.82      94         0          246.51     13284      -653       -240       0.17       7320.59    45.565     11572     
2693       11.44      486        11.37      82         0          246.545    13286      -653       -235       0.17       7317.42    45.557     11570     
2693.2     10.88      462        10.67      76         0          246.561    13287      -653       -234       0.17       7314.25    45.537     11565     
2693.4     10.64      452        10.65      88         0          246.57     13287      -653       -232       0.17       7311.2     45.517     11560     
2693.6     11.14      473        11.14      88         0          246.592    13288      -653       -231       0.17       7308.09    45.501     11556     
2693.8     11.33      481        11.26      86         0          246.616    13289      -653       -229       0.17       7304.75    45.489     11553     
2694       10.57      449        10.49      93         0          246.638    13290      -653       -234       0.17       7301.77    45.476     11550     
2694.2     10.53      447        10.53      128        0          246.661    13291      -653       -235       0.17       7298.59    45.468     11548     
2694.4     10.78      458        10.78      103        0          246.673    13292      -653       -237       0.17       7295.42    45.456     11545     
2694.6     10.67      453        10.6       108        0          246.684    13292      -653       -236       0.17       7292.43    45.452     11544     
2694.8     10.26      436        10.34      82         0          246.707    13293      -653       -225       0.17       7289.27    45.452     11544     
2695       10.88      462        10.88      85         0          246.743    13295      -653       -228       0.17       7286.11    45.448     11543     
2695.2     11.02      468        11.03      105        0          246.751    13295      -653       -222       0.17       7283       45.452     11544     
2695.4     11.3       480        11.36      129        0          246.773    13296      -653       -228       0.17       7279.77    45.448     11543     
2695.6     11.84      503        11.73      81         0          246.795    13297      -653       -235       0.17       7276.65    45.448     11543     
2695.8     12.06      512        12.06      89         0          246.806    13298      -653       -231       0.17       7273.62    45.448     11543     
2696       13.12      557        13.12      76         0          246.84     13299      -653       -230       0.17       7270.45    45.444     11542     
2696.2     13.14      558        13.13      85         0          246.864    13300      -653       -235       0.17       7267.28    45.432     11539     
2696.4     12.7       539        12.63      98         0          246.866    13300      -653       -233       0.17       7264.3     45.399     11531     
2696.6     12.53      532        12.54      90         0          246.889    13301      -653       -229       0.17       7261.12    45.384     11527     
2696.8     14.22      604        14.27      81         0          246.911    13302      -653       -226       0.17       7257.9     45.376     11525     
2697       15.66      665        15.55      107        0          246.933    13303      -653       -231       0.17       7254.8     45.372     11524     
2697.2     14.11      599        13.71      118        0          246.956    13304      -653       -230       0.17       7251.69    45.372     11524     
2697.4     11.54      490        11.53      121        0          246.978    13305      -653       -233       0.17       7248.45    45.37      11523     
2697.6     8.78       373        8.77       121        0          246.978    13305      -653       -230       0.17       7245.46    45.368     11523     
2697.8     7.79       331        8.01       122        0          247.023    13307      -653       -233       0.17       7242.31    45.36      11521     
2698       8.85       376        8.85       112        0          247.001    13306      -653       -235       0.17       7239.17    45.36      11521     
2698.2     7.35       312        7.35       1088       0          247.045    13308      -653       -219       0.17       7236.08    45.36      11521     
2698.4     6.99       297        7.03       2110       0          247.067    13309      -653       -235       0.17       7232.8     45.36      11521     
