~Version
 VERS              .         2.0                           : CWLS LOG ASCII STANDARD - VERSION 2.0
 WRAP              .         NO                            : ONE LINE PER DEPTH STEP
 DLM               .         SPACE                         : DELIMITING CHARACTER(SPACE TAB OR COMMA)
~Well Information
#_______________________________________________________________________________
#
#PARAMETER_NAME    .UNIT     VALUE                         : DESCRIPTION
#_______________________________________________________________________________
STRT               .M        2657.6                        : First reference value
STOP               .M        2764.999893                   : Last reference value
STEP               .M        0.1999998                     : Step increment
NULL               .         -9999                         : Missing value
COMP               .                                       : Company
WELL               .         616                           : Well name
FLD                .                                       : Field
LOC                .                                       : Location
CNTY               .                                       : County
STAT               .                                       : State
CTRY               .                                       : Country
SRVC               .                                       : Service Company
DATE               .                                       : Date
API                .                                       : API number
PROJECT_UPGRADE_TIME .         2021-03-18T21_24_50           : 
group              .         Good                          : 
~Parameter Information Block
#_______________________________________________________________________________
#
#PARAMETER_NAME    .UNIT     VALUE                         : DESCRIPTION
#_______________________________________________________________________________
SET                .         D7024_D_2                     : 
NPR                .         155                           : Номер прибора
OTHER              .         Kedr.exe версия 2.1.2.32      : 
OTHER_10           .         TM.GRD = 0.00404*TM$.UE + 0.07: 
OTHER_11           .         MN.ATM = (6.33279e-006*TM.GRD + 0.02401)*(MN$.UE + 2.72*TM.GRD + -2018): 
OTHER_12           .         GK.MKR/H = GK$.UE / 43.5489 + 0: 
OTHER_13           .         RES.SM = 0.00476*CRES.UE - 1.51709: 
OTHER_14           .         PL.GSM3 = 0 + 0 * (PL.UE / 1) +  0 * (PL.UE / 1)^2: 
OTHER_15           .         Постоянная времени ГГП = 6 сек: 
OTHER_16           .         Постоянная времени ГК = 6 сек : 
OTHER_2            .         KedrData.dll версия 3.2.2.14  : 
OTHER_3            .         LasInf.dll версия 3.2.0.13    : 
OTHER_4            .         Драйвер версия 1.2.0.5        : 
OTHER_5            .         Прибор_ КСА-M1                : 
OTHER_6            .         Номер прибора_ 155+р204       : 
OTHER_7            .         Режим_ КСА-М1 + ГГП + Резистивиметр: 
OTHER_8            .         Форма_ 223\2                  : 
OTHER_9            .         Тарировки_                    : 
PR                 .         КСА-Т7 М1                     : Тип прибора
PROJECT_UPGRADE_TIME .         2021-03-18T21_24_50           : 
PRTY               .         ПП-223_2                      : Номер партии
SRV                .         ЦКРС                          : Заказчик
SRVC               .         Лузин  А.Б.                   : Начальник партии
TLFamily_DEPT      .         Measured Depth                : 
TLFamily_LM        .         Casing Collar locator         : 
TLFamily_MN        .                                       : 
TLFamily_SPID      .         Spontaneous Potential         : 
TLFamily_TM        .         Temperature                   : 
group              .         second                        : 
~Curve Information
#_______________________________________________________________________________
#
#LOGNAME           .UNIT     LOG_ID                        : DESCRIPTION
#_______________________________________________________________________________
DEPT               .M                                      : Depth curve 
LM                 .е.ацп                                  : Локация муфт 
MN                 .атм                                    : Манометрия, атм 
SPID               .м/ч                                    : Скорость записи,м/час 
TM                 .град.С                                 : Термометрия,град.С 
~Ascii
# ...
2743.999914 95.991     377.89     520.006    48.75     
2744.199913 77.997     378.19     533        48.79     
2744.399913 72.004     378.74     533.023    48.85     
2744.599913 81         378.36     580        48.89     
2744.799913 80.005     380.16     580        48.96     
2744.999913 89.997     378.85     579.985    49.01     
2745.199912 84.005     381.12     550.015    49.05     
2745.399912 94.997     379.99     580        49.11     
2745.599912 88.984     380.79     580        49.22     
2745.799912 56.024     379.82     580        49.32     
2745.999912 103.998    379        579.965    49.41     
2746.199911 100.016    378.55     510.035    49.47     
2746.399911 135.966    378.56     579.995    49.53     
2746.599911 6125.14    378.05     570.005    49.63     
2746.799911 2367.116   378.22     579.977    49.7      
2746.999911 580.808    377.68     533.008    49.75     
2747.19991 192.995    377.54     550.015    49.79     
2747.39991 182.967    376.9      580        49.88     
2747.59991 116.99     378.36     579.994    50        
2747.79991 96.009     378.74     568.006    50.1      
2747.99991 115.01     379.11     579.965    50.18     
2748.199909 135.045    380.08     510.035    50.27     
2748.399909 224.966    379.85     580        50.35     
2748.599909 155.962    380.45     580        50.43     
2748.799909 78.999     380.97     579.98     50.56     
2748.999909 77.004     381.23     539.955    50.69     
2749.199908 86.007     382.06     450.064    50.77     
2749.399908 99.989     381.45     579.988    50.85     
2749.599908 77.005     380.32     556.012    50.95     
2749.799908 87.007     379.92     580        51.07     
2749.999908 100.996    378.08     580        51.18     
2750.199907 93.009     378.99     579.989    51.29     
2750.399907 111.019    378.5      556.977    51.45     
2750.599907 149.979    378.79     510.029    51.59     
2750.799907 106.992    377.48     568.006    51.75     
2750.999907 90.997     378.64     579.983    51.9      
2751.199906 84.009     379.17     545.017    52        
2751.399906 101.999    380.67     580        52.15     
2751.599906 99.997     380.23     579.99     52.27     
2751.799906 94.019     380.66     560.01     52.38     
2751.999906 131.98     379.56     580        52.61     
2752.199905 92.008     378.74     580        52.76     
2752.399905 107.994    378.87     579.965    52.95     
2752.599905 94.997     379.56     510.035    53.1      
2752.799905 88.999     379.61     579.977    53.22     
2752.999905 85.997     382.23     533.023    53.43     
2753.199904 80.014     379.33     580        53.61     
2753.399904 109.003    382.92     579.977    53.7      
2753.599904 115.985    380.83     534.003    53.78     
2753.799904 84.998     382.09     540.02     53.91     
2753.999904 81         383.59     580        54.04     
2754.199903 82.001     382.65     579.99     54.18     
2754.399903 84.999     382.21     560.01     54.28     
2754.599903 82.991     381.8      580        54.4      
2754.799903 63.999     381.58     580        54.56     
2754.999903 62.003     381.79     579.971    54.65     
2755.199902 68.009     380.93     522.029    54.78     
2755.399902 87.004     380.68     579.965    54.96     
2755.599902 94.993     379.84     510.035    55.11     
2755.799902 80.006     379.61     580        55.21     
2755.999902 92         380.5      579.977    55.35     
2756.199901 91.995     380.83     533.008    55.54     
2756.399901 82.045     381.93     549.986    55.72     
2756.599901 171.968    381.94     521.029    55.86     
2756.799901 107        382.68     579.977    55.99     
2756.999901 107.994    383.21     533.023    56.21     
2757.1999  94.997     383.42     579.99     56.41     
2757.3999  89.248     383.86     559.98     56.51     
2757.5999  591.73     384.46     520.024    56.68     
2757.7999  4078.743   383.19     568.006    56.8      
2757.9999  1543.423   382.66     580        56.95     
2758.199899 379.881    380.95     579.975    57.13     
2758.399899 138.985    381.52     529.99     57.32     
2758.599899 108.997    380.73     510.006    57.5      
2758.799899 102.991    381.22     522.015    57.69     
2758.999899 84.005     380.41     552.002    57.81     
2759.199898 94.978     380.57     556.977    57.96     
2759.399898 49.997     380.69     510.01     58.11     
2759.599898 42.996     381.71     530.007    58.21     
2759.799898 34         382.24     545.017    58.27     
2759.999898 32.997     384.22     580        58.34     
2760.199897 27.001     383.86     579.977    58.46     
2760.399897 29         385.44     533.023    58.59     
2760.599897 29.999     383.33     580        58.65     
2760.799897 28         384.63     579.961    58.74     
2760.999897 28         383.66     502.039    58.88     
2761.199896 27.001     383.66     580        59        
2761.399896 29.999     382.46     580        58.98     
2761.599896 27.001     382.2      579.98     58.97     
2761.799896 29.999     384.29     539.985    58.97     
2761.999896 27         383.92     510.035    59.04     
2762.199895 27.001     385.37     580        59.05     
2762.399895 28.999     384.4      -9999      59.03     
2762.599895 -9999      383.1      -9999      59.05     
2762.799895 -9999      381.94     -9999      59.12     
2762.999895 -9999      380.82     -9999      59.17     
2763.199894 -9999      381.73     -9999      59.2      
2763.399894 -9999      380.96     -9999      59.22     
2763.599894 -9999      381.32     -9999      59.23     
2763.799894 -9999      380.3      -9999      59.24     
2763.999894 -9999      -9999      -9999      59.24     
2764.199893 -9999      -9999      -9999      -9999     
2764.399893 -9999      -9999      -9999      -9999     
2764.599893 -9999      -9999      -9999      -9999     
2764.799893 -9999      -9999      -9999      -9999     
2764.999893 -9999      -9999      -9999      -9999     
