~Version
 VERS              .         2.0                           : CWLS LOG ASCII STANDARD - VERSION 2.0
 WRAP              .         NO                            : ONE LINE PER DEPTH STEP
 DLM               .         SPACE                         : DELIMITING CHARACTER(SPACE TAB OR COMMA)
~Well Information
#_______________________________________________________________________________
#
#PARAMETER_NAME    .UNIT     VALUE                         : DESCRIPTION
#_______________________________________________________________________________
STRT               .M        2644.2                        : First reference value
STOP               .M        2752.000054                   : Last reference value
STEP               .M        0.2000001                     : Step increment
NULL               .         -9999                         : Missing value
COMP               .                                       : Company
WELL               .         616                           : Well name
FLD                .                                       : Field
LOC                .                                       : Location
CNTY               .                                       : County
STAT               .                                       : State
CTRY               .                                       : Country
SRVC               .                                       : Service Company
DATE               .                                       : Date
API                .                                       : API number
PROJECT_UPGRADE_TIME .         2021-03-18T21_24_50           : 
group              .         Good                          : 
~Parameter Information Block
#_______________________________________________________________________________
#
#PARAMETER_NAME    .UNIT     VALUE                         : DESCRIPTION
#_______________________________________________________________________________
SET                .         D4407_D_2                     : 
COMM               .                                       : 
OTHER              .         Запись производится в присутствии: 
OTHER_10           .         Максимальная температура      : 
OTHER_11           .         Тип промывочной жидкости      : 
OTHER_12           .         Сопротивление ПЖ (Ом*м) при 20°C: 
OTHER_13           .         Плотность ПЖ(г/см3)           : 
OTHER_14           .         Вязкость ПЖ(с)                : 
OTHER_15           .         Водоотдача ПЖ(см3/30мин)      : 
OTHER_16           .         Уровень ПЖ                    : 
OTHER_17           .         Нефть ПЖ (%)                  : 
OTHER_18           .         Барит ПЖ (%)                  : 
OTHER_19           .         Гематит ПЖ (%)                : 
OTHER_2            .         Заказчик ННСН  ЦДНГ-1         : 
OTHER_20           .         КМЦ ПЖ (%)                    : 
OTHER_21           .         Разгазирование ПЖ (да,нет)    : 
OTHER_22           .         Подъемник                     : 
OTHER_23           .         Лаборатория                   : 
OTHER_24           .         Тип кабеля                    : 
OTHER_25           .         Длина кабеля (м)              : 
OTHER_26           .         Цена последней метки          : 
OTHER_27           .         Цена контрольной метки        : 
OTHER_28           .         Диаметр долота (мм)           : 
OTHER_29           .         Глубина бурения (м)           : 
OTHER_3            .         Площадь                       : 
OTHER_30           .         Искусственный забой (м)       : 
OTHER_31           .         Диаметр колонны (мм)          : 
OTHER_32           .         Толщина колонны (мм)          : 
OTHER_33           .         Башмак колонны (м)            : 
OTHER_34           .         Диаметр НКТ (мм)              : 
OTHER_35           .         Толщина НКТ (мм)              : 
OTHER_36           .         Воронка НКТ (м)               : 
OTHER_37           .         Дата цементожа                : 
OTHER_38           .         Тип, количество(т) и плотность цемента: 
OTHER_39           .         Интервалы перфорации (м)      : 
OTHER_4            .         Категория                     : 
OTHER_40           .         Направление, диаметр (мм)     : 
OTHER_41           .         Направление, глубина (м)      : 
OTHER_42           .         Кондуктор, диаметр (мм)       : 
OTHER_43           .         Кондуктор, глубина (м)        : 
OTHER_44           .         Техническая колонна, диаметр (мм): 
OTHER_45           .         Техническая колонна, глубина (м): 
OTHER_46           .         Эксплуатационная колонна, диаметр (мм): 
OTHER_47           .         Эксплуатационная колонна, глубина (м): 
OTHER_48           .         Программа Кедр-02 версия 3.4  : 
OTHER_49           .         Операционная система Windows NT 5.1 build 2600 Service Pack 2: 
OTHER_5            .         Назначение исследований       : 
OTHER_50           .         Программное обеспечение станции MONITOR-386EX 25/12/99 15_08_10   BGF V54 20/09/05 15_32_17   3.3__BGF_9030071: 
OTHER_51           .         Kedr.exe версия 3.4.2.74      : 
OTHER_52           .         KedrData.dll версия 3.4.2.29  : 
OTHER_53           .         Мнемоники версия 3.18 S       : 
OTHER_54           .         Драйвер версия 2.1.1.4        : 
OTHER_55           .         LasInf.dll 4.3.0.35           : 
OTHER_56           .         Прибор_ КСА-Т4                : 
OTHER_57           .         Номер прибора_ 160            : 
OTHER_58           .         Режим_ КСА-Т4                 : 
OTHER_59           .         Форма_ С.А.Б.                 : 
OTHER_6            .         Альтитуда стола ротора        : 
OTHER_60           .         Тарировки_                    : 
OTHER_61           .         <_techsia_sc_> Дата тарировки температуры 25.05.2010: 
OTHER_62           .         Ручной ввод коэффициентов     : 
OTHER_63           .         TM.DEGC = 0.00402*RTM.E.ACP + -0.994: 
OTHER_64           .         <_techsia_sc_> Дата тарировки давления 25.05.2010: 
OTHER_65           .         Ручной ввод коэффициентов     : 
OTHER_66           .         MN.ATM = (2.27521e-006*TM.DEGC + 0.02078)*(RMN.E.ACP + 6.2*TM.DEGC + -1688): 
OTHER_67           .         <_techsia_sc_> Дата тарировки ГК 25.05.2010: 
OTHER_68           .         Ручной ввод коэффициентов     : 
OTHER_69           .         GR.UR/H = RGR.IMP/MIN / 45.5144: 
OTHER_7            .         Вид исследований 3  6         : 
OTHER_70           .         GK.FLT = 0.1*GR.UR/H[-1] + (1-0.1)*GR.UR/H[0]: 
OTHER_8            .         Начало бурения интервала каротажа: 
OTHER_9            .         Окончание бурения интервала каротажа: 
PROJECT_UPGRADE_TIME .         2021-03-18T21_24_50           : 
PRTY               .         ПП-601-1                      : N партии
SRVC               .         Барковский                    : Начальник партии
TLFamily_DEPT      .         Measured Depth                : 
TLFamily_LM        .         Casing Collar locator         : 
TLFamily_MN        .                                       : 
TLFamily_TM        .         Temperature                   : 
group              .         second                        : 
~Curve Information
#_______________________________________________________________________________
#
#LOGNAME           .UNIT     LOG_ID                        : DESCRIPTION
#_______________________________________________________________________________
DEPT               .M                                      : Depth curve 
LM                 .е.ацп                                  : Локатор муфт,е.ацп 
MN                 .атм                                    : 12 Давление, атм. -  160.0 см 
TM                 .град.C                                 : Термограмма по стволу скважины,град.C 
~Ascii
# ...
2680.000018 337.958    240.553    61.053    
2680.200018 219.029    240.581    61.005    
2680.400018 141.019    240.598    60.968    
2680.600018 142        240.598    60.91     
2680.800018 162.995    240.629    60.864    
2681.000018 153.002    240.643    60.818    
2681.200018 155.999    240.655    60.768    
2681.400019 107.012    240.677    60.705    
2681.600019 85.005     240.68     60.654    
2681.800019 166.98     240.714    60.598    
2682.000019 204.991    240.726    60.555    
2682.200019 212.998    240.737    60.487    
2682.400019 179.008    240.75     60.432    
2682.600019 263.979    240.777    60.385    
2682.800019 221.01     240.795    60.34     
2683.000019 266.989    240.792    60.286    
2683.200019 231.009    240.821    60.226    
2683.40002 212.005    240.834    60.164    
2683.60002 219.998    240.869    60.119    
2683.80002 229.998    240.884    60.072    
2684.00002 235.999    240.901    60.045    
2684.20002 145.022    240.914    60.016    
2684.40002 188.989    240.937    59.96     
2684.60002 178.003    240.94     59.911    
2684.80002 200.994    240.973    59.855    
2685.00002 365.96     240.987    59.803    
2685.20002 218.036    241.001    59.759    
2685.400021 271.987    241.036    59.717    
2685.600021 2971.349   241.038    59.67     
2685.800021 2731.058   241.058    59.6      
2686.000021 529.531    241.076    59.546    
2686.200021 176.085    241.1      59.513    
2686.400021 96.019     241.121    59.481    
2686.600021 85.003     241.116    59.425    
2686.800021 69.004     241.148    59.367    
2687.000021 78.998     241.162    59.318    
2687.200021 65.003     241.186    59.262    
2687.400022 80.996     241.205    59.192    
2687.600022 118.991    241.199    59.143    
2687.800022 120        241.224    59.065    
2688.000022 103.004    241.233    58.98     
2688.200022 105.999    241.244    58.916    
2688.400022 70.009     241.256    58.854    
2688.600022 60.002     241.284    58.792    
2688.800022 71.997     241.278    58.717    
2689.000022 143.983    241.313    58.623    
2689.200022 124.005    241.309    58.531    
2689.400023 75.012     241.32     58.448    
2689.600023 120.989    241.345    58.358    
2689.800023 171.988    241.355    58.291    
2690.000023 165.002    241.372    58.229    
2690.200023 91.018     241.404    58.185    
2690.400023 118.993    241.417    58.142    
2690.600023 129.997    241.445    58.074    
2690.800023 89.01      241.442    57.987    
2691.000023 89         241.436    57.882    
2691.200023 87         241.467    57.801    
2691.400024 1138.747   241.483    57.72     
2691.600024 1175.991   241.497    57.625    
2691.800024 345.2      241.509    57.535    
2692.000024 74.065     241.52     57.464    
2692.200024 38.009     241.527    57.388    
2692.400024 29.002     241.561    57.311    
2692.600024 35.998     241.576    57.277    
2692.800024 39.999     241.585    57.22     
2693.000024 50.997     241.612    57.138    
2693.200024 52         241.609    57.012    
2693.400025 32.005     241.624    56.847    
2693.600025 32         241.634    56.723    
2693.800025 38.998     241.652    56.682    
2694.000025 36.001     241.684    56.659    
2694.200025 49.997     241.696    56.595    
2694.400025 37.003     241.701    56.505    
2694.600025 34.001     241.705    56.39     
2694.800025 34         241.716    56.295    
2695.000025 34         241.743    56.215    
2695.200025 39.999     241.752    56.141    
2695.400026 60.995     241.768    56.08     
2695.600026 37.006     241.793    56.005    
2695.800026 35         241.794    55.915    
2696.000026 40.999     241.81     55.805    
2696.200026 69.993     241.831    55.712    
2696.400026 87.996     241.842    55.641    
2696.600026 150.985    241.853    55.574    
2696.800026 87.015     241.889    55.533    
2697.000026 129.99     241.897    55.475    
2697.200026 101.007    241.926    55.376    
2697.400027 71.007     241.934    55.302    
2697.600027 74.999     241.941    55.218    
2697.800027 89.996     241.957    55.136    
2698.000027 76.003     241.987    55.097    
2698.200027 57.005     241.994    55.029    
2698.400027 68.997     241.996    54.915    
2698.600027 109.99     242.01     54.81     
2698.800027 75.008     242.027    54.702    
2699.000027 68.002     242.058    54.615    
2699.200028 30.009     242.061    54.54     
2699.400028 29         242.054    54.378    
2699.600028 37.998     242.078    54.222    
2699.800028 77.99      242.091    54.143    
2700.000028 78         242.101    54.097    
2700.200028 61.004     242.13     54.008    
2700.400028 88.993     242.137    53.935    
2700.600028 119.993    242.16     53.816    
2700.800028 141.995    242.167    53.699    
2701.000028 107.008    242.166    53.578    
2701.200028 77.007     242.193    53.497    
2701.400029 93.996     242.212    53.41     
2701.600029 86.002     242.232    53.352    
2701.800029 91.999     242.252    53.311    
2702.000029 120.993    242.288    53.253    
2702.200029 4093.047   242.301    53.228    
2702.400029 2794.312   242.328    53.148    
2702.600029 791.48     242.335    53.052    
2702.800029 200.142    242.352    52.954    
2703.000029 142.014    242.363    52.839    
2703.200029 93.012     242.369    52.727    
2703.40003 94         242.396    52.65     
2703.60003 85.002     242.413    52.602    
2703.80003 73.003     242.424    52.535    
2704.00003 78.999     242.452    52.476    
2704.20003 108.993    242.466    52.414    
2704.40003 125.996    242.486    52.338    
2704.60003 82.011     242.483    52.247    
2704.80003 210.969    242.514    52.176    
2705.00003 126.02     242.526    52.122    
2705.20003 109.004    242.557    52.047    
2705.400031 128.995    242.564    51.967    
2705.600031 122.002    242.587    51.9      
2705.800031 73.012     242.609    51.842    
2706.000031 91.995     242.639    51.767    
2706.200031 83.002     242.664    51.708    
2706.400031 79.001     242.682    51.643    
2706.600031 83.999     242.697    51.592    
2706.800031 81.001     242.715    51.561    
2707.000031 76.001     242.745    51.514    
2707.200032 84.998     242.753    51.442    
2707.400032 68.004     242.785    51.362    
2707.600032 83.996     242.796    51.308    
2707.800032 106.994    242.831    51.25     
2708.000032 155.988    242.846    51.21     
2708.200032 105.012    242.878    51.175    
2708.400032 117.997    242.894    51.125    
2708.600032 77.01      242.905    51.065    
2708.800032 96.995     242.937    50.999    
2709.000032 117.995    242.965    50.95     
2709.200032 130.997    242.985    50.903    
2709.400033 97.008     243.014    50.856    
2709.600033 122.994    243.036    50.82     
2709.800033 90.008     243.051    50.778    
2710.000033 87.001     243.087    50.741    
2710.200033 89         243.104    50.721    
2710.400033 74.004     243.119    50.683    
2710.600033 48.006     243.157    50.648    
2710.800033 75.993     243.183    50.622    
2711.000033 114.991    243.207    50.59     
2711.200033 68.011     243.228    50.575    
2711.400034 47.005     243.261    50.545    
2711.600034 81.992     243.28     50.508    
2711.800034 89.998     243.307    50.479    
2712.000034 119.993    243.332    50.449    
2712.200034 99.005     243.359    50.424    
2712.400034 97         243.389    50.398    
2712.600034 179.98     243.429    50.381    
2712.800034 190.997    243.447    50.363    
2713.000034 62.031     243.467    50.353    
2713.200034 64.999     243.489    50.337    
2713.400035 2214.486   243.519    50.301    
2713.600035 1199.243   243.539    50.268    
2713.800035 349.203    243.575    50.25     
2714.000035 149.048    243.614    50.232    
2714.200035 81.016     243.641    50.214    
2714.400035 65.004     243.651    50.196    
2714.600035 55.002     243.69     50.183    
2714.800035 76.995     243.704    50.169    
2715.000035 70.002     243.726    50.146    
2715.200036 65.001     243.755    50.117    
2715.400036 116.988    243.782    50.099    
2715.600036 172.987    243.821    50.085    
