~Version
 VERS              .         2.0                           : CWLS LOG ASCII STANDARD - VERSION 2.0
 WRAP              .         NO                            : ONE LINE PER DEPTH STEP
 DLM               .         SPACE                         : DELIMITING CHARACTER(SPACE TAB OR COMMA)
~Well Information
#_______________________________________________________________________________
#
#PARAMETER_NAME    .UNIT     VALUE                         : DESCRIPTION
#_______________________________________________________________________________
STRT               .M        2648.2                        : First reference value
STOP               .M        2755.2                        : Last reference value
STEP               .M        0.2                           : Step increment
NULL               .         -9999                         : Missing value
COMP               .                                       : Company
WELL               .         616                           : Well name
FLD                .                                       : Field
LOC                .                                       : Location
CNTY               .                                       : County
STAT               .                                       : State
CTRY               .                                       : Country
SRVC               .                                       : Service Company
DATE               .                                       : Date
API                .                                       : API number
PROJECT_UPGRADE_TIME .         2021-03-18T21_24_50           : 
group              .         Good                          : 
~Parameter Information Block
#_______________________________________________________________________________
#
#PARAMETER_NAME    .UNIT     VALUE                         : DESCRIPTION
#_______________________________________________________________________________
SET                .         D7022_D                       : 
OTHER              .         Kedr.exe версия 2.1.2.32      : 
OTHER_10           .         TM.GRD = 0.00404*TM$.UE + 0.07: 
OTHER_11           .         MN.ATM = (6.33279e-006*TM.GRD + 0.02401)*(MN$.UE + 2.72*TM.GRD + -2018): 
OTHER_12           .         GK.MKR/H = GK$.UE / 43.5489 + 0: 
OTHER_13           .         RES.SM = 0.00476*CRES.UE - 1.51709: 
OTHER_14           .         PL.GSM3 = 0 + 0 * (PL.UE / 1) +  0 * (PL.UE / 1)^2: 
OTHER_15           .         Постоянная времени ГГП = 6 сек: 
OTHER_16           .         Постоянная времени ГК = 6 сек : 
OTHER_2            .         KedrData.dll версия 3.2.2.14  : 
OTHER_3            .         LasInf.dll версия 3.2.0.13    : 
OTHER_4            .         Драйвер версия 1.2.0.5        : 
OTHER_5            .         Прибор_ КСА-M1                : 
OTHER_6            .         Номер прибора_ 155+р204       : 
OTHER_7            .         Режим_ КСА-М1 + ГГП + Резистивиметр: 
OTHER_8            .         Форма_ 223\2                  : 
OTHER_9            .         Тарировки_                    : 
PROJECT_UPGRADE_TIME .         2021-03-18T21_24_50           : 
TLFamily_CRES      .                                       : 
TLFamily_DEPT      .         Measured Depth                : 
TLFamily_GK        .         Gamma Ray                     : 
TLFamily_GK$       .                                       : 
TLFamily_LM        .         Casing Collar locator         : 
TLFamily_METKA     .                                       : 
TLFamily_MN        .                                       : 
TLFamily_MN$       .                                       : 
TLFamily_PL        .                                       : 
TLFamily_PL_2      .                                       : 
TLFamily_RCOR      .                                       : 
TLFamily_RES       .         Mud Resistivity               : 
TLFamily_SPID      .         Spontaneous Potential         : 
TLFamily_STD       .                                       : 
TLFamily_TIME      .         Time                          : 
TLFamily_TM        .         Temperature                   : 
TLFamily_TM$       .         Temperature                   : 
TLFamily_VGD       .         Gas Volume                    : 
group              .         prim                          : 
~Curve Information
#_______________________________________________________________________________
#
#LOGNAME           .UNIT     LOG_ID                        : DESCRIPTION
#_______________________________________________________________________________
DEPT               .M                                      : 1 Глубина, м -    0.0 см 
CRES               .UE                                     : 9 Проводимость, усл.ед. -  222.0 см 
GK                 .MKR/H                                  : 16 Гамма-активность, мкр./ч -  106.0 см 
GK$                .UE                                     : 13 Гамма-активность, усл.ед. -  106.0 см 
LM                 .                                       : 11 Локатор муфт,  -   16.0 см 
METKA              .                                       : 3 Метки,  -    0.0 см 
MN                 .ATM                                    : 15 Давление, атм. -  160.0 см 
MN$                .UE                                     : 7 Давление, усл.ед. -  160.0 см 
PL                 .UE                                     : 10 Плотность, усл.ед. -  270.0 см 
PL_2               .GSM3                                   : 18 Плотность, г./см3 -  270.0 см 
RCOR               .CM/KM                                  : 5 Коррекция по ролику, см/км -    0.0 см 
RES                .SM                                     : 17 Проводимость,  -  222.0 см 
SPID               .M/H                                    : 2 Скорость, м/час -    0.0 см 
STD                .                                       : 12 Приток,  -  170.0 см 
TIME               .S                                      : 4 Время, сек -    0.0 см 
TM                 .GRD                                    : 14 Температура, °C -  180.0 см 
TM$                .UE                                     : 6 Температура, усл.ед. -  180.0 см 
VGD                .                                       : 8 Влагомер,  -  170.0 см 
~Ascii
# ...
2664.6     1203       5.96       264        88         0          325.822    15261      14         0          0          4.2108     580        10265      13951.15   52.376     12947      6652      
2664.8     1199       6.01       264        90         0          326.073    15271      14         0          0          4.1925     580        10261      13952.42   52.372     12946      6661      
2665       1202       6.24       290        115        0          326.112    15273      14         0          0          4.2044     580        10258      13953.75   52.368     12945      6667      
2665.2     1201       6.44       290        102        0          325.899    15264      14         0          0          4.2012     533        10256      13955.02   52.364     12944      6677      
2665.4     1201       6.59       294        161        0          325.601    15252      14         0          0          4.202      533        10254      13956.33   52.354     12942      6667      
2665.6     1202       6.67       294        157        0          325.087    15231      14         0          0          4.2045     580        10254      13957.67   52.348     12940      6674      
2665.8     1201       6.71       294        188        0          324.964    15226      14         0          0          4.1997     580        10256      13958.94   52.344     12939      6668      
2666       1200       6.73       294        181        0          326.529    15290      14         0          0          4.1965     580        10258      13960.21   52.339     12938      6658      
2666.2     1200       6.82       303        222        0          325.508    15248      14         0          0          4.1929     557        10260      13961.52   52.329     12935      6656      
2666.4     1199       6.89       303        207        0          327.194    15318      14         0          0          4.1886     580        10261      13962.79   52.321     12933      6662      
2666.6     1197       7.14       324        136        0          327.456    15328      14         0          0          4.1806     580        10260      13964.06   52.316     12932      6671      
2666.8     1198       7.28       321        168        0          326.85     15304      14         0          0          4.1854     566        10258      13965.34   52.308     12930      6673      
2667       1198       7.16       307        136        0          328.016    15351      14         0          0          4.1854     580        10258      13966.67   52.307     12930      6674      
2667.2     1200       7.02       288        135        0          329.046    15394      14         0          0          4.1957     580        10257      13967.99   52.3       12928      6669      
2667.4     1200       6.71       278        128        0          328.935    15389      14         0          0          4.1949     580        10252      13969.31   52.291     12926      6668      
2667.6     1202       6.55       278        101        0          328.153    15357      14         0          0          4.2028     510        10249      13970.58   52.283     12924      6667      
2667.8     1200       6.69       297        123        0          328.539    15373      14         0          0          4.1939     580        10249      13971.9    52.279     12923      6663      
2668       1202       6.76       300        86         0          327.721    15340      14         0          0          4.2044     580        10247      13973.17   52.274     12922      6663      
2668.2     1200       6.84       301        105        0          327.752    15341      14         0          0          4.1949     580        10248      13974.5    52.267     12920      6661      
2668.4     1201       6.73       272        83         0          327.573    15334      14         0          0          4.1981     510        10248      13975.81   52.263     12919      6660      
2668.6     1201       6.5        272        101        0          326.806    15302      14         0          0          4.1973     557        10247      13977.09   52.262     12919      6661      
2668.8     1201       6.38       273        84         0          326.738    15299      14         0          0          4.1997     510        10246      13978.42   52.255     12917      6662      
2669       1201       6.32       273        72         0          326.974    15309      13         0          0          4.1983     580        10243      13979.68   52.244     12914      6660      
2669.2     1199       6.43       300        116        0          328.241    15361      14         0          0          4.1901     580        10243      13980.96   52.238     12913      6659      
2669.4     1200       6.65       300        103        0          328.585    15375      14         0          0          4.1935     557        10245      13982.27   52.229     12911      6664      
2669.6     1198       6.89       318        103        0          330.419    15451      14         0          0          4.1846     520        10245      13983.67   52.22      12908      6656      
2669.8     1199       7.1        318        122        0          329.605    15417      13         0          0          4.1901     557        10244      13984.94   52.215     12907      6663      
2670       1198       7.4        343        176        0          329.696    15421      14         0          0          4.1854     580        10243      13986.24   52.201     12904      6668      
2670.2     1199       7.64       343        156        1          330.575    15457      14         0          0          4.1888     580        10244      13988.11   52.196     12903      6667      
2670.4     1195       7.56       323        3961       0          330.996    15475      14         0          0          4.1719     580        10241      13989.42   52.187     12900      6666      
2670.6     1193       7.49       323        2474       0          330.307    15446      14         0          0          4.1616     569        10237      13990.73   52.178     12898      6661      
2670.8     1193       7.27       302        386        0          330.648    15460      14         0          0          4.16       510        10235      13992      52.169     12896      6668      
2671       1196       7.1        302        184        0          329.486    15413      14         0          0          4.1743     557        10234      13993.33   52.164     12895      6665      
2671.2     1193       7.58       345        120        0          328.767    15383      14         0          0          4.1624     580        10231      13994.6    52.152     12892      6663      
2671.4     1195       8.04       393        100        0          328.685    15380      14         0          0          4.1711     570        10229      13995.93   52.145     12890      6668      
2671.6     1197       8.53       393        129        0          330.209    15443      14         0          0          4.1806     580        10227      13997.25   52.129     12886      6665      
2671.8     1197       8.6        371        143        0          332.047    15518      13         0          0          4.1806     540        10224      13998.56   52.117     12883      6666      
2672       1198       8.56       371        115        0          330.697    15463      14         0          0          4.1854     580        10225      13999.82   52.108     12881      6654      
2672.2     1199       8.38       345        155        0          330.85     15469      14         0          0          4.1883     580        10222      14001.11   52.101     12879      6674      
2672.4     1196       8.14       345        162        0          330.359    15449      14         0          0          4.1759     568        10221      14002.44   52.093     12877      6669      
2672.6     1194       8.22       367        136        0          329.679    15421      13         0          0          4.168      580        10217      14003.71   52.085     12875      6663      
