~Version
 VERS              .         2.0                           : CWLS LOG ASCII STANDARD - VERSION 2.0
 WRAP              .         NO                            : ONE LINE PER DEPTH STEP
 DLM               .         SPACE                         : DELIMITING CHARACTER(SPACE TAB OR COMMA)
~Well Information
#_______________________________________________________________________________
#
#PARAMETER_NAME    .UNIT     VALUE                         : DESCRIPTION
#_______________________________________________________________________________
STRT               .M        2662.8                        : First reference value
STOP               .M        2769.600053                   : Last reference value
STEP               .M        0.2000001                     : Step increment
NULL               .         -9999                         : Missing value
COMP               .                                       : Company
WELL               .         616                           : Well name
FLD                .                                       : Field
LOC                .                                       : Location
CNTY               .                                       : County
STAT               .                                       : State
CTRY               .                                       : Country
SRVC               .                                       : Service Company
DATE               .                                       : Date
API                .                                       : API number
PROJECT_UPGRADE_TIME .         2021-03-18T21_24_50           : 
group              .         Good                          : 
~Parameter Information Block
#_______________________________________________________________________________
#
#PARAMETER_NAME    .UNIT     VALUE                         : DESCRIPTION
#_______________________________________________________________________________
SET                .         D8107_D_2                     : 
COMM               .                                       : 
OTHER              .         Программное обеспечение станции MONITOR-386EX 25/12/99 15_08_10   BGF V52 22/08/01 16_56_30   4_SNGF_BGF_N_011645: 
OTHER_10           .         Тарировки_                    : 
OTHER_11           .         TM.GRD = 0.00412*TM$.UE + -2.13: 
OTHER_12           .         MN.ATM = (5.87652e-006*TM.GRD + 0.01993)*(MN$.UE + -2.72*TM.GRD + -1925): 
OTHER_13           .         GK.MKR/H = GK$.UE / 57.4657   : 
OTHER_2            .         Kedr.exe версия 3.4.2.51      : 
OTHER_3            .         KedrData.dll версия 3.4.2.24  : 
OTHER_4            .         Драйвер версия 2.1.0.2        : 
OTHER_5            .         Мнемоники версия 3.3 S        : 
OTHER_6            .         Прибор_ АКП4-90               : 
OTHER_7            .         Номер прибора_ 53             : 
OTHER_8            .         Режим_ АКП4_90                : 
OTHER_9            .         Форма_ ПК-53ое                : 
PROJECT_UPGRADE_TIME .         2021-03-18T21_24_50           : 
PRTY               .         ПРП-614                       : N партии
SRVC               .         Глухов М.В.                   : Начальник партии
TLFamily_DEPT      .         Measured Depth                : 
TLFamily_GK        .         Russian Gamma Ray             : 
TLFamily_LM        .         Casing Collar locator         : 
TLFamily_TM        .         Temperature                   : 
group              .         second                        : 
~Curve Information
#_______________________________________________________________________________
#
#LOGNAME           .UNIT     LOG_ID                        : DESCRIPTION
#_______________________________________________________________________________
DEPT               .M                                      : Depth curve 
GK                 .мкР/ч                                  : Естественная гамма-активность,мкР/ч 
LM                 .е.ацп                                  : Локатор муфт,е.ацп 
TM                 .град.C                                 : Термограмма по стволу скважины,град.C 
~Ascii
# ...
2698.600018 6.19       171.051    53.584    
2698.800018 6.46       379.011    53.467    
2699.000018 6.46       423.939    53.378    
2699.200018 6.51       176.072    53.268    
2699.400018 6.53       468.009    53.144    
2699.600018 6.63       502.93     53.058    
2699.800019 6.64       219.074    52.953    
2700.000019 6.59       517.949    52.868    
2700.200019 6.49       310.979    52.774    
2700.400019 6.42       225.035    52.663    
2700.600019 6.07       366.105    52.574    
2700.800019 6.02       792.507    52.443    
2701.000019 5.76       2845.835   52.324    
2701.200019 5.79       10274.43   52.234    
2701.400019 6.16       16060.2    52.138    
2701.600019 6.17       687.977    52.036    
2701.800019 6.33       593.916    51.975    
2702.00002 6.42       256.053    51.882    
2702.20002 6.31       468.995    51.714    
2702.40002 6.26       446.971    51.608    
2702.60002 6.2        331.129    51.508    
2702.80002 6.04       854.828    51.422    
2703.00002 6.03       157.071    51.331    
2703.20002 5.99       445.075    51.236    
2703.40002 6.12       746.891    51.146    
2703.60002 6.98       304.026    51.03     
2703.800021 7          411.04     50.924    
2704.000021 7.36       571.903    50.879    
2704.200021 7.33       180.041    50.808    
2704.400021 6.93       345.014    50.709    
2704.600021 6.91       400.973    50.618    
2704.800021 6.6        291.056    50.527    
2705.000021 6.36       517.959    50.447    
2705.200021 6.21       352.005    50.381    
2705.400021 5.61       372.087    50.287    
2705.600021 5.81       721.849    50.204    
2705.800022 6.41       113.017    50.102    
2706.000022 6.49       179.991    50.022    
2706.200022 7.19       144.987    49.964    
2706.400022 7.2        92.03      49.871    
2706.600022 7.43       212.981    49.789    
2706.800022 7.48       137.994    49.73     
2707.000022 7.48       115.031    49.661    
2707.200022 7.48       240.004    49.602    
2707.400022 7.46       256.962    49.538    
2707.600022 7.44       102.017    49.449    
2707.800023 7.7        170.971    49.358    
2708.000023 8.16       53.025     49.267    
2708.200023 8.13       152.007    49.201    
2708.400023 7.92       178.978    49.156    
2708.600023 7.83       89.019     49.065    
2708.800023 7.08       165.997    48.991    
2709.000023 7.02       153.087    48.946    
2709.200023 6.51       503.155    48.876    
2709.400023 6.56       1129.117   48.786    
2709.600023 7.59       1601.646   48.705    
2709.800023 7.71       171.01     48.644    
2710.000024 8.12       212.977    48.582    
2710.200024 8.15       122.072    48.52     
2710.400024 7.93       411.203    48.446    
2710.600024 7.54       1229.136   48.353    
2710.800024 7.64       1779.614   48.281    
2711.000024 8.16       222.042    48.229    
2711.200024 8.07       390.147    48.175    
2711.400024 7.62       983.265    48.115    
2711.600024 7.51       2053.595   48.052    
2711.800025 5.88       419.158    47.974    
2712.000025 5.84       1057.602   47.904    
2712.200025 5.34       3489.472   47.83     
2712.400025 5.34       13459.39   47.754    
2712.600025 5.28       6980.682   47.677    
2712.800025 5.28       5695.64    47.604    
2713.000025 6.01       211.045    47.53     
2713.200025 6.67       392.936    47.46     
2713.400025 7.201      134.038    47.409    
2713.600025 9.22       287.052    47.336    
2713.800026 9.12       495.151    47.276    
2714.000026 8.1        1104.794   47.211    
2714.200026 7.91       276.035    47.151    
2714.400026 6.11       416.93     47.083    
2714.600026 6.11       134.05     47.024    
2714.800026 6.07       335.108    46.96     
2715.000026 6.06       768.946    46.894    
2715.200026 6.17       550.069    46.82     
2715.400026 6.18       828.001    46.758    
2715.600026 6.25       832.872    46.694    
2715.800027 6.4        319.007    46.625    
2716.000027 6.43       348.033    46.559    
2716.200027 6.58       481.912    46.501    
2716.400027 6.56       125.988    46.448    
2716.600027 6.42       76.02      46.401    
2716.800027 6.46       155.125    46.345    
2717.000027 7.01       657.228    46.309    
2717.200027 7.01       1576.876   46.255    
2717.400027 6.89       1078.875   46.185    
2717.600027 6.72       576.963    46.125    
2717.800028 6.16       428.948    46.079    
2718.000028 5.68       219.103    46.039    
2718.200028 5.76       632.971    45.993    
2718.400028 6.06       516.966    45.933    
2718.600028 6.38       379.084    45.897    
2718.800028 6.77       716.885    45.869    
2719.000028 6.69       252.035    45.824    
2719.200028 6.33       393.987    45.78     
2719.400028 6.32       343.016    45.72     
2719.600028 6.09       405.983    45.663    
2719.800029 6.13       336.986    45.614    
2720.000029 6.53       279.051    45.561    
2720.200029 6.54       486.056    45.515    
2720.400029 6.88       709.869    45.472    
2720.600029 6.98       183.003    45.431    
2720.800029 7.06       194.032    45.404    
2721.000029 7.2        323.997    45.366    
2721.200029 6.73       311.037    45.324    
2721.400029 5.75       460.068    45.291    
2721.600029 5.62       733.045    45.248    
2721.80003 4.94       916.046    45.214    
2722.00003 4.94       1099.901   45.181    
2722.20003 4.89       701.004    45.139    
2722.40003 4.87       719.447    45.105    
2722.60003 4.61       2516.813   45.07     
2722.80003 4.63       1763.138   45.025    
2723.00003 5.03       2318.556   44.984    
2723.20003 5.22       8575.02    44.931    
2723.40003 5.28       12675.05   44.879    
2723.60003 5.44       800.294    44.836    
2723.800031 5.33       1983.951   44.782    
2724.000031 4.97       1786.85    44.729    
2724.200031 4.93       1181.996   44.681    
2724.400031 4.59       1163.85    44.628    
2724.600031 4.6        561.913    44.607    
2724.800031 4.63       211.051    44.573    
2725.000031 4.64       416.953    44.54     
2725.200031 4.82       229.135    44.523    
2725.400031 4.85       772.005    44.497    
2725.600031 5.44       792.973    44.464    
2725.800032 6.2        685.438    44.444    
2726.000032 6.58       2443.566   44.416    
2726.200032 7.03       698.907    44.393    
2726.400032 6.95       325.995    44.379    
2726.600032 6.7        305.936    44.346    
2726.800032 6.61       47.017     44.335    
2727.000032 5.72       116.012    44.326    
2727.200032 5.59       163.994    44.299    
2727.400032 4.4        140.079    44.298    
2727.600032 4.4        457.022    44.288    
2727.800033 4.34       545.043    44.282    
2728.000033 4.34       716.127    44.282    
2728.200033 4.4        1225.738   44.274    
2728.400033 4.51       173.002    44.269    
2728.600033 4.49       183.048    44.27     
2728.800033 4.49       375.074    44.258    
2729.000033 4.59       673.078    44.274    
2729.200033 4.84       985.345    44.299    
2729.400033 4.82       2369.562   44.342    
2729.600033 4.66       612.913    44.381    
2729.800034 4.6        261.956    44.397    
2730.000034 4.19       85.066     44.435    
2730.200034 4.21       347.983    44.516    
2730.400034 4.61       277.976    44.591    
2730.600034 4.62       183.095    44.636    
2730.800034 4.8        563.08     44.69     
2731.000034 4.97       882.853    44.698    
2731.200034 5.24       294.14     44.762    
2731.400034 5.45       855.884    44.798    
2731.600034 5.42       389.049    44.813    
2731.800035 5.36       585.012    44.865    
2732.000035 5.37       634.923    44.908    
2732.200035 5.43       327.035    44.926    
2732.400035 5.48       468.064    44.955    
2732.600035 5.85       724.956    44.951    
2732.800035 5.83       549.007    44.993    
2733.000035 5.43       576.022    45.033    
2733.200035 5.4        662.877    45.046    
2733.400035 4.89       171.056    45.103    
2733.600035 4.88       394.034    45.151    
2733.800036 4.65       532.328    45.168    
2734.000036 4.45       1848.185   45.213    
2734.200036 4.45       6601.045   45.246    
