~Version
 VERS              .         2.0                           : CWLS LOG ASCII STANDARD - VERSION 2.0
 WRAP              .         NO                            : ONE LINE PER DEPTH STEP
 DLM               .         SPACE                         : DELIMITING CHARACTER(SPACE TAB OR COMMA)
~Well Information
#_______________________________________________________________________________
#
#PARAMETER_NAME    .UNIT     VALUE                         : DESCRIPTION
#_______________________________________________________________________________
STRT               .M        21.55                         : First reference value
STOP               .M        2764.75                       : Last reference value
STEP               .M        0.2                           : Step increment
NULL               .         -9999                         : Missing value
COMP               .                                       : Company
WELL               .         616                           : Well name
FLD                .                                       : Field
LOC                .                                       : Location
CNTY               .                                       : County
STAT               .                                       : State
CTRY               .                                       : Country
SRVC               .                                       : Service Company
DATE               .                                       : Date
API                .                                       : API number
PROJECT_UPGRADE_TIME .         2021-03-18T21_24_50           : 
group              .         Good                          : 
~Parameter Information Block
#_______________________________________________________________________________
#
#PARAMETER_NAME    .UNIT     VALUE                         : DESCRIPTION
#_______________________________________________________________________________
SET                .         D7028_D_2                     : 
NPR                .         155                           : Номер прибора
OTHER              .         Kedr.exe версия 2.1.2.32      : 
OTHER_10           .         TM.GRD = 0.00404*TM$.UE + 0.07: 
OTHER_11           .         MN.ATM = (6.33279e-006*TM.GRD + 0.02401)*(MN$.UE + 2.72*TM.GRD + -2018): 
OTHER_12           .         GK.MKR/H = GK$.UE / 43.5489 + 0: 
OTHER_13           .         RES.SM = 0.00476*CRES.UE - 1.51709: 
OTHER_14           .         PL.GSM3 = 0 + 0 * (PL.UE / 1) +  0 * (PL.UE / 1)^2: 
OTHER_15           .         Постоянная времени ГГП = 6 сек: 
OTHER_16           .         Постоянная времени ГК = 6 сек : 
OTHER_2            .         KedrData.dll версия 3.2.2.14  : 
OTHER_3            .         LasInf.dll версия 3.2.0.13    : 
OTHER_4            .         Драйвер версия 1.2.0.5        : 
OTHER_5            .         Прибор_ КСА-M1                : 
OTHER_6            .         Номер прибора_ 155+р204       : 
OTHER_7            .         Режим_ КСА-М1 + ГГП + Резистивиметр: 
OTHER_8            .         Форма_ 223\2                  : 
OTHER_9            .         Тарировки_                    : 
PR                 .         КСА-Т7 М1                     : Тип прибора
PROJECT_UPGRADE_TIME .         2021-03-18T21_24_50           : 
PRTY               .         ПП-223_2                      : Номер партии
SRV                .         ЦКРС                          : Заказчик
SRVC               .         Лузин  А.Б.                   : Начальник партии
TLFamily_DEPT      .         Measured Depth                : 
TLFamily_LM        .         Casing Collar locator         : 
TLFamily_MN        .                                       : 
TLFamily_SPID      .         Spontaneous Potential         : 
TLFamily_TM        .         Temperature                   : 
group              .         second                        : 
~Curve Information
#_______________________________________________________________________________
#
#LOGNAME           .UNIT     LOG_ID                        : DESCRIPTION
#_______________________________________________________________________________
DEPT               .M                                      : Depth curve 
LM                 .е.ацп                                  : Локация муфт 
MN                 .атм                                    : Манометрия, атм 
SPID               .м/ч                                    : Скорость записи,м/час 
TM                 .град.С                                 : Термометрия,град.С 
~Ascii
# ...
1481.55    820.022    131.13     -1818.997  44.96     
1481.75    1026.976   131.15     -1790.004  44.96     
1481.95    800.995    131.17     -1830.003  44.97     
1482.15    757        131.18     -1860      44.97     
1482.35    756.008    131.2      -1860      44.98     
1482.55    836.007    131.23     -1859.995  44.98     
1482.75    907.021    131.23     -1812.998  44.99     
1482.95    1110.002   131.25     -1790      45        
1483.15    1126.005   131.28     -1790.005  45        
1483.35    1175.962   131.29     -1838.997  45        
1483.55    817        131.29     -1805.998  45.01     
1483.75    817.001    131.32     -1790      45.01     
1483.95    827.983    131.34     -1790      45.01     
1484.15    663.996    131.35     -1790      45.02     
1484.35    622.01     131.37     -1790.007  45.01     
1484.55    717.013    131.39     -1853.001  45.02     
1484.75    844.978    131.4      -1860      45.03     
1484.95    637.002    131.42     -1859.993  45.04     
1485.15    653.007    131.45     -1790.007  45.04     
1485.35    722.008    131.45     -1860      45.05     
1485.55    797.993    131.47     -1860      45.05     
1485.75    735.019    131.48     -1860      45.05     
1485.95    914.003    131.5      -1860      45.06     
1486.15    943.973    131.52     -1860      45.06     
1486.35    692.003    131.55     -1859.999  45.06     
1486.55    722.999    131.57     -1852.993  45.07     
1486.75    717.996    131.58     -1790.001  45.08     
1486.95    675.993    131.6      -1801.005  45.08     
1487.15    611.006    131.6      -1848.994  45.08     
1487.35    668.002    131.63     -1790.001  45.08     
1487.55    688.007    131.65     -1801.006  45.09     
1487.75    752.005    131.65     -1860      45.09     
1487.95    796.98     131.68     -1859.998  45.1      
1488.15    603.999    131.7      -1841.996  45.1      
1488.35    595.009    131.7      -1808.005  45.11     
1488.55    682.999    131.72     -1860      45.11     
1488.75    677        131.73     -1859.998  45.12     
1488.95    676.015    131.75     -1836.995  45.12     
1489.15    820.005    131.78     -1790      45.13     
1489.35    865.989    131.8      -1790.003  45.13     
1489.55    763.029    131.81     -1819.004  45.13     
1489.75    1041.028   131.83     -1860      45.14     
1489.95    1305.056   131.85     -1859.997  45.14     
1490.15    1833.018   131.86     -1826.999  45.15     
1490.35    2004.958   131.87     -1822.004  45.15     
1490.55    1607.956   131.88     -1860      45.15     
1490.75    1191.994   131.91     -1860      45.15     
1490.95    1135.064   131.92     -1860      45.16     
1491.15    1741.232   131.92     -1859.999  45.16     
1491.35    3937.243   131.95     -1846.994  45.17     
1491.55    6236.425   131.97     -1790.001  45.17     
1491.75    794.009    131.99     -1804.006  45.18     
1491.95    876.98     132.01     -1860      45.18     
1492.15    685.992    132.02     -1860      45.19     
1492.35    613.001    132.02     -1859.998  45.19     
1492.55    623.007    132.05     -1839.997  45.2      
1492.75    689.015    132.09     -1808.006  45.2      
1492.95    833        132.12     -1859.997  45.2      
1493.15    833.028    132.12     -1833.998  45.21     
1493.35    1095.027   132.13     -1817.005  45.22     
1493.55    1352.065   132.15     -1859.997  45.22     
1493.75    1965.902   132.17     -1831.999  45.22     
1493.95    1037.952   132.18     -1818.004  45.23     
1494.15    587.004    132.21     -1860      45.23     
1494.35    621.992    132.23     -1859.993  45.24     
1494.55    543.004    132.25     -1794.993  45.24     
1494.75    577.001    132.25     -1730.007  45.24     
1494.95    583.986    132.23     -1798.007  45.25     
1495.15    454.008    132.24     -1860      45.26     
1495.35    532.002    132.3      -1859.995  45.26     
1495.55    553.996    132.32     -1816.002  45.26     
1495.75    518.996    132.35     -1836.003  45.26     
1495.95    477.004    132.36     -1860      45.27     
1496.15    515.003    132.37     -1859.995  45.27     
1496.35    546.006    132.39     -1811.003  45.28     
1496.55    600.997    132.41     -1842.002  45.28     
1496.75    576.014    132.42     -1859.994  45.29     
1496.95    711.98     132.44     -1805.004  45.29     
1497.15    525.998    132.46     -1846.001  45.3      
1497.35    505.003    132.47     -1859.994  45.3      
1497.55    535.012    132.49     -1801.006  45.3      
1497.75    649.99     132.5      -1853.001  45.31     
1497.95    555.001    132.52     -1860      45.31     
1498.15    567.002    132.54     -1859.993  45.32     
1498.35    584.99     132.55     -1794      45.32     
1498.55    489.004    132.57     -1790.007  45.33     
1498.75    530        132.57     -1859.993  45.33     
1498.95    527        132.59     -1790      45.34     
1499.15    529.997    132.62     -1790.007  45.34     
1499.35    501.998    132.64     -1860      45.35     
1499.55    487.003    132.65     -1860      45.35     
1499.75    513.999    132.67     -1860      45.35     
1499.95    508.996    132.67     -1859.999  45.36     
1500.15    473.004    132.7      -1852.993  45.36     
1500.35    506.989    132.72     -1790.001  45.37     
1500.55    406.003    132.72     -1798.005  45.37     
1500.75    435.007    132.75     -1845.994  45.37     
1500.95    498.994    132.77     -1790      45.38     
1501.15    445.01     132.78     -1790.004  45.38     
1501.35    539.034    132.8      -1825.004  45.39     
1501.55    859        132.82     -1860      45.39     
1501.75    859.109    132.85     -1860      45.4      
1501.95    1880.109   132.85     -1860      45.4      
1502.15    2902.178   132.85     -1859.994  45.4      
1502.35    4576.278   132.88     -1804.005  45.41     
1502.55    7181.434   132.9      -1849.001  45.41     
1502.75    1869.964   132.9      -1860      45.42     
1502.95    1529.911   132.93     -1859.994  45.42     
1503.15    692.992    132.96     -1799.999  45.42     
1503.35    617.004    132.97     -1790      45.42     
1503.55    657.995    132.99     -1790      45.43     
1503.75    611.004    133.02     -1790.007  45.44     
1503.95    645.011    133.02     -1856      45.44     
1504.15    746.003    133.04     -1859.993  45.44     
1504.35    769.997    133.05     -1794.007  45.44     
1504.55    745.003    133.07     -1860      45.45     
1504.75    774.013    133.09     -1855.994  45.46     
1504.95    892.014    133.1      -1800.006  45.46     
1505.15    1023.987   133.12     -1859.999  45.46     
1505.35    904.99     133.14     -1848.994  45.47     
1505.55    814.992    133.15     -1790      45.48     
1505.75    744.004    133.19     -1790.002  45.48     
1505.95    780.005    133.2      -1808.004  45.49     
1506.15    822.98     133.2      -1841.994  45.49     
1506.35    636.993    133.22     -1790      45.49     
1506.55    568.996    133.25     -1790.003  45.5      
1506.75    532.993    133.27     -1816.002  45.5      
1506.95    467.001    133.27     -1830.996  45.5      
1507.15    479.005    133.28     -1790.004  45.51     
1507.35    526.002    133.3      -1823      45.51     
1507.55    547.996    133.33     -1822.996  45.52     
1507.75    509.002    133.35     -1790.004  45.52     
1507.95    525.01     133.37     -1829.003  45.53     
1508.15    615.001    133.38     -1860      45.53     
1508.35    623.011    133.39     -1859.995  45.53     
1508.55    726.99     133.41     -1816.002  45.53     
1508.75    632.996    133.43     -1833.003  45.54     
1508.95    598.997    133.45     -1860      45.55     
1509.15    571.002    133.46     -1859.995  45.55     
1509.35    590.998    133.48     -1810.998  45.55     
1509.55    571.005    133.49     -1790.006  45.56     
1509.75    615.047    133.51     -1841.996  45.56     
1509.95    1050       133.53     -1804.998  45.56     
1510.15    1050.043   133.54     -1790.006  45.57     
1510.35    1449.909   133.56     -1847.995  45.58     
1510.55    601.978    133.59     -1802.999  45.58     
