~Version
 VERS              .         2.0                           : CWLS LOG ASCII STANDARD - VERSION 2.0
 WRAP              .         NO                            : ONE LINE PER DEPTH STEP
 DLM               .         SPACE                         : DELIMITING CHARACTER(SPACE TAB OR COMMA)
~Well Information
#_______________________________________________________________________________
#
#PARAMETER_NAME    .UNIT     VALUE                         : DESCRIPTION
#_______________________________________________________________________________
STRT               .M        2718.8                        : First reference value
STOP               .M        2774.8                        : Last reference value
STEP               .M        0.2                           : Step increment
NULL               .         -9999                         : Missing value
COMP               .                                       : Company
WELL               .         616                           : Well name
FLD                .                                       : Field
LOC                .                                       : Location
CNTY               .                                       : County
STAT               .                                       : State
CTRY               .                                       : Country
SRVC               .                                       : Service Company
DATE               .                                       : Date
API                .                                       : API number
PROJECT_UPGRADE_TIME .         2021-03-18T21_24_50           : 
group              .         Good                          : 
~Parameter Information Block
#_______________________________________________________________________________
#
#PARAMETER_NAME    .UNIT     VALUE                         : DESCRIPTION
#_______________________________________________________________________________
SET                .         D1746_D                       : 
OTHER              .         Программное обеспечение станции MONITOR-386EX 25/12/99 15_08_10   BGF V52 22/08/01 16_56_30   3.1_SNGF___BGF_N_111239: 
OTHER_10           .         Тарировки_                    : 
OTHER_11           .         <_techsia_sc_> Постоянная времени фильтра ГК  3.0 сек, kf=0.016529: 
OTHER_12           .         <_techsia_sc_> Постоянная времени фильтра ННК  3.0 сек, kf=0.016529: 
OTHER_13           .         GK.MKR/H = GK$.IMP/476        : 
OTHER_14           .         WSAT.PERC = -12.5 + 78.0 * (NKT2$.IMP / NKT1$.IMP) * 1731/33716: 
OTHER_15           .         NKT2.PRIV = NKT2$.IMP/33716   : 
OTHER_16           .         NKT1.PRIV = NKT1$.IMP/1731    : 
OTHER_2            .         Kedr.exe версия 3.3.2.32      : 
OTHER_3            .         KedrData.dll версия 3.3.2.17  : 
OTHER_4            .         Драйвер версия 2.1.1.9        : 
OTHER_5            .         Мнемоники версия 3.2 S        : 
OTHER_6            .         Прибор_ СРК-73Ц-1N            : 
OTHER_7            .         Номер прибора_ 906            : 
OTHER_8            .         Режим_ с локатором            : 
OTHER_9            .         Форма_ 623-1                  : 
PROJECT_UPGRADE_TIME .         2021-03-18T21_24_49           : 
TLFamily_DEPT      .         Measured Depth                : 
TLFamily_GK        .         Gamma Ray                     : 
TLFamily_GK$       .                                       : 
TLFamily_LM        .         Casing Collar locator         : 
TLFamily_METKA     .                                       : 
TLFamily_NKT1      .         Neutron Far                   : 
TLFamily_NKT1$     .         Neutron Far                   : 
TLFamily_NKT2      .         Neutron Near                  : 
TLFamily_NKT2$     .         Neutron Near                  : 
TLFamily_RCOR      .                                       : 
TLFamily_SPID      .         Spontaneous Potential         : 
TLFamily_TENS      .         Cable Tension                 : 
TLFamily_TIME      .         Time                          : 
TLFamily_WSAT      .         Neutron Porosity              : 
group              .         prim                          : 
~Curve Information
#_______________________________________________________________________________
#
#LOGNAME           .UNIT     LOG_ID                        : DESCRIPTION
#_______________________________________________________________________________
DEPT               .M                                      : 1 Глубина, м -    0.0 см 
GK                 .MKR/H                                  : 11 Гамма-активность, мкр./ч -   97.0 см 
GK$                .IMP                                    : 9 Гамма-активность, имп/мин -   97.0 см 
LM                 .                                       : 10 Локатор муфт,  -   27.0 см 
METKA              .                                       : 3 Метки,  -    0.0 см 
NKT1               .PRIV                                   : 14 Большой зонд приведенный,  -  278.0 см 
NKT1$              .IMP                                    : 8 Большой зонд, имп/мин -  278.0 см 
NKT2               .PRIV                                   : 13 Малый зонд приведенный,  -  289.0 см 
NKT2$              .IMP                                    : 7 Малый зонд, имп/мин -  289.0 см 
RCOR               .CM/KM                                  : 5 Коррекция по ролику, см/км -    0.0 см 
SPID               .M/H                                    : 2 Скорость, м/час -    0.0 см 
TENS               .T                                      : 6 Натяжение кабеля, т -    0.0 см 
TIME               .S                                      : 4 Время, сек -    0.0 см 
WSAT               .PERC                                   : 12 Водонасыщенная пористость, % -  284.0 см 
~Ascii
# ...
2750       7.59       3614       26         1          1.7        2934.37    0.96       32235.35   -417       -380       0          12593.95   37.42     
2750.2     7.5        3569       70         0          1.6        2765.69    0.98       33046.32   -415       -321       0          12591.79   43.64     
2750.4     7.77       3697       68         0          1.75       3027.67    0.96       32435.83   -415       -380       0          12589.84   38.65     
2750.6     7.4        3523       20         0          1.69       2929.75    0.96       32481.43   -415       -380       0          12587.79   40.02     
2750.8     7.46       3550       45         0          1.71       2958.48    0.95       32052.62   -415       -380       0          12585.89   40.18     
2751       7.31       3479       5          0          1.69       2932.72    0.98       33148.76   -415       -380       0          12583.88   36.63     
2751.2     7.43       3535       5          0          1.97       3411.37    0.98       33003.08   -415       -366       0          12581.93   36.43     
2751.4     7.05       3354       55         0          2          3470.53    1          33698.14   -415       -321       0          12579.93   31.03     
2751.6     6.35       3022       50         0          1.91       3298.54    1          33821.78   -415       -380       0          12577.93   30.84     
2751.8     7.01       3337       24         0          1.73       3001.09    0.97       32748.15   -415       -380       0          12575.97   34.98     
2752       7          3334       32         0          1.66       2868.74    0.97       32607.76   -415       -339       0          12574.02   35.38     
2752.2     7.53       3582       33         0          1.65       2850.64    0.96       32461.55   -415       -322       0          12572.07   38.48     
2752.4     7.22       3434       22         0          1.73       2988.93    0.96       32262.69   -415       -370       0          12570.17   38.95     
2752.6     7.63       3631       30         0          1.67       2898.82    0.97       32870.27   -415       -322       0          12568.15   38.77     
2752.8     7.28       3467       6          0          1.62       2806.72    0.97       32868.95   -415       -337       0          12566.2    41.23     
2753       7.75       3689       8          0          1.66       2868.54    0.95       31924.36   -415       -376       0          12564.1    36.67     
2753.2     7.35       3496       53         0          1.66       2877.19    0.96       32342.74   -415       -321       0          12562.09   34.6      
2753.4     6.95       3310       72         0          1.63       2818.18    0.96       32325.63   -415       -373       0          12560.14   38.34     
2753.6     6.76       3218       51         0          1.67       2889.62    0.99       33220.48   -415       -379       0          12558.19   36.96     
2753.8     7.62       3627       20         0          1.77       3059.1     0.98       33161.67   -415       -374       0          12556.23   36.85     
2754       7.55       3592       5          0          1.72       2975.55    0.98       32989.18   -415       -321       0          12554.23   35.09     
2754.2     7.84       3730       16         0          1.68       2910.23    0.96       32313.3    -415       -327       0          12552.28   35.97     
2754.4     7.46       3552       25         0          1.49       2582.34    0.97       32554.43   -415       -321       0          12550.33   35.86     
2754.6     7.48       3560       52         0          1.58       2734.47    0.97       32548.71   -415       -327       0          12548.37   39.56     
2754.8     7.05       3354       38         0          1.71       2957.66    0.98       32979.37   -415       -321       0          12546.46   36.84     
2755       7.66       3646       29         0          1.68       2910.9     1.03       34572.49   -415       -330       0          12544.42   39.16     
2755.2     7.81       3718       21         0          1.64       2835.73    1          33630.59   -415       -320       0          12542.47   39.79     
2755.4     7.99       3804       16         0          1.68       2903.48    0.97       32768.76   -415       -337       0          12540.41   37.11     
2755.6     8.02       3816       38         0          1.71       2963.75    0.95       32029.64   -415       -377       0          12538.46   39.84     
2755.8     7.21       3430       39         0          1.69       2932.27    0.96       32467.11   -415       -357       0          12536.45   38.25     
2756       7.09       3374       32         0          1.77       3057.19    0.96       32340.85   -415       -323       0          12534.44   36.61     
2756.2     7.47       3556       27         0          1.74       3009.09    0.96       32414.08   -415       -374       0          12532.44   36.11     
2756.4     7.28       3467       8          0          1.75       3033.92    0.97       32561.95   -415       -323       0          12530.54   36.06     
2756.6     7.27       3460       10         0          1.72       2974.2     0.99       33509.3    -415       -380       0          12528.58   38.91     
2756.8     6.62       3152       69         0          1.71       2966.09    0.98       33128.74   -415       -380       0          12526.68   37.42     
2757       6.5        3095       44         0          1.66       2866.77    0.97       32801.29   -415       -380       0          12524.68   35.59     
2757.2     6.56       3121       25         0          1.68       2912.44    0.99       33496.04   -415       -323       0          12522.68   37.72     
2757.4     6.38       3035       7          0          1.93       3342.98    1.02       34235.7    -415       -359       0          12520.72   36.26     
2757.6     5.7        2715       27         0          2.14       3705.23    1.05       35567.79   -415       -380       0          12518.72   35.84     
2757.8     5.48       2607       45         0          2.26       3912.29    1.11       37298.5    -415       -380       0          12516.67   33.12     
2758       5.88       2798       38         0          2.49       4316.46    1.12       37608.18   -415       -331       0          12514.72   30.66     
2758.2     6.73       3206       48         0          2.3        3973.35    1.07       36092.06   -415       -380       0          12512.76   27.87     
2758.4     7.36       3503       20         0          1.94       3352.88    0.98       33147.76   -415       -329       0          12510.81   31.2      
2758.6     7.34       3493       35         0          1.69       2925       0.96       32440.83   -415       -321       0          12508.86   36.98     
2758.8     7.3        3473       41         0          1.6        2761.51    0.95       31931.85   -415       -327       0          12506.9    40.61     
2759       6.88       3276       22         0          1.59       2753.9     0.96       32288.24   -415       -379       0          12504.9    40.78     
2759.2     6.76       3217       39         0          1.49       2577.49    0.93       31419.99   -415       -380       0          12502.94   39.55     
2759.4     6.34       3017       80         0          1.54       2663.71    0.92       30931.34   -415       -380       0          12500.99   35.71     
2759.6     6.17       2938       134        0          1.58       2740.59    0.91       30849.44   -415       -380       0          12498.98   36.49     
2759.8     6.54       3112       2023       0          1.59       2760.31    0.91       30769.29   -415       -380       0          12497.08   38.46     
2760       7.08       3369       403        1          1.58       2734.2     0.95       31943.39   -415       -380       0          12495.13   42.92     
2760.2     7.63       3634       38         0          1.66       2871.67    0.97       32688.6    -413       -365       0          12492.92   44.36     
