~Version
 VERS              .         2.0                           : CWLS LOG ASCII STANDARD - VERSION 2.0
 WRAP              .         NO                            : ONE LINE PER DEPTH STEP
 DLM               .         SPACE                         : DELIMITING CHARACTER(SPACE TAB OR COMMA)
~Well Information
#_______________________________________________________________________________
#
#PARAMETER_NAME    .UNIT     VALUE                         : DESCRIPTION
#_______________________________________________________________________________
STRT               .M        209.2                         : First reference value
STOP               .M        612.6                         : Last reference value
STEP               .M        0.2                           : Step increment
NULL               .         -9999                         : Missing value
COMP               .                                       : Company
WELL               .         616                           : Well name
FLD                .                                       : Field
LOC                .                                       : Location
CNTY               .                                       : County
STAT               .                                       : State
CTRY               .                                       : Country
SRVC               .                                       : Service Company
DATE               .                                       : Date
API                .                                       : API number
PROJECT_UPGRADE_TIME .         2021-03-18T21_24_50           : 
group              .         Good                          : 
~Parameter Information Block
#_______________________________________________________________________________
#
#PARAMETER_NAME    .UNIT     VALUE                         : DESCRIPTION
#_______________________________________________________________________________
SET                .         616_3                         : 
CONF               .         00                            : 
END                .         0                             : 
ERR                .         0                             : 
GS00               .M        0610.64                       : 
GS01               .M        0206.79                       : 
MM00               .M        0060.00                       : 
NOKG               .         1                             : 
NPR                .         980119                        : 
PART               .         Палагутин                     : 
PROJECT_UPGRADE_TIME .         2021-03-18T21_24_49           : 
PRZK               .         Шакиров                       : 
TLFamily_AZIMUTH   .         True Dip Azimuth              : 
TLFamily_DEPTH     .         Measured Depth                : 
TLFamily_METKA     .                                       : 
TLFamily_ROLL      .                                       : 
TLFamily_SPEED     .         Spontaneous Potential         : 
TLFamily_ZENIT     .                                       : 
VPRG               .         310                           : 
WAY                .         UP                            : 
group              .         prim                          : 
~Curve Information
#_______________________________________________________________________________
#
#LOGNAME           .UNIT     LOG_ID                        : DESCRIPTION
#_______________________________________________________________________________
DEPTH              .M                                      :  
AZIMUTH            .DEG                                    :  
METKA              .                                       :  
ROLL               .DEG                                    :  
SPEED              .M/H                                    :  
ZENIT              .DEG                                    :  
~Ascii
# ...
233.6      255.01     0          39.29      648        24.27     
233.8      255.07     0          39.66      540        24.26     
234        252.83     0          38.7       648        24        
234.2      252.19     0          37.7       648        23.64     
234.4      253.15     0          37.69      648        23.77     
234.6      253.63     0          37.89      612        23.84     
234.8      254.84     0          38.45      576        24.04     
235        254.84     0          38.77      648        24.09     
235.2      254.36     0          38.73      648        24.05     
235.4      255.4      0          38.77      612        24.28     
235.6      254.67     0          38.18      648        23.96     
235.8      255.06     0          39.41      576        24.06     
236        253.42     0          39.76      648        24.07     
236.2      254.64     0          39.81      648        24.27     
236.4      255.61     0          40.49      648        24.52     
236.6      254.24     0          40.53      612        24.31     
236.8      253.87     0          40.23      648        24.15     
237        252.75     0          40.22      612        23.96     
237.2      254.05     0          40.61      648        24.25     
237.4      255.43     0          40.84      648        24.54     
237.6      255.29     0          40.54      648        24.63     
237.8      254.85     0          40.28      576        24.51     
238        255.34     0          40.12      648        24.57     
238.2      253.93     0          39.93      612        24.32     
238.4      253.59     0          39.59      648        24.25     
238.6      252.76     0          38.99      612        24.05     
238.8      254.36     0          38.49      648        24.45     
239        254.72     0          38.27      612        24.52     
239.2      255.53     0          38.63      612        24.73     
239.4      255.64     0          39.17      648        24.74     
239.6      254.78     0          39.54      648        24.61     
239.8      254.12     0          39.77      576        24.48     
240        254.16     0          39.76      648        24.54     
240.2      254.83     0          40.37      612        24.6      
240.4      254.93     0          40.55      612        24.73     
240.6      255.87     0          40.64      648        24.9      
240.8      255.8      0          40.75      648        24.92     
241        255.16     0          40.7       612        24.79     
241.2      255.37     0          39.89      648        24.79     
241.4      253.36     0          39.38      612        24.46     
241.6      254.93     0          39.58      612        24.63     
241.8      255.5      0          39.81      612        24.78     
242        256.62     0          40.08      648        25.02     
242.2      255.7      1          40.42      648        24.78     
242.4      254.71     0          40.56      576        24.57     
242.6      255.3      0          40.65      648        24.55     
242.8      256.45     0          40.4       612        24.68     
243        259.32     0          40.53      648        24.82     
243.2      266.71     0          40.58      648        25.03     
243.4      290.81     0          40.57      684        25.16     
243.6      318.79     0          40.54      648        25.26     
243.8      253.8      0          40.55      576        25.13     
244        175.13     0          40.66      648        25.24     
244.2      340.72     0          40.5       648        25.02     
244.4      276.1      0          40.29      648        25.21     
244.6      262.86     0          40.27      612        25.32     
244.8      259.97     0          40.21      612        25.49     
245        258.3      0          39.88      612        25.52     
245.2      257.02     0          39.27      648        25.31     
245.4      256.02     0          38.8       648        25.01     
245.6      255.89     0          38.2       612        24.96     
245.8      256.09     0          38.03      576        24.93     
246        256.38     0          37.82      684        25.12     
246.2      256.58     0          37.36      648        25.29     
246.4      257.26     0          36.97      612        25.36     
246.6      256.87     0          36.46      648        25.3      
246.8      256.24     0          36.44      612        25.13     
247        254.61     0          36.9       612        24.81     
247.2      255.19     0          37.16      612        24.97     
247.4      257.57     0          37.48      648        25.54     
247.6      261.06     0          37.74      648        26.14     
247.8      259.1      0          37.6       612        25.86     
248        257.39     0          37.87      612        25.58     
248.2      254.67     0          38.16      684        25.22     
248.4      256.47     0          38.89      648        25.43     
248.6      256.04     0          39.06      612        25.33     
248.8      256.79     0          38.33      612        25.57     
249        257.18     0          37.87      684        25.68     
249.2      258.39     0          37.68      612        25.92     
249.4      258.23     0          37.34      648        25.91     
249.6      257.73     0          37.14      612        25.82     
249.8      256.26     0          37.39      648        25.51     
250        256.02     0          37.59      648        25.47     
250.2      256.61     0          37.21      648        25.59     
250.4      257.89     0          36.53      576        25.92     
250.6      258.32     0          36.16      648        25.98     
250.8      258.8      0          36.29      612        26.05     
251        257.61     0          36.48      648        25.84     
251.2      257.35     0          36.4       648        25.81     
251.4      257.2      0          36.47      612        25.75     
251.6      257.25     0          36.72      576        25.79     
251.8      258.1      0          36.91      648        25.98     
252        259.28     0          36.97      648        26.25     
252.2      259.76     1          36.83      648        26.41     
252.4      258.53     0          36.64      576        26.11     
252.6      255.91     0          36.61      612        25.54     
252.8      256.93     0          36.81      648        25.76     
253        258.07     0          36.64      648        26.01     
253.2      260.11     0          36.01      648        26.49     
253.4      261.04     0          34.9       648        26.7      
253.6      260.49     0          33.85      612        26.56     
253.8      258.42     0          33.57      612        26.09     
254        257.71     0          34.15      648        25.96     
254.2      257.32     0          34.86      648        25.81     
254.4      258.42     0          34.86      648        26.04     
254.6      260.14     0          34.2       612        26.39     
254.8      263.05     0          33.27      612        26.94     
255        263.05     0          32.35      648        26.85     
255.2      263.84     0          32.05      612        26.73     
255.4      265.81     0          32.84      648        26.48     
255.6      275.59     0          32.97      612        26.21     
255.8      312.89     0          32.13      612        26.31     
256        265.25     0          31.51      648        26.51     
256.2      191.09     0          31.46      648        26.67     
256.4      320.12     0          32.57      612        26.97     
256.6      299.65     0          34.11      648        26.86     
256.8      270.63     0          34.96      648        26.97     
257        263.44     0          34.45      612        26.53     
257.2      261        0          33.3       648        26.44     
257.4      261.06     0          32.89      612        26.58     
257.6      263.17     0          32.26      612        27.07     
257.8      263.83     0          30.97      612        27.33     
