~Version
 VERS              .         2.0                           : CWLS LOG ASCII STANDARD - VERSION 2.0
 WRAP              .         NO                            : ONE LINE PER DEPTH STEP
 DLM               .         SPACE                         : DELIMITING CHARACTER(SPACE TAB OR COMMA)
~Well Information
#_______________________________________________________________________________
#
#PARAMETER_NAME    .UNIT     VALUE                         : DESCRIPTION
#_______________________________________________________________________________
STRT               .M        2698.8                        : First reference value
STOP               .M        2753.2                        : Last reference value
STEP               .M        0.1999996                     : Step increment
NULL               .         -9999                         : Missing value
COMP               .                                       : Company
WELL               .         616                           : Well name
FLD                .                                       : Field
LOC                .                                       : Location
CNTY               .                                       : County
STAT               .                                       : State
CTRY               .                                       : Country
SRVC               .                                       : Service Company
DATE               .                                       : Date
API                .                                       : API number
PROJECT_UPGRADE_TIME .         2021-03-18T21_24_50           : 
group              .         Good                          : 
~Parameter Information Block
#_______________________________________________________________________________
#
#PARAMETER_NAME    .UNIT     VALUE                         : DESCRIPTION
#_______________________________________________________________________________
SET                .         D1802_D                       : 
OTHER              .         Программное обеспечение станции MONITOR-386EX 25/12/99 15_08_10   BGF V52 22/08/01 16_56_30   3.1_SNGF___BGF_N_092049: 
OTHER_10           .         Тарировки_                    : 
OTHER_11           .         TM.GRD = 0.00403*TM$.UE + -1.07: 
OTHER_12           .         MN.ATM = (9.34907e-006*TM.GRD + 0.02171)*(MN$.UE + -7.93*TM.GRD + -1787): 
OTHER_13           .         GK.MKR/H = LM. / 42.4676      : 
OTHER_14           .         GK.FLT = 0.1*GK.MKR/H[-1] + (1-0.1)*GK.MKR/H[0]: 
OTHER_2            .         Kedr.exe версия 3.4.2.51      : 
OTHER_3            .         KedrData.dll версия 3.4.2.24  : 
OTHER_4            .         Драйвер версия 2.1.1.3        : 
OTHER_5            .         Мнемоники версия 3.3 S        : 
OTHER_6            .         Прибор_ КСА-Т4                : 
OTHER_7            .         Номер прибора_ 03             : 
OTHER_8            .         Режим_ КСА-Т4                 : 
OTHER_9            .         Форма_ КВА.                   : 
PROJECT_UPGRADE_TIME .         2021-03-18T21_24_49           : 
TLFamily_DEPT      .         Measured Depth                : 
TLFamily_GK        .         Gamma Ray                     : 
TLFamily_GK$       .                                       : 
TLFamily_GK_2      .         Gamma Ray                     : 
TLFamily_LM        .         Casing Collar locator         : 
TLFamily_METKA     .                                       : 
TLFamily_MN        .                                       : 
TLFamily_MN$       .                                       : 
TLFamily_RCOR      .                                       : 
TLFamily_SPID      .         Spontaneous Potential         : 
TLFamily_TENS      .         Cable Tension                 : 
TLFamily_TIME      .         Time                          : 
TLFamily_TM        .         Temperature                   : 
TLFamily_TM$       .         Temperature                   : 
group              .         prim                          : 
~Curve Information
#_______________________________________________________________________________
#
#LOGNAME           .UNIT     LOG_ID                        : DESCRIPTION
#_______________________________________________________________________________
DEPT               .M                                      : 1 Глубина, м -    0.0 см 
GK                 .MKR/H                                  : 13 Гамма-активность, мкр./ч -  110.0 см 
GK$                .UE                                     : 10 Гамма-активность, усл.ед. -  110.0 см 
GK_2               .FLT                                    : 14 Гамма-активность фильтрованная, мкр./ч -  110.0 см 
LM                 .                                       : 9 Локатор муфт,  -   20.0 см 
METKA              .                                       : 3 Метки,  -    0.0 см 
MN                 .ATM                                    : 12 Давление, атм. -  160.0 см 
MN$                .UE                                     : 8 Давление, усл.ед. -  160.0 см 
RCOR               .CM/KM                                  : 5 Коррекция по ролику, см/км -    0.0 см 
SPID               .M/H                                    : 2 Скорость, м/час -    0.0 см 
TENS               .T                                      : 6 Натяжение кабеля, т -    0.0 см 
TIME               .S                                      : 4 Время, сек -    0.0 см 
TM                 .GRD                                    : 11 Температура, °C -  170.0 см 
TM$                .UE                                     : 7 Температура, усл.ед. -  170.0 см 
~Ascii
# ...
2730       6.94       295        6.77       137        2          250.225    13451      -620       -198       0.17       8852.5     45.146     11468     
2730.2     6.05       257        6.05       154        0          250.247    13452      -620       -195       0.17       8848.96    45.15      11469     
2730.4     6.29       267        6.32       186        0          250.291    13454      -620       -200       0.17       8845.42    45.154     11470     
2730.6     6.85       291        6.85       150        0          250.313    13455      -620       -204       0.17       8841.88    45.158     11471     
2730.8     6.88       292        6.9        125        0          250.323    13456      -620       -204       0.17       8838.16    45.154     11470     
2731       7.23       307        7.23       102        0          250.356    13457      -620       -200       0.17       8834.61    45.166     11473     
2731.2     6.98       297        7.06       1083       0          250.378    13458      -620       -197       0.17       8830.88    45.166     11473     
2731.4     7.46       317        7.44       671        0          250.379    13458      -620       -204       0.17       8827.53    45.168     11474     
2731.6     6.66       283        6.56       723        0          250.423    13460      -620       -195       0.17       8823.92    45.146     11468     
2731.8     6.43       273        6.44       107        0          250.446    13461      -620       -201       0.17       8820.44    45.154     11470     
2732       7.21       306        7.29       79         0          250.49     13463      -620       -200       0.17       8816.72    45.154     11470     
2732.2     7.46       317        7.47       84         0          250.49     13463      -620       -198       0.17       8813.23    45.15      11469     
2732.4     7.84       333        7.9        81         0          250.536    13465      -620       -190       0.17       8809.64    45.14      11467     
2732.6     8.48       360        8.48       128        0          250.559    13466      -620       -208       0.17       8806.09    45.126     11463     
2732.8     8.38       356        8.36       97         0          250.561    13466      -620       -195       0.17       8802.36    45.098     11456     
2733       7.72       328        7.5        91         0          250.604    13468      -620       -199       0.17       8799.02    45.09      11454     
2733.2     7.18       305        7.19       109        0          250.625    13469      -620       -194       0.17       8795.28    45.11      11459     
2733.4     7.72       328        7.79       94         0          250.647    13470      -620       -198       0.17       8791.86    45.132     11464     
2733.6     7.42       315        7.42       94         0          250.693    13472      -620       -195       0.17       8788.2     45.102     11457     
2733.8     7.39       314        7.45       129        0          250.716    13473      -620       -197       0.17       8784.66    45.092     11454     
2734       7.49       318        7.49       76         0          250.716    13473      -620       -204       0.17       8781.12    45.086     11453     
2734.2     7.98       339        8.01       113        0          250.76     13475      -620       -202       0.17       8777.39    45.086     11453     
2734.4     8.81       374        8.82       83         0          250.782    13476      -620       -193       0.17       8773.84    45.096     11456     
2734.6     8.97       381        8.97       188        0          250.804    13477      -620       -199       0.17       8770.31    45.09      11454     
2734.8     8.76       372        8.76       62         0          250.837    13479      -620       -206       0.17       8766.77    45.102     11457     
2735       8.69       369        8.69       73         0          250.847    13479      -620       -197       0.17       8763.03    45.106     11458     
2735.2     8.57       364        8.54       85         0          250.891    13481      -620       -203       0.17       8759.69    45.11      11459     
2735.4     8.01       340        8.01       86         0          250.911    13482      -620       -197       0.17       8755.95    45.131     11464     
2735.6     8.41       357        8.42       84         0          250.933    13483      -620       -195       0.17       8752.47    45.138     11466     
2735.8     8.75       372        8.33       67         0          250.966    13485      -620       -195       0.17       8748.69    45.146     11468     
2736       6.31       268        6.31       82         0          250.976    13485      -620       -200       0.17       8745.14    45.154     11470     
2736.2     6.38       271        6.6        1630       0          251.01     13487      -620       -195       0.17       8741.59    45.162     11472     
2736.4     7.77       330        7.77       274        0          251.041    13488      -620       -207       0.17       8738.06    45.162     11472     
2736.6     6.99       297        7          77         0          251.059    13489      -620       -203       0.17       8734.52    45.215     11485     
2736.8     8.01       340        8.01       59         0          251.081    13490      -620       -200       0.17       8730.79    45.253     11494     
2737       8.27       351        8.25       70         0          251.101    13491      -620       -202       0.17       8727.25    45.271     11499     
2737.2     8.16       347        8.2        73         0          251.142    13493      -620       -194       0.17       8723.7     45.305     11507     
2737.4     8.64       367        8.63       79         0          251.162    13494      -620       -210       0.17       8719.98    45.36      11521     
2737.6     8.01       340        7.96       97         0          251.185    13495      -620       -198       0.17       8716.42    45.335     11515     
2737.8     7.77       330        7.77       105        0          251.227    13497      -620       -202       0.17       8712.86    45.356     11520     
2738       8.43       358        8.53       55         0          251.222    13497      -620       -202       0.17       8709.28    45.404     11532     
2738.2     8.24       350        8.24       62         0          251.263    13499      -620       -202       0.17       8705.72    45.489     11553     
2738.4     8.48       360        8.48       70         0          251.279    13500      -620       -206       0.17       8702.16    45.529     11563     
2738.6     7.92       336        7.92       71         0          251.296    13501      -620       -200       0.17       8698.59    45.622     11586     
2738.8     8.12       345        8.13       81         0          251.313    13502      -620       -202       0.17       8695.02    45.698     11605     
2739       8.36       355        8.47       84         0          251.35     13504      -620       -205       0.17       8691.27    45.755     11619     
2739.2     9.44       401        9.48       76         0          251.364    13505      -620       -194       0.17       8687.7     45.94      11665     
2739.4     11.21      476        11.61      69         0          251.381    13506      -620       -199       0.17       8684.14    45.992     11678     
2739.6     13.23      562        13.24      95         0          251.42     13508      -620       -202       0.17       8680.57    46.069     11697     
2739.8     13.63      579        13.6       72         0          251.437    13509      -620       -197       0.17       8676.81    46.166     11721     
2740       13.21      561        13.21      102        2          251.456    13510      -613       -210       0.17       8672.13    46.19      11727     
2740.2     13.85      588        13.84      59         0          251.469    13511      -613       -190       0.17       8668.56    46.303     11755     
