~Version
 VERS              .         2.0                           : CWLS LOG ASCII STANDARD - VERSION 2.0
 WRAP              .         NO                            : ONE LINE PER DEPTH STEP
 DLM               .         SPACE                         : DELIMITING CHARACTER(SPACE TAB OR COMMA)
~Well Information
#_______________________________________________________________________________
#
#PARAMETER_NAME    .UNIT     VALUE                         : DESCRIPTION
#_______________________________________________________________________________
STRT               .M        11                            : First reference value
STOP               .M        2775.8                        : Last reference value
STEP               .M        0.2                           : Step increment
NULL               .         -9999                         : Missing value
COMP               .                                       : Company
WELL               .         616                           : Well name
FLD                .                                       : Field
LOC                .                                       : Location
CNTY               .                                       : County
STAT               .                                       : State
CTRY               .                                       : Country
SRVC               .                                       : Service Company
DATE               .                                       : Date
API                .                                       : API number
PROJECT_UPGRADE_TIME .         2021-03-18T21_24_50           : 
group              .         Good                          : 
~Parameter Information Block
#_______________________________________________________________________________
#
#PARAMETER_NAME    .UNIT     VALUE                         : DESCRIPTION
#_______________________________________________________________________________
SET                .         D1813_D                       : 
OTHER              .         Программное обеспечение станции MONITOR-386EX 25/12/99 15_08_10   BGF V52 22/08/01 16_56_30   3.1_SNGF___BGF_N_092049: 
OTHER_10           .         Тарировки_                    : 
OTHER_11           .         TM.GRD = 0.00403*TM$.UE + -1.07: 
OTHER_12           .         MN.ATM = (9.34907e-006*TM.GRD + 0.02171)*(MN$.UE + -7.93*TM.GRD + -1787): 
OTHER_13           .         GK.MKR/H = LM. / 42.4676      : 
OTHER_14           .         GK.FLT = 0.1*GK.MKR/H[-1] + (1-0.1)*GK.MKR/H[0]: 
OTHER_2            .         Kedr.exe версия 3.4.2.51      : 
OTHER_3            .         KedrData.dll версия 3.4.2.24  : 
OTHER_4            .         Драйвер версия 2.1.1.3        : 
OTHER_5            .         Мнемоники версия 3.3 S        : 
OTHER_6            .         Прибор_ КСА-Т4                : 
OTHER_7            .         Номер прибора_ 03             : 
OTHER_8            .         Режим_ КСА-Т4                 : 
OTHER_9            .         Форма_ КВА.                   : 
PROJECT_UPGRADE_TIME .         2021-03-18T21_24_49           : 
TLFamily_DEPT      .         Measured Depth                : 
TLFamily_GK        .         Gamma Ray                     : 
TLFamily_GK$       .                                       : 
TLFamily_GK_2      .         Gamma Ray                     : 
TLFamily_LM        .         Casing Collar locator         : 
TLFamily_METKA     .                                       : 
TLFamily_MN        .                                       : 
TLFamily_MN$       .                                       : 
TLFamily_RCOR      .                                       : 
TLFamily_SPID      .         Spontaneous Potential         : 
TLFamily_TENS      .         Cable Tension                 : 
TLFamily_TIME      .         Time                          : 
TLFamily_TM        .         Temperature                   : 
TLFamily_TM$       .         Temperature                   : 
group              .         prim                          : 
~Curve Information
#_______________________________________________________________________________
#
#LOGNAME           .UNIT     LOG_ID                        : DESCRIPTION
#_______________________________________________________________________________
DEPT               .M                                      : 1 Глубина, м -    0.0 см 
GK                 .MKR/H                                  : 13 Гамма-активность, мкр./ч -  110.0 см 
GK$                .UE                                     : 10 Гамма-активность, усл.ед. -  110.0 см 
GK_2               .FLT                                    : 14 Гамма-активность фильтрованная, мкр./ч -  110.0 см 
LM                 .                                       : 9 Локатор муфт,  -   20.0 см 
METKA              .                                       : 3 Метки,  -    0.0 см 
MN                 .ATM                                    : 12 Давление, атм. -  160.0 см 
MN$                .UE                                     : 8 Давление, усл.ед. -  160.0 см 
RCOR               .CM/KM                                  : 5 Коррекция по ролику, см/км -    0.0 см 
SPID               .M/H                                    : 2 Скорость, м/час -    0.0 см 
TENS               .T                                      : 6 Натяжение кабеля, т -    0.0 см 
TIME               .S                                      : 4 Время, сек -    0.0 см 
TM                 .GRD                                    : 11 Температура, °C -  170.0 см 
TM$                .UE                                     : 7 Температура, усл.ед. -  170.0 см 
~Ascii
# ...
2403       8.81       374        8.78       1929       0          218.34     12057      -868       -2236      0.13       8402.86    57.442     14519     
2403.2     8.81       374        8.73       1929       0          218.37     12058      -868       -2239      0.13       8402.54    57.442     14519     
2403.4     8.81       374        8.64       3025       0          218.398    12059      -868       -2238      0.13       8402.2     57.442     14519     
2403.6     8.55       363        8.41       4341       0          218.417    12060      -868       -2232      0.13       8401.89    57.442     14519     
2403.8     8.17       347        8.17       259        0          218.436    12061      -868       -2226      0.13       8401.56    57.442     14519     
2404       8.17       347        8.17       211        0          218.454    12062      -868       -2229      0.13       8401.25    57.442     14519     
2404.2     8.17       347        8.18       221        0          218.474    12063      -868       -2229      0.13       8400.93    57.442     14519     
2404.4     8.17       347        8.18       221        0          218.492    12064      -868       -2228      0.13       8400.6     57.442     14519     
2404.6     8.17       347        8.2        217        0          218.51     12065      -868       -2225      0.13       8400.28    57.442     14519     
2404.8     8.17       347        8.23       222        0          218.529    12065      -868       -2221      0.13       8399.97    57.445     14520     
2405       8.17       347        8.31       210        0          218.549    12066      -868       -2231      0.13       8399.66    57.442     14519     
2405.2     8.28       352        8.48       225        0          218.567    12067      -868       -2243      0.13       8399.33    57.442     14519     
2405.4     8.83       375        8.83       240        0          218.586    12068      -868       -2241      0.13       8399       57.444     14519     
2405.6     8.83       375        8.83       251        0          218.605    12069      -868       -2239      0.13       8398.7     57.44      14519     
2405.8     8.83       375        8.83       251        0          218.623    12070      -868       -2239      0.13       8398.37    57.432     14517     
2406       8.83       375        8.82       239        0          218.642    12070      -868       -2241      0.13       8398.04    57.446     14520     
2406.2     8.83       375        8.81       223        0          218.661    12071      -868       -2245      0.13       8397.73    57.446     14520     
2406.4     8.83       375        8.77       229        0          218.679    12072      -868       -2240      0.13       8397.39    57.446     14520     
2406.6     8.8        374        8.7        229        0          218.698    12073      -868       -2234      0.13       8397.08    57.446     14520     
2406.8     8.57       364        8.56       235        0          218.717    12074      -868       -2232      0.13       8396.77    57.447     14520     
2407       8.55       363        8.55       235        0          218.721    12074      -868       -2232      0.13       8396.46    57.45      14521     
2407.2     8.55       363        8.55       215        0          218.744    12075      -868       -2233      0.13       8396.13    57.45      14521     
2407.4     8.55       363        8.54       208        0          218.773    12076      -868       -2238      0.13       8395.81    57.45      14521     
2407.6     8.55       363        8.54       205        0          218.787    12077      -868       -2243      0.13       8395.47    57.45      14521     
2407.8     8.55       363        8.53       234        0          218.789    12077      -868       -2238      0.13       8395.17    57.45      14521     
2408       8.55       363        8.51       225        0          218.83     12079      -868       -2236      0.13       8394.84    57.45      14521     
2408.2     8.55       363        8.45       241        0          218.85     12080      -868       -2236      0.13       8394.52    57.45      14521     
2408.4     8.35       354        8.32       241        0          218.867    12081      -868       -2238      0.13       8394.21    57.45      14521     
2408.6     8.27       351        8.27       233        1          218.886    12081      -868       -2242      0.13       8393.88    57.45      14521     
2408.8     8.27       351        8.27       202        0          218.905    12082      -868       -2242      0.13       8393.56    57.45      14521     
2409       8.27       351        8.27       198        0          218.927    12083      -868       -2243      0.13       8393.24    57.45      14521     
2409.2     8.27       351        8.27       222        0          218.966    12085      -868       -2238      0.13       8392.91    57.45      14521     
2409.4     8.27       351        8.28       237        0          218.984    12086      -868       -2240      0.13       8392.6     57.45      14521     
2409.6     8.27       351        8.3        237        0          219.003    12087      -868       -2245      0.13       8392.29    57.45      14521     
2409.8     8.27       351        8.34       246        0          219.021    12088      -868       -2248      0.13       8391.96    57.45      14521     
2410       8.4        357        8.45       228        2          219.04     12088      -866       -2242      0.13       8391.6     57.45      14521     
2410.2     8.52       362        8.52       212        0          219.06     12089      -860       -2235      0.13       8391.19    57.45      14521     
2410.4     8.52       362        8.52       212        0          219.079    12090      -860       -2232      0.13       8390.87    57.45      14521     
2410.6     8.52       362        8.53       218        0          219.098    12091      -860       -2236      0.13       8390.53    57.45      14521     
2410.8     8.52       362        8.53       235        0          219.134    12093      -860       -2236      0.13       8390.25    57.45      14521     
2411       8.52       362        8.53       244        0          219.143    12093      -860       -2235      0.13       8389.9     57.45      14521     
2411.2     8.52       362        8.56       228        0          219.153    12093      -860       -2231      0.13       8389.59    57.45      14521     
2411.4     8.6        365        8.6        228        0          219.179    12095      -860       -2230      0.13       8389.27    57.45      14521     
2411.6     8.62       366        8.62       207        0          219.216    12096      -860       -2235      0.13       8388.94    57.45      14521     
2411.8     8.62       366        8.62       214        0          219.232    12097      -860       -2239      0.13       8388.63    57.45      14521     
2412       8.62       366        8.62       246        0          219.24     12097      -860       -2239      0.13       8388.31    57.45      14521     
2412.2     8.62       366        8.61       277        0          219.277    12099      -860       -2239      0.13       8387.99    57.452     14522     
2412.4     8.62       366        8.6        278        0          219.277    12099      -860       -2239      0.13       8387.67    57.454     14522     
2412.6     8.62       366        8.58       299        0          219.311    12101      -860       -2239      0.13       8387.35    57.453     14522     
2412.8     8.62       366        8.53       299        0          219.335    12102      -860       -2239      0.13       8387.03    57.45      14521     
2413       8.45       359        8.4        264        0          219.353    12102      -860       -2239      0.13       8386.71    57.454     14522     
2413.2     8.31       353        8.31       334        0          219.372    12103      -860       -2239      0.13       8386.36    57.45      14521     
