~Version
 VERS              .         2.0                           : CWLS LOG ASCII STANDARD - VERSION 2.0
 WRAP              .         NO                            : ONE LINE PER DEPTH STEP
 DLM               .         SPACE                         : DELIMITING CHARACTER(SPACE TAB OR COMMA)
~Well Information
#_______________________________________________________________________________
#
#PARAMETER_NAME    .UNIT     VALUE                         : DESCRIPTION
#_______________________________________________________________________________
STRT               .M        12                            : First reference value
STOP               .M        2758.6                        : Last reference value
STEP               .M        0.2                           : Step increment
NULL               .         -9999                         : Missing value
COMP               .                                       : Company
WELL               .         616                           : Well name
FLD                .                                       : Field
LOC                .                                       : Location
CNTY               .                                       : County
STAT               .                                       : State
CTRY               .                                       : Country
SRVC               .                                       : Service Company
DATE               .                                       : Date
API                .                                       : API number
PROJECT_UPGRADE_TIME .         2021-03-18T21_24_50           : 
group              .         Good                          : 
~Parameter Information Block
#_______________________________________________________________________________
#
#PARAMETER_NAME    .UNIT     VALUE                         : DESCRIPTION
#_______________________________________________________________________________
SET                .         616ULN                        : 
PROJECT_UPGRADE_TIME .         2021-03-18T21_24_49           : 
TLFamily_AK4       .                                       : 
TLFamily_ALFAK     .                                       : 
TLFamily_AMPL      .                                       : 
TLFamily_DEPTH     .         Measured Depth                : 
TLFamily_DK1       .                                       : 
TLFamily_DK2       .                                       : 
TLFamily_DTK       .         Compressional Slowness        : 
TLFamily_QCBL      .                                       : 
TLFamily_T1        .         Travel Time 1                 : 
TLFamily_T2        .         Travel Time 2                 : 
group              .         prim                          : 
~Curve Information
#_______________________________________________________________________________
#
#LOGNAME           .UNIT     LOG_ID                        : DESCRIPTION
#_______________________________________________________________________________
DEPTH              .M                                      : 0 Depth curve 
AK4                .                                       : 2 Амплитуда - Волна по колонне - Канал1 
ALFAK              .дБ/м                                   : 1 Затухание - Волна по колонне 
AMPL               .                                       : 8 Коэффициент усиления ВС 
DK1                .дБ                                     : 3 Кривая ослабления - Волна по колонне - Канал1 
DK2                .дБ                                     : 4 Кривая ослабления - Волна по колонне - Канал2 
DTK                .мкс/м                                  : 5 ДельтаТ - Волна по породе 
QCBL               .                                       : 9 Контакт цемент-колонна 
T1                 .мкс                                    : 6 Время пробега - Волна по породе - Канал1 
T2                 .мкс                                    : 7 Время пробега - Волна по породе - Канал2 
~Ascii
12.0       0          81.408     1          81.408     81.408     -9999      4          -9999      -9999     
12.2       0          81.408     1          81.408     81.408     -9999      4          -9999      -9999     
12.4       0          81.408     1          81.408     81.408     -9999      4          -9999      -9999     
12.6       0          79.944     1          81.408     81.408     -9999      4          -9999      -9999     
12.8       0          76.413     1          81.408     81.408     -9999      4          -9999      -9999     
13         0          71.235     1          81.408     81.408     -9999      4          -9999      -9999     
13.2       0          65.457     1          81.408     81.408     -9999      4          -9999      -9999     
13.4       1.94       59.468     1          79.456     81.408     -9999      4          -9999      -9999     
13.6       6.414      54.441     1          75.782     81.408     -9999      4          -9999      -9999     
13.8       11.765     51.311     1          70.12      81.408     -9999      4          -9999      -9999     
14         18.444     50.339     1          64.156     79.622     -9999      4          1632.181   -9999     
14.2       26.063     50.483     1          57.625     76.035     -9999      4          1656.327   -9999     
14.4       33.364     51.132     1          53.194     71.622     -9999      4          1684.566   -9999     
14.6       38.288     51.919     1          50.632     66.38      -9999      4          1725.892   -9999     
14.8       39.911     52.521     1          50.75      61.089     -9999      4          1767.329   -9999     
15         38.843     52.317     1          51.302     57.271     -9999      4          1800.388   -9999     
15.2       35.68      51.82      1          52.205     54.888     -9999      4          1819.563   -9999     
15.4       32.62      51.024     1          52.745     53.304     -9999      4          1824.754   -9999     
15.6       30.136     50.811     1          52.851     52.543     -9999      4          1824.468   -9999     
15.8       31.59      50.765     1          52.184     51.62      -9999      4          1823.838   -9999     
16         33.031     50.777     1          51.303     50.861     -9999      4          1823.58    -9999     
16.2       36.139     50.498     1          50.817     50.488     -9999      4          1823.444   -9999     
16.4       35.838     50.784     1          50.555     50.46      -9999      4          1823.534   -9999     
16.6       36.043     51.183     1          50.486     50.394     -9999      4          1823.744   -9999     
16.8       35.661     52.648     1          50.308     50.602     -9999      4          1824.083   -9999     
17         36.759     54.528     1          50.185     50.928     -9999      4          1824.446   -9999     
17.2       35.424     56.225     1          49.965     51.202     -9999      4          1824.465   -9999     
17.4       34.839     57.112     1          49.929     51.204     -9999      4          1824.599   -9999     
17.6       33.243     56.848     1          50.977     51.253     -9999      4          1835.231   -9999     
17.8       30.068     55.206     1          52.741     50.989     -9999      4          -9999      -9999     
18         26.558     53.74      1          54.014     50.505     -9999      4          1850.875   -9999     
18.2       25.179     53.281     1          54.687     50.068     -9999      4          1856.088   -9999     
18.4       27.587     53.249     1          54.864     49.607     -9999      4          1851.725   -9999     
18.6       29.56      53.739     1          54.125     49.382     -9999      4          1847.892   -9999     
18.8       30.741     54.057     1          52.938     49.232     -9999      4          1836.956   -9999     
19         29.902     53.698     1          52.418     49.158     -9999      4          -9999      -9999     
19.2       29.035     52.419     1          52.303     49.017     -9999      4          1826.762   -9999     
19.4       26.41      50.833     1          52.379     48.809     -9999      4          1838.037   -9999     
19.6       25.868     49.55      1          52.108     48.731     -9999      4          -9999      -9999     
19.8       27.475     49.19      1          51.594     49.101     -9999      4          1848.752   -9999     
20         32.088     49.616     1          50.766     49.461     -9999      4          1854.155   -9999     
20.2       37.116     50.189     1          49.928     49.582     -9999      4          1849.798   -9999     
20.4       40.81      50.751     1          49.255     49.53      -9999      4          1845.223   -9999     
20.6       39.86      51.039     1          48.971     48.893     -9999      4          1858.456   -9999     
20.8       37.447     51.207     1          49.013     48.139     -9999      4          -9999      -9999     
21         34.653     51.489     1          49.142     47.604     -9999      4          1854.33    -9999     
21.2       33.338     51.882     1          49.424     47.7       -9999      4          -9999      -9999     
21.4       32.027     52.49      1          49.714     48.097     -9999      4          1865.308   -9999     
21.6       32.808     52.67      1          50.408     48.855     -9999      4          -9999      -9999     
21.8       32.663     52.336     1          51.103     49.604     -9999      4          -9999      -9999     
22         32.64      51.16      1          51.811     50.069     -9999      4          -9999      -9999     
22.2       30.062     49.844     1          52.425     49.717     -9999      4          1824.938   -9999     
22.4       30.646     48.516     1          52.572     48.908     -9999      4          1825.127   -9999     
22.6       32.934     47.867     1          51.783     47.763     -9999      4          1825.056   -9999     
22.8       38.042     47.583     1          50.55      46.501     -9999      4          1825.085   -9999     
23         42.465     47.987     1          49.412     45.736     -9999      4          1824.91    -9999     
23.2       46.962     48.542     1          48.405     45.892     -9999      4          1824.482   -9999     
23.4       48.749     49.171     1          47.945     46.565     -9999      4          1823.903   -9999     
23.6       49.59      49.78      1          48.04      47.553     -9999      4          1823.469   -9999     
23.8       47.238     50.664     1          48.55      48.639     -9999      4          1823.047   -9999     
24         45.379     51.425     1          48.976     49.51      -9999      4          1822.833   -9999     
24.2       42.928     52.243     1          49.195     50.124     -9999      4          1821.864   -9999     
24.4       40.512     52.729     1          49.392     50.578     -9999      4          -9999      -9999     
24.6       36.368     52.584     1          49.824     50.975     -9999      4          1821.029   -9999     
24.8       33.32      52.078     1          50.405     50.963     -9999      4          -9999      -9999     
25         29.696     51.16      1          51.027     50.767     -9999      4          -9999      -9999     
25.2       28.325     50.392     1          51.482     50.543     -9999      4          1823.586   -9999     
25.4       31.107     49.768     1          51.695     50.622     -9999      4          1823.639   -9999     
25.6       37.507     49.239     1          51.407     50.494     -9999      4          1793.071   -9999     
25.8       42.669     48.172     1          50.912     50.274     -9999      4          1729.157   -9999     
26         46.599     46.645     1          50.225     49.953     -9999      4          1630.257   -9999     
26.2       50.058     44.094     1          49.337     49.453     -9999      4          1525.442   -9999     
26.4       51.24      41.657     1          48.01      48.899     -9999      4          1418.494   -9999     
