~Version
 VERS              .         2.0                           : CWLS LOG ASCII STANDARD - VERSION 2.0
 WRAP              .         NO                            : ONE LINE PER DEPTH STEP
 DLM               .         SPACE                         : DELIMITING CHARACTER(SPACE TAB OR COMMA)
~Well Information
#_______________________________________________________________________________
#
#PARAMETER_NAME    .UNIT     VALUE                         : DESCRIPTION
#_______________________________________________________________________________
STRT               .M        2659.4                        : First reference value
STOP               .M        2769.4                        : Last reference value
STEP               .M        0.2                           : Step increment
NULL               .         -9999                         : Missing value
COMP               .                                       : Company
WELL               .         616                           : Well name
FLD                .                                       : Field
LOC                .                                       : Location
CNTY               .                                       : County
STAT               .                                       : State
CTRY               .                                       : Country
SRVC               .                                       : Service Company
DATE               .                                       : Date
API                .                                       : API number
PROJECT_UPGRADE_TIME .         2021-03-18T21_24_50           : 
group              .         Good                          : 
~Parameter Information Block
#_______________________________________________________________________________
#
#PARAMETER_NAME    .UNIT     VALUE                         : DESCRIPTION
#_______________________________________________________________________________
SET                .         D1171_D                       : 
OTHER              .         Программное обеспечение станции MONITOR-386EX 25/12/99 15_08_10   BGF V52 22/08/01 16_56_30   3.2_BGF_N_3070031: 
OTHER_10           .         Тарировки_                    : 
OTHER_11           .         TM.GRD = 0.00403*TM$.UE + -1.19: 
OTHER_12           .         MN.ATM = (7.1e-006*TM.GRD + 0.02017)*(MN$.UE + -3.03*TM.GRD + -1833): 
OTHER_13           .         Id error                      : 
OTHER_2            .         Kedr.exe версия 3.4.2.51      : 
OTHER_3            .         KedrData.dll версия 3.4.2.24  : 
OTHER_4            .         Драйвер версия 2.1.1.8        : 
OTHER_5            .         Мнемоники версия 3.3 S        : 
OTHER_6            .         Прибор_ КСА-М1                : 
OTHER_7            .         Номер прибора_ 265            : 
OTHER_8            .         Режим_ КСА-М1                 : 
OTHER_9            .         Форма_ ТЕРМОМЕТР              : 
PROJECT_UPGRADE_TIME .         2021-03-18T21_24_49           : 
TLFamily_DEPT      .         Measured Depth                : 
TLFamily_GK        .         Gamma Ray                     : 
TLFamily_GK$       .                                       : 
TLFamily_LM        .         Casing Collar locator         : 
TLFamily_METKA     .                                       : 
TLFamily_MN        .                                       : 
TLFamily_MN$       .                                       : 
TLFamily_RCOR      .                                       : 
TLFamily_SPID      .         Spontaneous Potential         : 
TLFamily_STD       .                                       : 
TLFamily_TENS      .         Cable Tension                 : 
TLFamily_TIME      .         Time                          : 
TLFamily_TM        .         Temperature                   : 
TLFamily_TM$       .         Temperature                   : 
TLFamily_VGD       .         Gas Volume                    : 
group              .         prim                          : 
~Curve Information
#_______________________________________________________________________________
#
#LOGNAME           .UNIT     LOG_ID                        : DESCRIPTION
#_______________________________________________________________________________
DEPT               .M                                      : 1 Глубина, м -    0.0 см 
GK                 .MKR/H                                  : 15 Гамма-активность, мкр./ч -  110.0 см 
GK$                .UE                                     : 12 Гамма-активность, усл.ед. -  110.0 см 
LM                 .                                       : 10 Локатор муфт,  -   20.0 см 
METKA              .                                       : 3 Метки,  -    0.0 см 
MN                 .ATM                                    : 14 Давление, атм. -  160.0 см 
MN$                .UE                                     : 8 Давление, усл.ед. -  160.0 см 
RCOR               .CM/KM                                  : 5 Коррекция по ролику, см/км -    0.0 см 
SPID               .M/H                                    : 2 Скорость, м/час -    0.0 см 
STD                .                                       : 11 Приток,  -  170.0 см 
TENS               .T                                      : 6 Натяжение кабеля, т -    0.0 см 
TIME               .S                                      : 4 Время, сек -    0.0 см 
TM                 .GRD                                    : 13 Температура, °C -  180.0 см 
TM$                .UE                                     : 7 Температура, усл.ед. -  180.0 см 
VGD                .                                       : 9 Влагомер,  -  170.0 см 
~Ascii
# ...
2698.6     10.05      418        1          0          258.745    14546      -1400      603        31243      0          27834.43   85.414     21490      6583      
2698.8     9.86       418        1          0          258.763    14546      -1400      602        31247      0          27835.6    85.429     21494      6583      
2699       9.45       391        1          0          258.796    14548      -1400      605        31253      0          27836.71   85.445     21497      6582      
2699.2     9.24       391        1          0          258.797    14548      -1400      608        31259      0          27838      85.456     21500      6582      
2699.4     9.47       418        1          0          258.818    14549      -1400      601        31265      0          27839.17   85.467     21503      6582      
2699.6     9.68       418        1          0          258.839    14550      -1400      604        31271      0          27840.34   85.478     21506      6582      
2699.8     9.9        435        1          0          258.865    14551      -1400      607        31278      0          27841.51   85.491     21509      6582      
2700       10.09      435        1          2          258.881    14552      -1400      604        31282      0          27842.74   85.501     21512      6582      
2700.2     9.94       409        1          0          258.902    14553      -1400      598        31287      0          27843.97   85.515     21515      6582      
2700.4     9.36       390        1          0          258.924    14554      -1400      599        31293      0          27845.15   85.534     21520      6582      
2700.6     8.95       361        1          0          258.965    14556      -1400      599        31295      0          27846.34   85.55      21524      6582      
2700.8     8.6        361        1          0          258.984    14557      -1400      600        31299      0          27847.57   85.564     21527      6582      
2701       8.21       326        1          0          258.987    14557      -1400      595        31305      0          27848.71   85.576     21530      6582      
2701.2     7.58       312        1          0          259.008    14558      -1400      606        31311      0          27849.89   85.587     21533      6581      
2701.4     7.21       290        1          0          259.014    14558      -1400      601        31314      0          27851.17   85.598     21536      6582      
2701.6     6.46       260        1          0          259.05     14560      -1400      606        31321      0          27852.31   85.609     21538      6581      
2701.8     6.19       260        1          0          259.071    14561      -1400      605        31324      0          27853.5    85.621     21541      6581      
2702       5.87       244        1          0          259.092    14562      -1400      609        31328      0          27854.67   85.628     21543      6582      
2702.2     5.76       244        1          0          259.113    14563      -1400      590        31332      0          27855.9    85.635     21545      6582      
2702.4     5.82       251        1          0          259.134    14564      -1400      593        31336      0          27857.07   85.646     21548      6582      
2702.6     5.86       251        1          0          259.134    14564      -1400      596        31342      0          27858.24   85.658     21550      6582      
2702.8     6.34       281        1          0          259.155    14565      -1400      596        31347      0          27859.47   85.669     21553      6579      
2703       6.5        281        1          0          259.176    14566      -1400      597        31353      0          27860.65   85.677     21555      6578      
2703.2     6.46       275        1          0          259.197    14567      -1400      599        31356      0          27861.84   85.69      21558      6577      
2703.4     6.44       275        1          0          259.218    14568      -1400      605        31363      0          27863.06   85.701     21561      6577      
2703.6     6.14       251        1          0          259.239    14569      -1400      599        31368      0          27864.26   85.709     21563      6578      
2703.8     5.95       251        1723       0          259.246    14569      -1400      604        31370      0          27865.44   85.716     21565      6577      
2704       6.2        281        247        0          259.273    14571      -1400      612        31377      0          27866.61   85.728     21568      6577      
2704.2     6.46       281        1          0          259.285    14571      -1400      606        31380      0          27867.84   85.735     21569      6578      
2704.4     6.64       294        1          0          259.323    14573      -1400      606        31383      0          27869.01   85.746     21572      6577      
2704.6     6.84       296        1          0          259.324    14573      -1400      605        31385      0          27870.17   85.753     21574      6577      
2704.8     6.85       290        1          0          259.345    14574      -1400      604        31390      0          27871.38   85.761     21576      6577      
2705       6.69       283        1          0          259.373    14575      -1400      598        31392      0          27872.6    85.767     21578      6576      
2705.2     6.36       248        1          0          259.389    14576      -1400      606        31399      0          27873.74   85.78      21581      6576      
2705.4     5.98       248        1          0          259.408    14577      -1400      603        31401      0          27874.97   85.794     21584      6576      
2705.6     5.8        241        1          0          259.429    14578      -1400      602        31406      0          27876.16   85.805     21587      6576      
2705.8     5.58       234        1          0          259.45     14579      -1400      602        31407      0          27877.34   85.82      21591      6577      
2706       5.54       239        1          0          259.471    14580      -1400      604        31413      0          27878.54   85.829     21593      6576      
2706.2     6.02       267        1          0          259.492    14581      -1400      602        31416      0          27879.71   85.838     21595      6577      
2706.4     6.17       267        1          0          259.513    14582      -1400      601        31420      0          27880.94   85.841     21596      6576      
2706.6     6.93       315        1          0          259.544    14583      -1400      597        31426      0          27882.13   85.845     21597      6576      
2706.8     7.23       315        1          0          259.557    14584      -1400      605        31431      0          27883.28   85.85      21598      6576      
2707       7.7        345        1          0          259.596    14586      -1400      602        31430      0          27884.51   85.851     21598      6576      
2707.2     7.95       345        1          0          259.617    14587      -1400      602        31431      0          27885.68   85.854     21599      6576      
2707.4     7.75       326        1          0          259.617    14587      -1400      603        31432      0          27886.85   85.854     21599      6576      
2707.6     7.66       326        1          0          259.638    14588      -1400      603        31429      0          27888.08   85.854     21599      6576      
2707.8     7.35       303        1          0          259.659    14589      -1400      598        31428      0          27889.24   85.854     21599      6577      
2708       7.17       303        1          0          259.679    14590      -1400      603        31425      0          27890.47   85.854     21599      6577      
2708.2     7.26       317        1          0          259.7      14591      -1400      607        31425      0          27891.61   85.854     21599      6576      
