~Version
 VERS              .         2.0                           : CWLS LOG ASCII STANDARD - VERSION 2.0
 WRAP              .         NO                            : ONE LINE PER DEPTH STEP
 DLM               .         SPACE                         : DELIMITING CHARACTER(SPACE TAB OR COMMA)
~Well Information
#_______________________________________________________________________________
#
#PARAMETER_NAME    .UNIT     VALUE                         : DESCRIPTION
#_______________________________________________________________________________
STRT               .M        2658                          : First reference value
STOP               .M        2762                          : Last reference value
STEP               .M        0.2                           : Step increment
NULL               .         -9999                         : Missing value
COMP               .                                       : Company
WELL               .         616                           : Well name
FLD                .                                       : Field
LOC                .                                       : Location
CNTY               .                                       : County
STAT               .                                       : State
CTRY               .                                       : Country
SRVC               .                                       : Service Company
DATE               .                                       : Date
API                .                                       : API number
PROJECT_UPGRADE_TIME .         2021-03-18T21_24_50           : 
group              .         Good                          : 
~Parameter Information Block
#_______________________________________________________________________________
#
#PARAMETER_NAME    .UNIT     VALUE                         : DESCRIPTION
#_______________________________________________________________________________
SET                .         D8103_D                       : 
OTHER              .         Программное обеспечение станции MONITOR-386EX 25/12/99 15_08_10   BGF V52 22/08/01 16_56_30   4_SNGF_BGF_N_011645: 
OTHER_10           .         Тарировки_                    : 
OTHER_11           .         TM.GRD = 0.00412*TM$.UE + -2.13: 
OTHER_12           .         MN.ATM = (5.87652e-006*TM.GRD + 0.01993)*(MN$.UE + -2.72*TM.GRD + -1925): 
OTHER_13           .         GK.MKR/H = GK$.UE / 57.4657   : 
OTHER_2            .         Kedr.exe версия 3.4.2.51      : 
OTHER_3            .         KedrData.dll версия 3.4.2.24  : 
OTHER_4            .         Драйвер версия 2.1.0.2        : 
OTHER_5            .         Мнемоники версия 3.3 S        : 
OTHER_6            .         Прибор_ АКП4-90               : 
OTHER_7            .         Номер прибора_ 53             : 
OTHER_8            .         Режим_ АКП4_90                : 
OTHER_9            .         Форма_ ПК-53ое                : 
PROJECT_UPGRADE_TIME .         2021-03-18T21_24_50           : 
TLFamily_DEPT      .         Measured Depth                : 
TLFamily_GK        .         Gamma Ray                     : 
TLFamily_GK$       .                                       : 
TLFamily_LM        .         Casing Collar locator         : 
TLFamily_METKA     .                                       : 
TLFamily_METKA_1   .                                       : 
TLFamily_MN        .                                       : 
TLFamily_MN$       .                                       : 
TLFamily_RCOR      .                                       : 
TLFamily_SPID      .         Spontaneous Potential         : 
TLFamily_TENS      .         Cable Tension                 : 
TLFamily_TIME      .         Time                          : 
TLFamily_TM        .         Temperature                   : 
TLFamily_TM$       .         Temperature                   : 
group              .         prim                          : 
~Curve Information
#_______________________________________________________________________________
#
#LOGNAME           .UNIT     LOG_ID                        : DESCRIPTION
#_______________________________________________________________________________
DEPT               .M                                      : 1 Глубина, м -    0.0 см 
GK                 .MKR/H                                  : 13 Гамма-активность, мкр./ч -   65.0 см 
GK$                .UE                                     : 10 Гамма-активность, усл.ед. -   65.0 см 
LM                 .                                       : 9 Локатор муфт,  -   30.0 см 
METKA              .                                       : 3 Метки,  -    0.0 см 
METKA_1            .                                       : 14 Маркеры - 65 см 
MN                 .ATM                                    : 12 Давление, атм. -  140.0 см 
MN$                .UE                                     : 8 Давление, усл.ед. -  140.0 см 
RCOR               .CM/KM                                  : 5 Коррекция по ролику, см/км -    0.0 см 
SPID               .M/H                                    : 2 Скорость, м/час -    0.0 см 
TENS               .T                                      : 6 Натяжение кабеля, т -    0.0 см 
TIME               .S                                      : 4 Время, сек -    0.0 см 
TM                 .GRD                                    : 11 Температура, °C -  145.0 см 
TM$                .UE                                     : 7 Температура, усл.ед. -  145.0 см 
~Ascii
# ...
2730.8     8.37       481        114        0          0          250.465    14492      -13        -326       0.82       3204.39    46.205     11732     
2731       8.19       471        191        0          0          250.475    14493      -13        -333       0.82       3202.25    46.29      11753     
2731.2     8.02       461        337        0          0          250.48     14493      -13        -336       0.82       3200.11    46.342     11765     
2731.4     8.57       492        121        0          0          250.48     14493      -13        -331       0.82       3198.03    46.397     11778     
2731.6     9.06       521        164        0          0          250.535    14496      -13        -332       0.82       3195.82    46.444     11790     
2731.8     8.95       514        267        0          0          250.56     14497      -13        -325       0.82       3193.68    46.544     11814     
2732       9.07       521        111        0          0          250.56     14497      -13        -326       0.82       3191.54    46.618     11832     
2732.2     9.34       537        201        0          0          250.6      14499      -13        -337       0.82       3189.34    46.676     11846     
2732.4     9.03       519        302        0          0          250.607    14499      -13        -334       0.82       3187.16    46.774     11870     
2732.6     8.86       509        179        0          0          250.64     14501      -13        -332       0.8        3184.99    46.877     11895     
2732.8     8.52       490        221        0          0          250.64     14501      -13        -334       0.81       3182.84    46.942     11911     
2733       8.34       479        301        0          0          250.673    14503      -13        -335       0.82       3180.7     46.98      11920     
2733.2     7.53       433        97         0          0          250.679    14503      -13        -329       0.82       3178.56    47.072     11942     
2733.4     7.08       407        76         0          0          250.706    14504      -13        -330       0.82       3176.48    47.137     11958     
2733.6     7.35       422        180        0          0          250.709    14504      -13        -335       0.82       3174.21    47.211     11976     
2733.8     6.94       399        201        0          0          250.749    14506      -13        -331       0.82       3172.13    47.302     11998     
2734       6.6        379        172        0          0          250.739    14506      -13        -327       0.82       3169.86    47.372     12015     
2734.2     6.16       354        262        0          0          250.753    14507      -13        -333       0.82       3167.78    47.456     12035     
2734.4     6.93       399        210        0          0          250.793    14509      -13        -333       0.82       3165.61    47.516     12050     
2734.6     7.14       411        134        0          0          250.799    14509      -13        -327       0.82       3163.44    47.609     12073     
2734.8     6.46       371        254        0          0          250.799    14509      -13        -332       0.82       3161.26    47.714     12098     
2735       6.56       377        426        0          0          250.849    14511      -13        -333       0.82       3159.09    47.788     12116     
2735.2     6.15       353        164        0          0          250.859    14512      -13        -327       0.82       3157.01    47.844     12130     
2735.4     6.07       349        221        0          0          250.859    14512      -13        -333       0.82       3154.74    47.896     12142     
2735.6     6.23       358        253        0          0          250.879    14513      -13        -324       0.82       3152.6     48.01      12170     
2735.8     7.09       407        119        0          0          250.894    14514      -13        -329       0.82       3150.45    48.101     12192     
2736       6.76       388        166        0          0          250.899    14514      -13        -334       0.82       3148.22    48.157     12206     
2736.2     6.11       351        367        0          0          250.959    14517      -13        -329       0.82       3146.04    48.247     12227     
2736.4     6.56       377        372        0          0          250.978    14518      -13        -332       0.82       3143.97    48.352     12253     
2736.6     6.66       383        512        0          0          250.959    14517      -13        -327       0.82       3141.69    48.467     12281     
2736.8     6.34       364        279        0          0          250.998    14519      -13        -331       0.82       3139.52    48.545     12300     
2737       6.07       349        288        0          0          251.038    14521      -13        -333       0.82       3137.35    48.646     12324     
2737.2     5.9        339        272        0          0          251.038    14521      -13        -324       0.82       3135.2     48.748     12349     
2737.4     5.8        333        305        0          0          251.078    14523      -13        -329       0.82       3133.06    48.826     12368     
2737.6     6.38       366        267        0          0          251.078    14523      -13        -333       0.82       3130.92    48.95      12398     
2737.8     7.11       409        407        0          0          251.088    14524      -13        -328       0.82       3128.65    49.024     12416     
2738       6.51       374        372        0          0          251.118    14525      -13        -334       0.82       3126.51    49.082     12430     
2738.2     6.1        350        1406       0          0          251.158    14527      -13        -325       0.82       3124.37    49.212     12462     
2738.4     6.52       375        10352      0          0          251.158    14527      -13        -329       0.82       3122.14    49.272     12476     
2738.6     6.92       398        19942      0          0          251.164    14527      -13        -325       0.82       3120       49.388     12504     
2738.8     7.57       435        605        0          0          251.198    14529      -13        -330       0.82       3117.79    49.514     12535     
2739       7.53       432        507        0          0          251.198    14529      -13        -329       0.82       3115.62    49.569     12548     
2739.2     6.78       390        127        0          0          251.198    14529      -13        -336       0.82       3113.45    49.662     12571     
2739.4     6.41       368        255        0          0          251.277    14533      -13        -328       0.82       3111.3     49.832     12612     
2739.6     6.61       380        121        0          0          251.263    14532      -13        -326       0.82       3109.1     49.923     12634     
2739.8     6.43       370        224        0          0          251.277    14533      -13        -331       0.82       3106.89    50.042     12663     
2740       6.41       369        781        0          0          251.317    14535      -13        -332       0.82       3104.75    50.126     12684     
2740.2     6.52       375        261        0          0          251.327    14535      -13        -337       0.82       3102.61    50.268     12718     
2740.4     7.06       405        323        0          0          251.322    14535      -13        -330       0.83       3100.4     50.428     12757     
2740.6     7.22       415        388        2          0          251.357    14537      -10        -330       0.82       3097.94    50.576     12793     
2740.8     7.29       419        390        0          0          251.39     14539      -10        -321       0.82       3095.77    50.699     12823     
2741       7.33       421        289        0          0          251.377    14538      -10        -323       0.82       3093.6     50.824     12853     
