~Version
 VERS              .         2.0                           : CWLS LOG ASCII STANDARD - VERSION 2.0
 WRAP              .         NO                            : ONE LINE PER DEPTH STEP
 DLM               .         SPACE                         : DELIMITING CHARACTER(SPACE TAB OR COMMA)
~Well Information
#_______________________________________________________________________________
#
#PARAMETER_NAME    .UNIT     VALUE                         : DESCRIPTION
#_______________________________________________________________________________
STRT               .M        8.21                          : First reference value
STOP               .M        2780.41                       : Last reference value
STEP               .M        0.2                           : Step increment
NULL               .         -9999                         : Missing value
COMP               .                                       : Company
WELL               .         616                           : Well name
FLD                .                                       : Field
LOC                .                                       : Location
CNTY               .                                       : County
STAT               .                                       : State
CTRY               .                                       : Country
SRVC               .                                       : Service Company
DATE               .                                       : Date
API                .                                       : API number
PROJECT_UPGRADE_TIME .         2021-03-18T21_24_50           : 
group              .         Good                          : 
~Parameter Information Block
#_______________________________________________________________________________
#
#PARAMETER_NAME    .UNIT     VALUE                         : DESCRIPTION
#_______________________________________________________________________________
SET                .         ULN_2                         : 
PROJECT_UPGRADE_TIME .         2021-03-18T21_24_50           : 
TLFamily_AK4       .                                       : 
TLFamily_ALFAK     .                                       : 
TLFamily_AMPL      .                                       : 
TLFamily_DEPTH     .         Measured Depth                : 
TLFamily_DK1       .                                       : 
TLFamily_DK2       .                                       : 
TLFamily_DTK       .         Compressional Slowness        : 
TLFamily_QCBL      .                                       : 
TLFamily_T1        .         Travel Time 1                 : 
TLFamily_T2        .         Travel Time 2                 : 
group              .         prim                          : 
~Curve Information
#_______________________________________________________________________________
#
#LOGNAME           .UNIT     LOG_ID                        : DESCRIPTION
#_______________________________________________________________________________
DEPTH              .M                                      : 0 Depth curve 
AK4                .                                       : 2 Амплитуда - Волна по колонне - Канал1 
ALFAK              .дБ/м                                   : 1 Затухание - Волна по колонне 
AMPL               .                                       : 8 Коэффициент усиления ВС 
DK1                .дБ                                     : 3 Кривая ослабления - Волна по колонне - Канал1 
DK2                .дБ                                     : 4 Кривая ослабления - Волна по колонне - Канал2 
DTK                .мкс/м                                  : 5 ДельтаТ - Волна по породе 
QCBL               .                                       : 9 Контакт цемент-колонна 
T1                 .мкс                                    : 6 Время пробега - Волна по породе - Канал1 
T2                 .мкс                                    : 7 Время пробега - Волна по породе - Канал2 
~Ascii
# ...
198.01     16030.35   8.778      1          3.978      8.367      164.444    2          343.8      426.022   
198.21     16600.22   8.443      1          4.295      8.501      163.364    2          343.751    425.433   
198.41     15490.25   8.208      1          5.654      9.496      166.752    2          344.595    427.971   
198.61     13970.12   7.979      1          6.983      11.854     168.603    2          345.417    429.718   
198.81     10996.87   10.63      1          8.299      14.512     185.301    2          347.498    440.148   
199.01     9976.221   14.532     1          8.485      16.894     199.273    2          348.576    448.212   
199.21     10431.76   17.504     1          8.565      17.317     214.985    2          349.116    456.609   
199.41     11839.27   20.826     1          7.2        17.613     216.061    2          348.916    457.258   
199.61     13715.32   21.412     1          5.798      16.504     207.7      2          346.496    456.732   
199.81     14699.04   24.491     1          4.404      16.65      203.184    2          345.145    455.948   
200.01     15864.21   22.012     1          4.049      15.055     202.337    2          343.41     453.477   
200.21     16769.05   19.031     1          3.57       13.085     193.605    2          343.815    443.442   
200.41     17657.16   13.776     1          3.103      9.992      181.512    2          343.37     434.125   
200.61     17915.62   10.959     1          2.976      8.455      164.408    2          343.301    425.505   
200.81     17813.32   9.885      1          3.027      7.969      163.771    2          343.518    425.403   
201.01     17996.74   9.598      1          2.939      7.738      161.742    2          344.05     424.921   
201.21     18136.27   9.302      1          2.873      7.524      162.686    2          343.953    425.296   
201.41     18230.46   9.123      1          2.826      7.387      163.074    2          343.9      425.437   
201.61     17967.67   8.939      1          2.952      7.422      164.092    2          343.818    425.864   
201.81     17686.78   9.005      1          3.088      7.59       163.697    2          343.987    425.835   
202.01     17606.55   9.295      1          3.127      7.775      163.731    2          343.86     425.725   
202.21     17566.14   9.68       1          3.147      7.987      163.706    2          343.446    425.299   
202.41     17522.11   10.093     1          3.169      8.215      164.208    2          343.284    425.388   
202.61     17522      10.606     1          3.169      8.472      163.332    2          343.267    424.933   
202.81     17418.63   11.055     1          3.22       8.748      163.475    2          343.662    425.399   
203.01     17369.07   11.456     1          3.245      8.973      163.395    2          343.641    425.338   
203.21     17324.65   12.014     1          3.267      9.274      163.132    2          343.702    425.268   
203.41     17137.03   12.046     1          3.363      9.386      163.182    2          343.671    425.262   
203.61     17034.09   11.96      1          3.415      9.396      163.358    2          343.184    424.863   
203.81     17004.27   11.81      1          3.43       9.335      164.603    2          343.116    425.417   
204.01     17111.41   12.175     1          3.375      9.462      164.33     2          342.725    424.89    
204.21     17079.5    12.582     1          3.391      9.682      163.769    2          343.389    425.273   
204.41     16838.9    12.771     1          3.515      9.9        164.474    2          342.896    425.133   
204.61     16768.11   12.743     1          3.551      9.922      165.703    2          342.857    425.708   
204.81     16765.82   12.957     1          3.552      10.031     165.964    2          342.72     425.702   
205.01     16842.64   13.152     1          3.512      10.088     165.238    2          342.72     425.339   
205.21     16783.73   13.306     1          3.543      10.196     164.281    2          343.172    425.313   
205.41     16760.79   13.205     1          3.555      10.157     164.487    2          342.682    424.926   
205.61     16739.01   12.578     1          3.566      9.855      164.501    2          343.162    425.412   
205.81     16789.41   12.45      1          3.54       9.765      164.379    2          343.125    425.314   
206.01     16682.37   11.991     1          3.596      9.591      165.279    2          343.177    425.816   
206.21     16571.15   12.222     1          3.654      9.765      164.972    2          343.209    425.695   
206.41     16382.58   12.264     1          3.753      9.885      163.655    2          343.408    425.235   
206.61     16529.68   12.713     1          3.677      10.033     162.862    2          343.769    425.2     
206.81     16743.73   13.004     1          3.566      10.067     163.83     2          343.284    425.199   
207.01     16997.7    13.07      1          3.433      9.968      165.254    2          343.158    425.785   
207.21     17125.61   13.096     1          3.368      9.916      165.975    2          342.821    425.808   
207.41     17089.42   12.798     1          3.386      9.785      166.057    2          342.776    425.804   
207.61     17032.05   12.373     1          3.416      9.602      165.677    2          342.813    425.651   
207.81     16932.98   11.415     1          3.466      9.174      165.332    2          342.846    425.512   
208.01     17028.43   11.053     1          3.417      8.944      163.057    2          343.512    425.04    
208.21     17161.61   10.8       1          3.349      8.749      162.36     2          343.512    424.692   
208.41     17094.06   10.727     1          3.384      8.747      161.78     2          344.023    424.913   
208.61     16923.62   10.098     1          3.471      8.52       163.071    2          343.842    425.378   
208.81     16705.45   9.514      1          3.583      8.341      163.775    2          343.359    425.246   
209.01     16602.54   9.181      1          3.637      8.228      163.774    2          343.249    425.136   
209.21     16358.51   9.258      1          3.8        8.429      163.839    2          342.838    424.758   
209.41     15324.56   7.968      1          5.005      8.994      166.062    2          342.694    425.725   
209.61     13507.75   9.218      1          6.165      10.876     180.471    2          344.233    434.468   
209.81     11671.12   12.702     1          7.356      13.809     196.518    2          346.667    444.925   
210.01     10469.7    15.865     1          7.652      15.682     210.695    2          349.251    454.598   
210.21     10022.14   16.447     1          8.026      16.315     213.679    2          349.62     456.459   
210.41     9726.934   11.938     1          8.336      15.621     215.882    2          349.118    457.059   
210.61     10686.32   11.137     1          8.489      15.372     217.968    2          347.927    456.911   
210.81     12702.15   12.422     1          7.088      14.549     219.349    2          345.54     455.214   
211.01     14868.11   14.141     1          5.535      12.606     203.878    2          344.136    446.075   
211.21     16125.9    12.902     1          3.892      10.343     184.853    2          343.279    435.705   
211.41     16723.55   9.83       1          3.58       8.495      164.801    2          343.936    426.336   
211.61     17357.54   9.673      1          3.256      8.093      161.936    2          343.899    424.867   
211.81     17898.42   10.481     1          2.985      8.226      162.934    2          343.863    425.329   
212.01     18183.1    11.115     1          2.848      8.405      164.898    2          343.259    425.708   
212.21     18339.04   11.162     1          2.773      8.354      163.982    2          343.238    425.229   
212.41     18368.54   11.207     1          2.759      8.363      162.715    2          343.432    424.79    
