~Version
 VERS              .         2.0                           : CWLS LOG ASCII STANDARD - VERSION 2.0
 WRAP              .         NO                            : ONE LINE PER DEPTH STEP
 DLM               .         SPACE                         : DELIMITING CHARACTER(SPACE TAB OR COMMA)
~Well Information
#_______________________________________________________________________________
#
#PARAMETER_NAME    .UNIT     VALUE                         : DESCRIPTION
#_______________________________________________________________________________
STRT               .M        2648.8                        : First reference value
STOP               .M        2754.8                        : Last reference value
STEP               .M        0.2                           : Step increment
NULL               .         -9999                         : Missing value
COMP               .                                       : Company
WELL               .         616                           : Well name
FLD                .                                       : Field
LOC                .                                       : Location
CNTY               .                                       : County
STAT               .                                       : State
CTRY               .                                       : Country
SRVC               .                                       : Service Company
DATE               .                                       : Date
API                .                                       : API number
PROJECT_UPGRADE_TIME .         2021-03-18T21_24_50           : 
group              .         Good                          : 
~Parameter Information Block
#_______________________________________________________________________________
#
#PARAMETER_NAME    .UNIT     VALUE                         : DESCRIPTION
#_______________________________________________________________________________
SET                .         D7019_D                       : 
OTHER              .         Kedr.exe версия 2.1.2.32      : 
OTHER_10           .         TM.GRD = 0.00404*TM$.UE + 0.07: 
OTHER_11           .         MN.ATM = (6.33279e-006*TM.GRD + 0.02401)*(MN$.UE + 2.72*TM.GRD + -2018): 
OTHER_12           .         GK.MKR/H = GK$.UE / 43.5489 + 0: 
OTHER_13           .         RES.SM = 0.00476*CRES.UE - 1.51709: 
OTHER_14           .         PL.GSM3 = 0 + 0 * (PL.UE / 1) +  0 * (PL.UE / 1)^2: 
OTHER_15           .         Постоянная времени ГГП = 6 сек: 
OTHER_16           .         Постоянная времени ГК = 6 сек : 
OTHER_2            .         KedrData.dll версия 3.2.2.14  : 
OTHER_3            .         LasInf.dll версия 3.2.0.13    : 
OTHER_4            .         Драйвер версия 1.2.0.5        : 
OTHER_5            .         Прибор_ КСА-M1                : 
OTHER_6            .         Номер прибора_ 155+р204       : 
OTHER_7            .         Режим_ КСА-М1 + ГГП + Резистивиметр: 
OTHER_8            .         Форма_ 223\2                  : 
OTHER_9            .         Тарировки_                    : 
PROJECT_UPGRADE_TIME .         2021-03-18T21_24_50           : 
TLFamily_CRES      .                                       : 
TLFamily_DEPT      .         Measured Depth                : 
TLFamily_GK        .         Gamma Ray                     : 
TLFamily_GK$       .                                       : 
TLFamily_LM        .         Casing Collar locator         : 
TLFamily_METKA     .                                       : 
TLFamily_MN        .                                       : 
TLFamily_MN$       .                                       : 
TLFamily_PL        .                                       : 
TLFamily_PL_2      .                                       : 
TLFamily_RCOR      .                                       : 
TLFamily_RES       .         Mud Resistivity               : 
TLFamily_SPID      .         Spontaneous Potential         : 
TLFamily_STD       .                                       : 
TLFamily_TIME      .         Time                          : 
TLFamily_TM        .         Temperature                   : 
TLFamily_TM$       .         Temperature                   : 
TLFamily_VGD       .         Gas Volume                    : 
group              .         prim                          : 
~Curve Information
#_______________________________________________________________________________
#
#LOGNAME           .UNIT     LOG_ID                        : DESCRIPTION
#_______________________________________________________________________________
DEPT               .M                                      : 1 Глубина, м -    0.0 см 
CRES               .UE                                     : 9 Проводимость, усл.ед. -  222.0 см 
GK                 .MKR/H                                  : 16 Гамма-активность, мкр./ч -  106.0 см 
GK$                .UE                                     : 13 Гамма-активность, усл.ед. -  106.0 см 
LM                 .                                       : 11 Локатор муфт,  -   16.0 см 
METKA              .                                       : 3 Метки,  -    0.0 см 
MN                 .ATM                                    : 15 Давление, атм. -  160.0 см 
MN$                .UE                                     : 7 Давление, усл.ед. -  160.0 см 
PL                 .UE                                     : 10 Плотность, усл.ед. -  270.0 см 
PL_2               .GSM3                                   : 18 Плотность, г./см3 -  270.0 см 
RCOR               .CM/KM                                  : 5 Коррекция по ролику, см/км -    0.0 см 
RES                .SM                                     : 17 Проводимость,  -  222.0 см 
SPID               .M/H                                    : 2 Скорость, м/час -    0.0 см 
STD                .                                       : 12 Приток,  -  170.0 см 
TIME               .S                                      : 4 Время, сек -    0.0 см 
TM                 .GRD                                    : 14 Температура, °C -  180.0 см 
TM$                .UE                                     : 6 Температура, усл.ед. -  180.0 см 
VGD                .                                       : 8 Влагомер,  -  170.0 см 
~Ascii
# ...
2739       1347       10.7       491        96         0          252.555    12262      15         0          0          4.894      533        9814       10857.64   50.323     12439      6647      
2739.2     1349       10.99      491        69         0          252.578    12262      15         0          0          4.9026     580        9834       10858.95   50.431     12466      6648      
2739.4     1351       10.86      465        82         0          252.626    12263      15         0          0          4.9137     580        9858       10860.22   50.573     12501      6649      
2739.6     1352       10.75      460        61         0          252.641    12263      14         0          0          4.9192     580        9883       10861.54   50.695     12531      6648      
2739.8     1355       10.37      435        80         0          252.69     12265      15         0          0          4.9327     533        9908       10862.79   50.804     12558      6649      
2740       1357       10.34      470        68         0          252.681    12264      15         0          0          4.9422     580        9930       10864.06   50.866     12573      6646      
2740.2     1359       10.76      487        65         1          252.724    12265      14         0          0          4.9517     580        9951       10866.04   50.926     12588      6647      
2740.4     1362       10.97      488        59         0          252.764    12266      15         0          0          4.9676     510        9982       10867.29   51.035     12615      6649      
2740.6     1364       11.11      490        72         0          252.801    12267      15         0          0          4.9755     540        10013      10868.64   51.18      12651      6646      
2740.8     1368       11.12      477        128        0          252.827    12267      14         0          0          4.993      580        10047      10869.94   51.339     12690      6647      
2741       1370       10.97      471        139        0          252.862    12268      15         0          0          5.0041     568        10084      10871.19   51.479     12725      6647      
2741.2     1375       10.85      469        101        0          252.871    12268      14         0          0          5.0295     580        10110      10872.5    51.558     12745      6646      
2741.4     1378       10.81      469        87         0          252.922    12269      15         0          0          5.0406     540        10141      10873.79   51.717     12784      6646      
2741.6     1381       10.85      476        109        0          252.945    12269      14         0          0          5.0545     533        10173      10875.08   51.887     12826      6644      
2741.8     1383       10.89      476        91         0          253.036    12271      14         0          0          5.0668     580        10218      10876.4    52.028     12861      6643      
2742       1386       11.2       504        83         0          253.031    12270      14         0          0          5.0803     530        10256      10877.7    52.321     12934      6642      
2742.2     1387       11.36      498        109        0          253.05     12270      13         0          0          5.083      545        10290      10878.98   52.465     12969      6642      
2742.4     1393       11.07      469        84         0          253.088    12271      13         0          0          5.116      522        10312      10880.3    52.611     13005      6641      
2742.6     1394       10.92      469        85         0          253.141    12273      13         0          0          5.117      570        10344      10881.61   52.715     13031      6640      
2742.8     1397       10.7       454        83         0          253.183    12274      13         0          0          5.1326     580        10370      10882.88   52.78      13047      6639      
2743       1398       10.57      457        112        0          253.197    12274      13         0          0          5.139      533        10393      10884.2    52.917     13081      6640      
2743.2     1402       10.67      469        82         0          253.232    12274      14         0          0          5.1564     580        10416      10885.45   53.065     13118      6640      
2743.4     1404       10.68      459        91         0          253.227    12273      14         0          0          5.1683     522        10438      10886.78   53.251     13164      6638      
2743.6     1407       10.59      457        133        0          253.307    12275      14         0          0          5.1816     556        10465      10888.03   53.398     13200      6638      
2743.8     1412       10.55      460        111        0          253.326    12275      13         0          0          5.204      580        10491      10889.35   53.583     13246      6639      
2744       1414       10.63      466        89         0          253.388    12277      14         0          0          5.2116     580        10519      10890.61   53.78      13295      6639      
2744.2     1417       10.73      481        72         0          253.406    12277      13         0          0          5.2278     580        10545      10891.86   53.914     13328      6637      
2744.4     1419       10.92      484        69         0          253.438    12278      13         0          0          5.2381     510        10572      10893.27   54.017     13353      6636      
2744.6     1424       10.93      469        106        0          253.445    12277      14         0          0          5.2612     580        10599      10894.58   54.136     13383      6635      
2744.8     1426       10.85      469        79         0          253.484    12278      14         0          0          5.2707     510        10625      10895.83   54.248     13410      6634      
2745       1430       10.48      423        56         0          253.506    12278      14         0          0          5.2897     580        10651      10897.14   54.397     13447      6633      
2745.2     1432       10.1       423        48         0          253.535    12278      14         0          0          5.2976     580        10678      10898.43   54.562     13488      6633      
2745.4     1435       9.85       416        48         0          253.6      12280      14         0          0          5.3159     510        10705      10899.73   54.747     13534      6634      
2745.6     1437       9.71       416        75         0          253.622    12280      14         0          0          5.3223     580        10732      10901.03   54.929     13579      6632      
2745.8     1438       9.6        412        74         0          253.663    12281      14         0          0          5.3278     580        10761      10902.33   55.071     13614      6630      
2746       1441       9.53       412        94         0          253.702    12282      14         0          0          5.3421     580        10790      10903.59   55.224     13652      6628      
2746.2     1443       9.38       400        81         0          253.734    12282      14         0          0          5.354      580        10815      10904.87   55.418     13700      6620      
2746.4     1445       9.28       400        124        0          253.778    12283      14         0          0          5.3631     510        10842      10906.19   55.578     13740      6617      
2746.6     1451       9.13       387        72         0          253.8      12283      14         0          0          5.3877     580        10872      10907.52   55.725     13776      6615      
2746.8     1454       9.01       387        218        0          253.853    12284      13         0          0          5.4016     580        10904      10908.77   55.896     13818      6613      
2747       1460       8.65       356        107        0          253.878    12284      13         0          0          5.4309     510        10937      10910.09   56.112     13872      6614      
