~Version
 VERS              .         2.0                           : CWLS LOG ASCII STANDARD - VERSION 2.0
 WRAP              .         NO                            : ONE LINE PER DEPTH STEP
 DLM               .         SPACE                         : DELIMITING CHARACTER(SPACE TAB OR COMMA)
~Well Information
#_______________________________________________________________________________
#
#PARAMETER_NAME    .UNIT     VALUE                         : DESCRIPTION
#_______________________________________________________________________________
STRT               .M        2656                          : First reference value
STOP               .M        2756.3999                     : Last reference value
STEP               .M        0.1999998                     : Step increment
NULL               .         -9999                         : Missing value
COMP               .                                       : Company
WELL               .         616                           : Well name
FLD                .                                       : Field
LOC                .                                       : Location
CNTY               .                                       : County
STAT               .                                       : State
CTRY               .                                       : Country
SRVC               .                                       : Service Company
DATE               .                                       : Date
API                .                                       : API number
PROJECT_UPGRADE_TIME .         2021-03-18T21_24_50           : 
group              .         Good                          : 
~Parameter Information Block
#_______________________________________________________________________________
#
#PARAMETER_NAME    .UNIT     VALUE                         : DESCRIPTION
#_______________________________________________________________________________
SET                .         D4404_D                       : 
OTHER              .         Запись производится в присутствии: 
OTHER_10           .         Максимальная температура      : 
OTHER_11           .         Тип промывочной жидкости      : 
OTHER_12           .         Сопротивление ПЖ (Ом*м) при 20°C: 
OTHER_13           .         Плотность ПЖ(г/см3)           : 
OTHER_14           .         Вязкость ПЖ(с)                : 
OTHER_15           .         Водоотдача ПЖ(см3/30мин)      : 
OTHER_16           .         Уровень ПЖ                    : 
OTHER_17           .         Нефть ПЖ (%)                  : 
OTHER_18           .         Барит ПЖ (%)                  : 
OTHER_19           .         Гематит ПЖ (%)                : 
OTHER_2            .         Заказчик ННСН  ЦДНГ-1         : 
OTHER_20           .         КМЦ ПЖ (%)                    : 
OTHER_21           .         Разгазирование ПЖ (да,нет)    : 
OTHER_22           .         Подъемник                     : 
OTHER_23           .         Лаборатория                   : 
OTHER_24           .         Тип кабеля                    : 
OTHER_25           .         Длина кабеля (м)              : 
OTHER_26           .         Цена последней метки          : 
OTHER_27           .         Цена контрольной метки        : 
OTHER_28           .         Диаметр долота (мм)           : 
OTHER_29           .         Глубина бурения (м)           : 
OTHER_3            .         Площадь                       : 
OTHER_30           .         Искусственный забой (м)       : 
OTHER_31           .         Диаметр колонны (мм)          : 
OTHER_32           .         Толщина колонны (мм)          : 
OTHER_33           .         Башмак колонны (м)            : 
OTHER_34           .         Диаметр НКТ (мм)              : 
OTHER_35           .         Толщина НКТ (мм)              : 
OTHER_36           .         Воронка НКТ (м)               : 
OTHER_37           .         Дата цементожа                : 
OTHER_38           .         Тип, количество(т) и плотность цемента: 
OTHER_39           .         Интервалы перфорации (м)      : 
OTHER_4            .         Категория                     : 
OTHER_40           .         Направление, диаметр (мм)     : 
OTHER_41           .         Направление, глубина (м)      : 
OTHER_42           .         Кондуктор, диаметр (мм)       : 
OTHER_43           .         Кондуктор, глубина (м)        : 
OTHER_44           .         Техническая колонна, диаметр (мм): 
OTHER_45           .         Техническая колонна, глубина (м): 
OTHER_46           .         Эксплуатационная колонна, диаметр (мм): 
OTHER_47           .         Эксплуатационная колонна, глубина (м): 
OTHER_48           .         Программа Кедр-02 версия 3.4  : 
OTHER_49           .         Операционная система Windows NT 5.1 build 2600 Service Pack 2: 
OTHER_5            .         Назначение исследований       : 
OTHER_50           .         Программное обеспечение станции MONITOR-386EX 25/12/99 15_08_10   BGF V54 20/09/05 15_32_17   3.3__BGF_9030071: 
OTHER_51           .         Kedr.exe версия 3.4.2.74      : 
OTHER_52           .         KedrData.dll версия 3.4.2.29  : 
OTHER_53           .         Мнемоники версия 3.18 S       : 
OTHER_54           .         Драйвер версия 2.1.1.4        : 
OTHER_55           .         LasInf.dll 4.3.0.35           : 
OTHER_56           .         Прибор_ КСА-Т4                : 
OTHER_57           .         Номер прибора_ 160            : 
OTHER_58           .         Режим_ КСА-Т4                 : 
OTHER_59           .         Форма_ С.А.Б.                 : 
OTHER_6            .         Альтитуда стола ротора        : 
OTHER_60           .         Тарировки_                    : 
OTHER_61           .         <_techsia_sc_> Дата тарировки температуры 25.05.2010: 
OTHER_62           .         Ручной ввод коэффициентов     : 
OTHER_63           .         TM.DEGC = 0.00402*RTM.E.ACP + -0.994: 
OTHER_64           .         <_techsia_sc_> Дата тарировки давления 25.05.2010: 
OTHER_65           .         Ручной ввод коэффициентов     : 
OTHER_66           .         MN.ATM = (2.27521e-006*TM.DEGC + 0.02078)*(RMN.E.ACP + 6.2*TM.DEGC + -1688): 
OTHER_67           .         <_techsia_sc_> Дата тарировки ГК 25.05.2010: 
OTHER_68           .         Ручной ввод коэффициентов     : 
OTHER_69           .         GR.UR/H = RGR.IMP/MIN / 45.5144: 
OTHER_7            .         Вид исследований 3  6         : 
OTHER_70           .         GK.FLT = 0.1*GR.UR/H[-1] + (1-0.1)*GR.UR/H[0]: 
OTHER_8            .         Начало бурения интервала каротажа: 
OTHER_9            .         Окончание бурения интервала каротажа: 
PROJECT_UPGRADE_TIME .         2021-03-18T21_24_50           : 
TLFamily_CCLC      .                                       : 
TLFamily_DEPT      .         Measured Depth                : 
TLFamily_GK        .         Gamma Ray                     : 
TLFamily_GR        .         Gamma Ray                     : 
TLFamily_METKA     .                                       : 
TLFamily_MN        .                                       : 
TLFamily_RCOR      .                                       : 
TLFamily_RGR       .                                       : 
TLFamily_RMN       .                                       : 
TLFamily_RTEN      .                                       : 
TLFamily_RTM       .                                       : 
TLFamily_SPEE      .         Cable Speed                   : 
TLFamily_TIME      .         Time                          : 
TLFamily_TM        .         Temperature                   : 
group              .         prim                          : 
~Curve Information
#_______________________________________________________________________________
#
#LOGNAME           .UNIT     LOG_ID                        : DESCRIPTION
#_______________________________________________________________________________
DEPT               .M                                      : 1 Глубина, м -    0.0 см 
CCLC               .E.ACP                                  : 9 Локатор муфт,  -   20.0 см 
GK                 .FLT                                    : 14 Гамма-активность фильтрованная, мкр./ч -  110.0 см 
GR                 .UR/H                                   : 13 Гамма-активность, мкр./ч -  110.0 см 
METKA              .CU                                     : 3 Метки,  -    0.0 см 
MN                 .ATM                                    : 12 Давление, атм. -  160.0 см 
RCOR               .CM/KM                                  : 5 Коррекция по ролику, см/км -    0.0 см 
RGR                .IMP/MIN                                : 10 Гамма-активность, усл.ед. -  110.0 см 
RMN                .E.ACP                                  : 8 Давление, усл.ед. -  160.0 см 
RTEN               .T                                      : 6 Натяжение кабеля, т -    0.0 см 
RTM                .E.ACP                                  : 7 Температура, усл.ед. -  170.0 см 
SPEE               .M/H                                    : 2 Скорость, м/час -    0.0 см 
TIME               .S                                      : 4 Время, сек -    0.0 см 
TM                 .DEGC                                   : 11 Температура, °C -  170.0 см 
~Ascii
2656.0000000 -9999      -9999      -9999      -9999      -9999      -9999      -9999      -9999      -9999      -9999      -9999      -9999      -9999     
2656.2     -9999      -9999      -9999      0          -9999      -1119      -9999      -9999      0.21       -9999      495        0.49       -9999     
2656.4     254        -9999      -9999      0          -9999      -1119      -9999      -9999      0.21       -9999      536        1.61       -9999     
2656.599999 303        -9999      -9999      0          -9999      -1119      -9999      -9999      0.21       -9999      563        2.76       -9999     
2656.799999 300        -9999      -9999      0          -9999      -1119      -9999      -9999      0.21       -9999      583        3.92       -9999     
2656.999999 502        -9999      -9999      0          -9999      -1119      -9999      -9999      0.21       -9999      590        5.17       -9999     
2657.199999 241        -9999      -9999      0          -9999      -1119      -9999      -9999      0.21       -9999      593        6.32       -9999     
2657.399999 4694       9.49       9.49       0          -9999      -1119      432        -9999      0.21       -9999      597        7.52       -9999     
2657.599998 3002       8.44       8.44       0          -9999      -1119      384        -9999      0.21       -9999      597        8.72       -9999     
2657.799998 864        8.44       8.44       0          238.698    -1119      384        12683      0.21       -9999      596        10.01      -9999     
2657.999998 346        7.6        7.6        0          238.768    -1119      346        12687      0.21       16657      590        11.24      65.967    
2658.199998 239        7.6        7.6        0          238.691    -1119      346        12684      0.21       16648      588        12.5       65.933    
2658.399998 248        8.31       8.31       0          238.675    -1119      378        12683      0.21       16641      586        13.73      65.903    
2658.599997 129        8.31       8.31       0          238.711    -1119      378        12685      0.21       16633      585        15.02      65.873    
2658.799997 227        8.58       8.58       0          238.686    -1119      391        12684      0.21       16625      585        16.27      65.84     
2658.999997 134        8.63       8.63       0          238.745    -1119      393        12687      0.21       16620      584        17.47      65.818    
2659.199997 198        7.21       7.21       0          238.804    -1119      328        12690      0.21       16613      584        18.7       65.79     
2659.399997 124        7.21       7.21       0          238.82     -1119      328        12691      0.21       16606      583        19.94      65.763    
2659.599996 183        6.46       6.46       0          238.853    -1119      294        12693      0.21       16599      582        21.23      65.733    
2659.799996 224        6.46       6.46       0          238.874    -1119      294        12694      0.21       16591      582        22.45      65.704    
2659.999996 210        6.83       6.83       0          238.848    -1119      311        12693      0.21       16585      586        23.65      65.677    
2660.199996 237        6.83       6.83       0          238.862    -1119      311        12694      0.21       16575      591        24.84      65.638    
2660.399996 188        7.18       7.18       0          238.854    -1119      327        12694      0.21       16565      589        26.11      65.596    
2660.599995 158        7.18       7.18       0          238.86     -1119      327        12694      0.21       16557      588        27.37      65.564    
2660.799995 190        7.17       7.17       0          238.902    -1119      326        12697      0.21       16551      587        28.56      65.541    
2660.999995 171        7.16       7.16       0          238.926    -1119      326        12698      0.21       16543      588        29.83      65.507    
2661.199995 107        6.81       6.81       0          238.969    -1119      310        12700      0.21       16534      587        31.02      65.471    
2661.399995 226        6.81       6.81       0          238.999    -1119      310        12702      0.21       16526      587        32.28      65.439    
2661.599994 249        7.25       7.25       0          238.993    -1119      330        12702      0.21       16515      588        33.5       65.396    
2661.799994 165        7.34       7.34       0          239.005    -1119      334        12703      0.21       16507      587        34.73      65.366    
2661.999994 167        8.11       8.11       0          239.005    -1119      369        12703      0.21       16499      586        35.94      65.332    
2662.199994 193        8.11       8.11       0          239.01     -1119      369        12704      0.21       16492      587        37.26      65.305    
2662.399994 257        7.87       7.87       0          239.029    -1119      358        12705      0.21       16484      587        38.45      65.272    
2662.599993 204        7.87       7.87       0          239.051    -1119      358        12706      0.21       16475      586        39.71      65.235    
2662.799993 128        7.95       7.95       0          239.067    -1119      362        12707      0.21       16466      586        40.91      65.201    
2662.999993 216        8.11       8.11       0          239.093    -1119      369        12709      0.21       16458      587        42.15      65.167    
2663.199993 132        8.79       8.79       0          239.119    -1119      400        12710      0.21       16449      589        43.38      65.129    
2663.399993 140        8.79       8.79       0          239.135    -1119      400        12711      0.21       16440      588        44.63      65.096    
2663.599992 118        8.72       8.72       0          239.151    -1119      397        12712      0.21       16433      588        45.83      65.068    
2663.799992 154        8.66       8.66       0          239.159    -1119      394        12713      0.21       16424      589        47.02      65.03     
2663.999992 133        8.35       8.35       0          239.161    -1119      380        12713      0.21       16417      589        48.34      65        
2664.199992 98         8.35       8.35       0          239.176    -1119      380        12714      0.21       16407      588        49.55      64.96     
2664.399992 93         8.29       8.29       0          239.2      -1119      378        12715      0.21       16400      589        50.73      64.933    
2664.599991 89         8.24       8.24       0          239.206    -1119      375        12716      0.21       16389      590        51.94      64.89     
2664.799991 157        8.24       8.24       0          239.24     -1119      375        12718      0.21       16379      590        53.27      64.851    
2664.999991 281        7.38       7.38       0          239.258    -1119      336        12719      0.21       16371      592        54.45      64.819    
2665.199991 199        7.29       7.29       0          239.274    -1119      332        12720      0.21       16363      592        55.66      64.783    
2665.399991 244        7.23       7.23       0          239.309    -1119      329        12722      0.21       16352      591        56.84      64.741    
2665.59999 189        7.23       7.23       0          239.347    -1119      329        12724      0.21       16345      591        58.07      64.714    
2665.79999 308        8.11       8.11       0          239.345    -1119      369        12724      0.21       16336      591        59.38      64.678    
2665.99999 248        8.11       8.11       0          239.365    -1119      369        12725      0.21       16329      590        60.56      64.65     
2666.19999 267        7.98       7.98       0          239.372    -1119      363        12726      0.21       16319      591        61.77      64.608    
