~Version
 VERS              .         2.0                           : CWLS LOG ASCII STANDARD - VERSION 2.0
 WRAP              .         NO                            : ONE LINE PER DEPTH STEP
 DLM               .         SPACE                         : DELIMITING CHARACTER(SPACE TAB OR COMMA)
~Well Information
#_______________________________________________________________________________
#
#PARAMETER_NAME    .UNIT     VALUE                         : DESCRIPTION
#_______________________________________________________________________________
STRT               .M        2696.4                        : First reference value
STOP               .M        2750.4                        : Last reference value
STEP               .M        0.2                           : Step increment
NULL               .         -9999                         : Missing value
COMP               .                                       : Company
WELL               .         616                           : Well name
FLD                .                                       : Field
LOC                .                                       : Location
CNTY               .                                       : County
STAT               .                                       : State
CTRY               .                                       : Country
SRVC               .                                       : Service Company
DATE               .                                       : Date
API                .                                       : API number
PROJECT_UPGRADE_TIME .         2021-03-18T21_24_50           : 
group              .         Good                          : 
~Parameter Information Block
#_______________________________________________________________________________
#
#PARAMETER_NAME    .UNIT     VALUE                         : DESCRIPTION
#_______________________________________________________________________________
SET                .         D1804_D                       : 
OTHER              .         Программное обеспечение станции MONITOR-386EX 25/12/99 15_08_10   BGF V52 22/08/01 16_56_30   3.1_SNGF___BGF_N_092049: 
OTHER_10           .         Тарировки_                    : 
OTHER_11           .         RGD.M3/SUT = 0.822396 * RGD.UE + 26.7014: 
OTHER_2            .         Kedr.exe версия 3.4.2.51      : 
OTHER_3            .         KedrData.dll версия 3.4.2.24  : 
OTHER_4            .         Драйвер версия 2.1.0.2        : 
OTHER_5            .         Мнемоники версия 3.3 S        : 
OTHER_6            .         Прибор_ Гранат                : 
OTHER_7            .         Номер прибора_ 1229           : 
OTHER_8            .         Режим_ КСА_Гранат             : 
OTHER_9            .         Форма_ КВА                    : 
PROJECT_UPGRADE_TIME .         2021-03-18T21_24_49           : 
TLFamily_DEPT      .         Measured Depth                : 
TLFamily_METKA     .                                       : 
TLFamily_RCOR      .                                       : 
TLFamily_RGD       .                                       : 
TLFamily_RGD_2     .                                       : 
TLFamily_SPID      .         Spontaneous Potential         : 
TLFamily_TENS      .         Cable Tension                 : 
TLFamily_TIME      .         Time                          : 
group              .         prim                          : 
~Curve Information
#_______________________________________________________________________________
#
#LOGNAME           .UNIT     LOG_ID                        : DESCRIPTION
#_______________________________________________________________________________
DEPT               .M                                      : 1 Глубина, м -    0.0 см 
METKA              .                                       : 3 Метки,  -    0.0 см 
RCOR               .CM/KM                                  : 5 Коррекция по ролику, см/км -    0.0 см 
RGD                .UE                                     : 7 Расход, имп/мин -  232.0 см 
RGD_2              .M3/SUT                                 : 8 Расход, м3/сут -  232.0 см 
SPID               .M/H                                    : 2 Скорость, м/час -    0.0 см 
TENS               .T                                      : 6 Натяжение кабеля, т -    0.0 см 
TIME               .S                                      : 4 Время, сек -    0.0 см 
~Ascii
# ...
2714.6     0          -635       487        427.52     -221       0.19       2863.48   
2714.8     0          -635       493        432.26     -202       0.19       2860.19   
2715       0          -635       487        427.18     -213       0.17       2856.59   
2715.2     0          -635       495        433.83     -215       0.19       2853.31   
2715.4     0          -635       491        430.21     -197       0.19       2849.91   
2715.6     0          -635       502        439.84     -208       0.19       2846.52   
2715.8     0          -635       502        439.35     -209       0.17       2843.13   
2716       0          -635       503        439.96     -209       0.19       2839.73   
2716.2     0          -635       508        444.62     -208       0.19       2836.44   
2716.4     0          -635       505        441.83     -189       0.19       2833.05   
2716.6     0          -635       503        440.7      -210       0.19       2829.45   
2716.8     0          -635       497        435.5      -207       0.19       2826.25   
2717       0          -635       498        435.98     -213       0.19       2822.75   
2717.2     0          -635       490        429.27     -211       0.17       2819.36   
2717.4     0          -635       480        421.32     -206       0.17       2815.97   
2717.6     0          -635       490        429.88     -216       0.19       2812.58   
2717.8     0          -635       488        428.42     -207       0.19       2809.38   
2718       0          -635       488        428.01     -211       0.19       2805.89   
2718.2     0          -635       491        430.59     -216       0.17       2802.48   
2718.4     0          -635       494        433.24     -213       0.17       2799.09   
2718.6     0          -635       496        434.91     -219       0.19       2795.7    
2718.8     0          -635       492        430.91     -214       0.17       2792.41   
2719       0          -635       474        416.74     -215       0.19       2788.92   
2719.2     0          -635       465        409.41     -219       0.19       2785.63   
2719.4     0          -635       466        409.8      -212       0.19       2782.33   
2719.6     0          -635       469        412.66     -218       0.19       2778.73   
2719.8     0          -635       476        417.93     -219       0.19       2775.53   
2720       2          -635       479        420.43     -218       0.19       2772.14   
2720.2     0          -628       476        417.87     -211       0.19       2767.45   
2720.4     0          -628       472        415.19     -208       0.19       2764.16   
2720.6     0          -628       453        399.42     -207       0.19       2760.77   
2720.8     0          -628       455        401.01     -208       0.19       2757.47   
2721       0          -628       459        404.29     -193       0.19       2754.12   
2721.2     0          -628       459        404.47     -210       0.19       2750.48   
2721.4     0          -628       450        396.5      -213       0.19       2747.19   
2721.6     0          -628       454        400.02     -213       0.19       2743.8    
2721.8     0          -628       455        401.13     -207       0.19       2740.6    
2722       0          -628       451        397.24     -213       0.19       2737.11   
2722.2     0          -628       454        400.01     -214       0.19       2733.7    
2722.4     0          -628       473        415.87     -234       0.19       2730.41   
2722.6     0          -628       474        416.68     -174       0.19       2727.02   
2722.8     0          -628       478        419.42     -193       0.19       2723.53   
2723       0          -628       468        411.24     -187       0.19       2720.23   
2723.2     0          -628       459        404.58     -217       0.19       2716.84   
2723.4     0          -628       453        399.3      -205       0.19       2713.44   
2723.6     0          -628       473        415.42     -203       0.19       2710.14   
2723.8     0          -628       489        429.02     -201       0.19       2706.86   
2724       0          -628       485        425.61     -203       0.19       2703.45   
2724.2     0          -628       481        422.23     -183       0.19       2700.06   
2724.4     0          -628       480        421.57     -205       0.19       2696.47   
2724.6     0          -628       480        421.57     -207       0.19       2693.17   
2724.8     0          -628       482        423.01     -204       0.19       2689.88   
2725       0          -628       510        446.08     -205       0.19       2686.39   
2725.2     0          -628       539        469.98     -207       0.19       2683.09   
2725.4     0          -628       536        467.5      -204       0.17       2679.8    
2725.6     0          -628       533        464.71     -203       0.19       2676.41   
2725.8     0          -628       538        469.5      -184       0.19       2673.11   
2726       0          -628       543        473.13     -206       0.19       2669.52   
2726.2     0          -628       529        461.46     -205       0.19       2666.22   
2726.4     0          -628       521        455.13     -209       0.19       2662.83   
2726.6     0          -628       517        452.12     -208       0.19       2659.53   
2726.8     0          -628       516        451.39     -208       0.19       2656.14   
2727       0          -628       515        449.89     -215       0.19       2652.84   
2727.2     0          -628       510        446.28     -205       0.19       2649.45   
2727.4     0          -628       496        434.48     -190       0.19       2646.06   
2727.6     0          -628       479        420.68     -188       0.19       2642.47   
2727.8     0          -628       446        393.71     -207       0.19       2639.27   
2728       0          -628       448        395        -216       0.19       2635.77   
2728.2     0          -628       460        405.11     -201       0.19       2632.38   
2728.4     0          -628       451        397.47     -202       0.19       2629.08   
2728.6     0          -628       450        396.6      -202       0.19       2625.69   
2728.8     0          -628       434        383.4      -206       0.19       2622.5    
2729       0          -628       417        369.95     -204       0.19       2618.91   
2729.2     0          -628       413        366.02     -203       0.19       2615.5    
2729.4     0          -628       407        361.72     -201       0.19       2612.22   
2729.6     0          -628       400        355.3      -204       0.19       2608.81   
2729.8     0          -628       393        350.19     -201       0.19       2605.52   
2730       2          -621       399        354.81     -222       0.19       2600.94   
2730.2     0          -621       396        352.45     -222       0.19       2597.53   
2730.4     0          -621       401        356.54     -211       0.19       2594.25   
2730.6     0          -621       384        342.61     -218       0.19       2590.75   
2730.8     0          -621       364        325.96     -218       0.19       2587.36   
2731       0          -621       311        282.06     -211       0.19       2583.95   
2731.2     0          -621       228        213.94     -219       0.21       2580.67   
2731.4     0          -621       112        119.05     -207       0.19       2577.38   
2731.6     0          -621       102        110.97     -216       0.19       2573.97   
2731.8     0          -621       95         104.68     -218       0.19       2570.58   
2732       0          -621       97         106.62     -210       0.19       2567.19   
2732.2     0          -621       103        111.05     -200       0.19       2563.59   
2732.4     0          -621       95         104.49     -202       0.19       2560.2    
2732.6     0          -621       98         107.58     -207       0.19       2556.91   
