~Version
 VERS              .         2.0                           : CWLS LOG ASCII STANDARD - VERSION 2.0
 WRAP              .         NO                            : ONE LINE PER DEPTH STEP
 DLM               .         SPACE                         : DELIMITING CHARACTER(SPACE TAB OR COMMA)
~Well Information
#_______________________________________________________________________________
#
#PARAMETER_NAME    .UNIT     VALUE                         : DESCRIPTION
#_______________________________________________________________________________
STRT               .M        827.6                         : First reference value
STOP               .M        1707.2                        : Last reference value
STEP               .M        0.2                           : Step increment
NULL               .         -9999                         : Missing value
COMP               .                                       : Company
WELL               .         616                           : Well name
FLD                .                                       : Field
LOC                .                                       : Location
CNTY               .                                       : County
STAT               .                                       : State
CTRY               .                                       : Country
SRVC               .                                       : Service Company
DATE               .                                       : Date
API                .                                       : API number
PROJECT_UPGRADE_TIME .         2021-03-18T21_24_50           : 
group              .         Good                          : 
~Parameter Information Block
#_______________________________________________________________________________
#
#PARAMETER_NAME    .UNIT     VALUE                         : DESCRIPTION
#_______________________________________________________________________________
SET                .         616_8                         : 
CONF               .         00                            : 
END                .         0                             : 
ERR                .         0                             : 
GS00               .M        1705.33                       : 
GS01               .M        0825.11                       : 
MM00               .M        0210.00                       : 
NOKG               .         0                             : 
NPR                .         980615                        : 
PART               .         Бутенко                       : 
PROJECT_UPGRADE_TIME .         2021-03-18T21_24_49           : 
PRZK               .         Шакиров                       : 
TLFamily_AZIMUTH   .         True Dip Azimuth              : 
TLFamily_DEPTH     .         Measured Depth                : 
TLFamily_METKA     .                                       : 
TLFamily_ROLL      .                                       : 
TLFamily_SPEED     .         Spontaneous Potential         : 
TLFamily_ZENIT     .                                       : 
VPRG               .         310                           : 
WAY                .         UP                            : 
group              .         prim                          : 
~Curve Information
#_______________________________________________________________________________
#
#LOGNAME           .UNIT     LOG_ID                        : DESCRIPTION
#_______________________________________________________________________________
DEPTH              .M                                      :  
AZIMUTH            .DEG                                    :  
METKA              .                                       :  
ROLL               .DEG                                    :  
SPEED              .M/H                                    :  
ZENIT              .DEG                                    :  
~Ascii
# ...
1218       274.3      0          207.78     648        33.69     
1218.2     275.13     0          207.63     648        33.33     
1218.4     279.72     0          207.51     684        33.6      
1218.6     282.55     0          207.82     648        33.4      
1218.8     288.13     0          207.89     612        33.54     
1219       294.59     0          207.39     612        33.5      
1219.2     302.24     0          207.64     648        33.35     
1219.4     312.38     0          208.02     648        33.85     
1219.6     320.87     0          207.63     612        32.97     
1219.8     334.03     0          206.51     648        33.78     
1220       343.8      0          205.27     648        33.65     
1220.2     351.58     0          204.61     648        33.55     
1220.4     1.21       0          205.02     648        33.96     
1220.6     352.33     0          206.01     648        33.61     
1220.8     353.28     0          206.53     684        34.11     
1221       227.6      0          206.23     648        33.94     
1221.2     172.26     0          203.74     612        33.57     
1221.4     156.73     0          200.47     648        34.37     
1221.6     61.78      0          201.88     648        33.54     
1221.8     114.64     0          206.87     648        34.61     
1222       210.52     0          210        612        33.5      
1222.2     191.58     1          211.01     648        33.28     
1222.4     245.12     0          210.63     648        33.56     
1222.6     322.47     0          208.76     648        32.73     
1222.8     285.54     0          207.16     648        33.32     
1223       121.88     0          205.34     648        33.16     
1223.2     317.44     0          198.21     648        32.69     
1223.4     359.94     0          194.03     612        33.81     
1223.6     359.75     0          200.6      648        32.97     
1223.8     349.6      0          206.7      648        33.73     
1224       334.6      0          208.13     612        33.04     
1224.2     8.86       0          208.51     648        33.44     
1224.4     352.79     0          208.95     648        33.46     
1224.6     13.15      0          209.03     648        33.24     
1224.8     3.95       0          208.07     648        33.51     
1225       358.75     0          207.58     648        33.45     
1225.2     1.81       0          207.49     612        33.54     
1225.4     340.1      0          207.76     648        33.38     
1225.6     348.78     0          208.61     648        33.38     
1225.8     350.44     0          209.19     576        33.61     
1226       353.8      0          209.62     648        33.01     
1226.2     351.13     0          210.12     648        33.6      
1226.4     354.42     0          210.75     612        33.22     
1226.6     357.8      0          210.86     648        33.42     
1226.8     2.54       0          210.43     612        33.36     
1227       0.17       0          209.18     648        33.34     
1227.2     1.98       0          207.55     612        33.78     
1227.4     3.34       0          207.28     612        33.05     
1227.6     1.08       0          207.61     648        33.49     
1227.8     356.33     0          207.67     612        33.36     
1228       355.52     0          208.26     612        33.38     
1228.2     351.84     0          208.81     648        33.54     
1228.4     347.08     0          208.79     612        33.33     
1228.6     359.47     0          208.67     648        33.81     
1228.8     349.4      0          208.72     648        33.21     
1229       351.28     0          209.32     612        33.45     
1229.2     356.04     0          209.93     648        33.43     
1229.4     352.8      0          213.19     612        32.93     
1229.6     355.86     0          224.29     612        32.74     
1229.8     356.66     0          236.73     648        33.48     
1230       3.86       0          242.81     648        33.37     
1230.2     356.46     0          246.51     612        33.19     
1230.4     356.4      0          251.41     648        33.59     
1230.6     351.91     0          262.07     612        33.17     
1230.8     355.59     0          282.27     648        34.09     
1231       0.73       0          304.85     612        33.82     
1231.2     345.95     0          318.04     648        33.69     
1231.4     352.56     0          325.14     648        34.07     
1231.6     350.65     0          341.47     612        34.24     
1231.8     8.73       0          7.38       648        32.51     
1232       358.84     0          29.46      648        32.88     
1232.2     5.88       1          46.75      612        33.23     
1232.4     0.88       0          62.24      648        33.09     
1232.6     1.64       0          78.04      648        34.06     
1232.8     356.96     0          94         612        34.06     
1233       359.97     0          106.72     612        34        
1233.2     327.21     0          115.63     648        34.36     
1233.4     252.21     0          117.68     612        33.93     
1233.6     256.18     0          118.7      612        34.55     
1233.8     279.2      0          121.69     648        34.31     
1234       315.67     0          126.08     612        33.43     
1234.2     299.94     0          130.94     648        33.95     
1234.4     313.6      0          134.98     612        33.46     
1234.6     321.29     0          138.49     612        32.95     
1234.8     323.37     0          139.08     648        33.03     
1235       0.94       0          137.65     648        33.1      
1235.2     1.37       0          137.01     612        33.39     
1235.4     347.02     0          137.14     612        32.96     
1235.6     27.22      0          141.81     648        33.44     
1235.8     358.94     0          150.9      648        34.8      
1236       356.42     0          156.42     612        33.55     
1236.2     18.94      0          158        648        33.59     
1236.4     354.47     0          158.37     612        33.63     
1236.6     357.79     0          158.33     648        33.68     
1236.8     14.63      0          157.91     612        33.76     
1237       352.79     0          157.3      648        33.09     
1237.2     340.12     0          156.69     612        34.03     
1237.4     19.42      0          156.89     648        33.69     
1237.6     349.99     0          157.39     612        33.62     
1237.8     9.13       0          157.6      648        33.87     
1238       12.73      0          157.92     612        33.48     
1238.2     341.52     0          158.09     648        34.3      
1238.4     32.88      0          157.72     648        32.87     
1238.6     359.36     0          157.08     648        34.02     
1238.8     340.24     0          156.7      612        33.8      
1239       9.24       0          156.87     612        33.76     
1239.2     14.31      0          157.36     648        34.01     
1239.4     2.42       0          158.28     612        33.51     
1239.6     21.17      0          159.26     612        33.98     
1239.8     11.58      0          159.26     612        33.87     
1240       353.21     0          159.29     648        33.36     
1240.2     26.18      0          159.32     612        34.26     
1240.4     354.14     0          159.43     648        33.57     
1240.6     356.95     0          159.79     612        34.29     
1240.8     10.02      0          160.06     648        33.29     
1241       357.3      0          160.22     612        34.24     
1241.2     65.98      0          160.38     612        33.82     
1241.4     27.27      0          163.94     612        33.56     
1241.6     355.83     0          178.44     648        33.94     
1241.8     2.52       0          194.12     612        33.51     
1242       9.04       0          201.44     648        34        
1242.2     7.43       1          203.79     648        33.61     
