~Version
 VERS              .         2.0                           : CWLS LOG ASCII STANDARD - VERSION 2.0
 WRAP              .         NO                            : ONE LINE PER DEPTH STEP
 DLM               .         SPACE                         : DELIMITING CHARACTER(SPACE TAB OR COMMA)
~Well Information
#_______________________________________________________________________________
#
#PARAMETER_NAME    .UNIT     VALUE                         : DESCRIPTION
#_______________________________________________________________________________
STRT               .M        46                            : First reference value
STOP               .M        2756.6                        : Last reference value
STEP               .M        0.2                           : Step increment
NULL               .         -9999                         : Missing value
COMP               .                                       : Company
WELL               .         616                           : Well name
FLD                .                                       : Field
LOC                .                                       : Location
CNTY               .                                       : County
STAT               .                                       : State
CTRY               .                                       : Country
SRVC               .                                       : Service Company
DATE               .                                       : Date
API                .                                       : API number
PROJECT_UPGRADE_TIME .         2021-03-18T21_24_50           : 
group              .         Good                          : 
~Parameter Information Block
#_______________________________________________________________________________
#
#PARAMETER_NAME    .UNIT     VALUE                         : DESCRIPTION
#_______________________________________________________________________________
SET                .         D4390_D                       : 
OTHER              .         Запись производится в присутствии: 
OTHER_10           .         Максимальная температура      : 
OTHER_100          .         GK.FLT = 0.1*GR.UR/H[-1] + (1-0.1)*GR.UR/H[0]: 
OTHER_11           .         Тип промывочной жидкости      : 
OTHER_12           .         Сопротивление ПЖ (Ом*м) при 20°C: 
OTHER_13           .         Плотность ПЖ(г/см3)           : 
OTHER_14           .         Вязкость ПЖ(с)                : 
OTHER_15           .         Водоотдача ПЖ(см3/30мин)      : 
OTHER_16           .         Уровень ПЖ                    : 
OTHER_17           .         Нефть ПЖ (%)                  : 
OTHER_18           .         Барит ПЖ (%)                  : 
OTHER_19           .         Гематит ПЖ (%)                : 
OTHER_2            .         Заказчик ННСН  ЦДНГ-1         : 
OTHER_20           .         КМЦ ПЖ (%)                    : 
OTHER_21           .         Разгазирование ПЖ (да,нет)    : 
OTHER_22           .         Подъемник                     : 
OTHER_23           .         Лаборатория                   : 
OTHER_24           .         Тип кабеля                    : 
OTHER_25           .         Длина кабеля (м)              : 
OTHER_26           .         Цена последней метки          : 
OTHER_27           .         Цена контрольной метки        : 
OTHER_28           .         Диаметр долота (мм)           : 
OTHER_29           .         Глубина бурения (м)           : 
OTHER_3            .         Площадь                       : 
OTHER_30           .         Искусственный забой (м)       : 
OTHER_31           .         Диаметр колонны (мм)          : 
OTHER_32           .         Толщина колонны (мм)          : 
OTHER_33           .         Башмак колонны (м)            : 
OTHER_34           .         Диаметр НКТ (мм)              : 
OTHER_35           .         Толщина НКТ (мм)              : 
OTHER_36           .         Воронка НКТ (м)               : 
OTHER_37           .         Дата цементожа                : 
OTHER_38           .         Тип, количество(т) и плотность цемента: 
OTHER_39           .         Интервалы перфорации (м)      : 
OTHER_4            .         Категория                     : 
OTHER_40           .         Направление, диаметр (мм)     : 
OTHER_41           .         Направление, глубина (м)      : 
OTHER_42           .         Кондуктор, диаметр (мм)       : 
OTHER_43           .         Кондуктор, глубина (м)        : 
OTHER_44           .         Техническая колонна, диаметр (мм): 
OTHER_45           .         Техническая колонна, глубина (м): 
OTHER_46           .         Эксплуатационная колонна, диаметр (мм): 
OTHER_47           .         Эксплуатационная колонна, глубина (м): 
OTHER_48           .         Программа Кедр-02 версия 3.4  : 
OTHER_49           .         Операционная система Windows NT 5.1 build 2600 Service Pack 2: 
OTHER_5            .         Назначение исследований       : 
OTHER_50           .         Программное обеспечение станции MONITOR-386EX 25/12/99 15_08_10   BGF V54 20/09/05 15_32_17   3.3__BGF_9030071: 
OTHER_51           .         Kedr.exe версия 3.4.2.74      : 
OTHER_52           .         KedrData.dll версия 3.4.2.29  : 
OTHER_53           .         Мнемоники версия 3.18 S       : 
OTHER_54           .         Драйвер версия 2.1.1.4        : 
OTHER_55           .         LasInf.dll 4.3.0.35           : 
OTHER_56           .         Прибор_ КСА-Т4                : 
OTHER_57           .         Номер прибора_ 160            : 
OTHER_58           .         Режим_ КСА-Т4                 : 
OTHER_59           .         Форма_ С.А.Б.                 : 
OTHER_6            .         Альтитуда стола ротора        : 
OTHER_60           .         Тарировки_                    : 
OTHER_61           .         <_techsia_sc_> Дата тарировки температуры 25.05.2010: 
OTHER_62           .         Ручной ввод коэффициентов     : 
OTHER_63           .         TM.DEGC = 0.00402*RTM.E.ACP + -0.994: 
OTHER_64           .         <_techsia_sc_> Дата тарировки давления 25.05.2010: 
OTHER_65           .         Ручной ввод коэффициентов     : 
OTHER_66           .         MN.ATM = (2.27521e-006*TM.DEGC + 0.02078)*(RMN.E.ACP + 6.2*TM.DEGC + -1688): 
OTHER_67           .         <_techsia_sc_> Дата тарировки ГК 25.05.2010: 
OTHER_68           .         Ручной ввод коэффициентов     : 
OTHER_69           .         GR.UR/H = RGR.IMP/MIN / 45.5144: 
OTHER_7            .         Вид исследований 3  6         : 
OTHER_70           .         GK.FLT = 0.1*GR.UR/H[-1] + (1-0.1)*GR.UR/H[0]: 
OTHER_71           .         <_techsia_sc_> Дата тарировки температуры 25.05.2010: 
OTHER_72           .         Ручной ввод коэффициентов     : 
OTHER_73           .         TM.DEGC = 0.00402*RTM.E.ACP + -0.994: 
OTHER_74           .         <_techsia_sc_> Дата тарировки давления 25.05.2010: 
OTHER_75           .         Ручной ввод коэффициентов     : 
OTHER_76           .         MN.ATM = (2.27521e-006*TM.DEGC + 0.02078)*(RMN.E.ACP + 6.2*TM.DEGC + -1688): 
OTHER_77           .         <_techsia_sc_> Дата тарировки ГК 25.05.2010: 
OTHER_78           .         Ручной ввод коэффициентов     : 
OTHER_79           .         GR.UR/H = RGR.IMP/MIN / 45.5144: 
OTHER_8            .         Начало бурения интервала каротажа: 
OTHER_80           .         GK.FLT = 0.1*GR.UR/H[-1] + (1-0.1)*GR.UR/H[0]: 
OTHER_81           .         <_techsia_sc_> Дата тарировки температуры 25.05.2010: 
OTHER_82           .         Ручной ввод коэффициентов     : 
OTHER_83           .         TM.DEGC = 0.00402*RTM.E.ACP + -0.994: 
OTHER_84           .         <_techsia_sc_> Дата тарировки давления 25.05.2010: 
OTHER_85           .         Ручной ввод коэффициентов     : 
OTHER_86           .         MN.ATM = (2.27521e-006*TM.DEGC + 0.02078)*(RMN.E.ACP + 6.2*TM.DEGC + -1688): 
OTHER_87           .         <_techsia_sc_> Дата тарировки ГК 25.05.2010: 
OTHER_88           .         Ручной ввод коэффициентов     : 
OTHER_89           .         GR.UR/H = RGR.IMP/MIN / 45.5144: 
OTHER_9            .         Окончание бурения интервала каротажа: 
OTHER_90           .         GK.FLT = 0.1*GR.UR/H[-1] + (1-0.1)*GR.UR/H[0]: 
OTHER_91           .         <_techsia_sc_> Дата тарировки температуры 25.05.2010: 
OTHER_92           .         Ручной ввод коэффициентов     : 
OTHER_93           .         TM.DEGC = 0.00402*RTM.E.ACP + -0.994: 
OTHER_94           .         <_techsia_sc_> Дата тарировки давления 25.05.2010: 
OTHER_95           .         Ручной ввод коэффициентов     : 
OTHER_96           .         MN.ATM = (2.27521e-006*TM.DEGC + 0.02078)*(RMN.E.ACP + 6.2*TM.DEGC + -1688): 
OTHER_97           .         <_techsia_sc_> Дата тарировки ГК 25.05.2010: 
OTHER_98           .         Ручной ввод коэффициентов     : 
OTHER_99           .         GR.UR/H = RGR.IMP/MIN / 45.5144: 
PROJECT_UPGRADE_TIME .         2021-03-18T21_24_50           : 
TLFamily_CCLC      .                                       : 
TLFamily_DEPT      .         Measured Depth                : 
TLFamily_GK        .         Gamma Ray                     : 
TLFamily_GR        .         Gamma Ray                     : 
TLFamily_METKA     .                                       : 
TLFamily_MN        .                                       : 
TLFamily_RCOR      .                                       : 
TLFamily_RGR       .                                       : 
TLFamily_RMN       .                                       : 
TLFamily_RTEN      .                                       : 
TLFamily_RTM       .                                       : 
TLFamily_SPEE      .         Cable Speed                   : 
TLFamily_TIME      .         Time                          : 
TLFamily_TM        .         Temperature                   : 
group              .         prim                          : 
~Curve Information
#_______________________________________________________________________________
#
#LOGNAME           .UNIT     LOG_ID                        : DESCRIPTION
#_______________________________________________________________________________
DEPT               .M                                      : 1 Глубина, м -    0.0 см 
CCLC               .E.ACP                                  : 9 Локатор муфт,  -   20.0 см 
GK                 .FLT                                    : 14 Гамма-активность фильтрованная, мкр./ч -  110.0 см 
GR                 .UR/H                                   : 13 Гамма-активность, мкр./ч -  110.0 см 
METKA              .CU                                     : 3 Метки,  -    0.0 см 
MN                 .ATM                                    : 12 Давление, атм. -  160.0 см 
RCOR               .CM/KM                                  : 5 Коррекция по ролику, см/км -    0.0 см 
RGR                .IMP/MIN                                : 10 Гамма-активность, усл.ед. -  110.0 см 
RMN                .E.ACP                                  : 8 Давление, усл.ед. -  160.0 см 
RTEN               .T                                      : 6 Натяжение кабеля, т -    0.0 см 
RTM                .E.ACP                                  : 7 Температура, усл.ед. -  170.0 см 
SPEE               .M/H                                    : 2 Скорость, м/час -    0.0 см 
TIME               .S                                      : 4 Время, сек -    0.0 см 
TM                 .DEGC                                   : 11 Температура, °C -  170.0 см 
~Ascii
# ...
1304.4     1062       6.7        6.7        0          116.667    -745       305        7058       0.09       9171       1664       2754.39    35.871    
1304.6     764        6.7        6.7        0          116.672    -745       305        7058       0.09       9172       1664       2754.81    35.876    
1304.8     587        6.9        6.9        0          116.697    -745       314        7059       0.09       9173       1664       2755.26    35.881    
1305       561        7.18       7.18       0          116.699    -745       327        7059       0.09       9174       1662       2755.71    35.885    
1305.2     503        7.18       7.18       0          116.707    -745       327        7060       0.09       9175       1661       2756.14    35.89     
1305.4     428        7.18       7.18       0          116.754    -745       327        7062       0.09       9176       1661       2756.55    35.895    
1305.6     395        7.18       7.18       0          116.773    -745       327        7063       0.09       9178       1661       2757       35.902    
1305.8     378        7.18       7.18       0          116.762    -745       327        7062       0.09       9180       1662       2757.44    35.908    
1306       444        7.01       7.01       0          116.787    -745       319        7063       0.09       9181       1662       2757.87    35.913    
1306.2     414        6.79       6.79       0          116.811    -745       309        7065       0.09       9182       1662       2758.31    35.918    
1306.4     478        6.79       6.79       0          116.82     -745       309        7065       0.09       9182       1662       2758.74    35.918    
1306.6     488        6.79       6.79       0          116.862    -745       309        7067       0.09       9183       1663       2759.18    35.923    
1306.8     531        6.79       6.79       0          116.867    -745       309        7067       0.09       9185       1663       2759.61    35.928    
1307       644        6.79       6.79       0          116.869    -745       309        7067       0.09       9186       1663       2760.03    35.933    
1307.2     678        6.44       6.44       0          116.878    -745       293        7068       0.09       9186       1663       2760.47    35.934    
1307.4     610        6.13       6.13       0          116.922    -745       279        7070       0.09       9187       1663       2760.9     35.938    
1307.6     833        6.13       6.13       0          116.927    -745       279        7070       0.09       9188       1663       2761.35    35.943    
1307.8     675        6.13       6.13       0          116.93     -745       279        7070       0.09       9190       1662       2761.77    35.948    
1308       754        6.13       6.13       0          116.955    -745       279        7071       0.09       9190       1659       2762.21    35.95     
1308.2     747        6.13       6.13       0          116.971    -745       279        7072       0.09       9191       1659       2762.65    35.953    
1308.4     614        6.27       6.27       0          116.999    -745       285        7073       0.09       9192       1660       2763.09    35.958    
1308.6     614        6.37       6.37       0          117.014    -745       290        7074       0.09       9193       1660       2763.52    35.963    
1308.8     578        6.37       6.37       0          117.014    -745       290        7074       0.09       9194       1660       2763.96    35.966    
1309       704        6.37       6.37       0          117.019    -745       290        7074       0.09       9195       1661       2764.41    35.968    
1309.2     730        6.3        6.3        0          117.036    -745       287        7075       0.09       9196       1661       2764.81    35.973    
1309.4     869        6.08       6.08       0          117.06     -745       277        7076       0.09       9197       1661       2765.27    35.978    
1309.6     905        6          6          0          117.079    -745       273        7077       0.09       9198       1662       2765.7     35.983    
1309.8     763        6          6          0          117.08     -745       273        7077       0.09       9199       1662       2766.12    35.987    
1310       1095       6          6          0          117.091    -745       273        7078       0.09       9201       1661       2766.54    35.992    
1310.2     907        6          6          0          117.144    -745       273        7080       0.09       9202       1659       2767       35.997    
1310.4     728        6          6          0          117.155    -745       273        7081       0.09       9203       1663       2767.43    36.002    
1310.6     822        6          6          0          117.151    -745       273        7080       0.09       9204       1668       2767.87    36.007    
1310.8     750        6          6          0          117.198    -745       273        7083       0.09       9205       1668       2768.28    36.011    
1311       824        6          6          0          117.207    -745       273        7083       0.09       9206       1667       2768.72    36.014    
1311.2     949        6          6          0          117.193    -745       273        7082       0.09       9207       1667       2769.16    36.017    
1311.4     1306       6          6          0          117.225    -745       273        7084       0.09       9207       1666       2769.59    36.018    
1311.6     1589       6          6          0          117.252    -745       273        7085       0.09       9208       1666       2770.03    36.022    
1311.8     1925       6.48       6.48       0          117.252    -745       295        7085       0.09       9209       1666       2770.47    36.027    
1312       1513       6.72       6.72       0          117.253    -745       306        7085       0.1        9210       1666       2770.89    36.032    
1312.2     1154       6.72       6.72       0          117.295    -745       306        7087       0.1        9212       1665       2771.32    36.036    
1312.4     931        6.72       6.72       0          117.301    -745       306        7087       0.1        9213       1665       2771.76    36.041    
1312.6     622        6.72       6.72       0          117.327    -745       306        7088       0.1        9214       1665       2772.21    36.046    
1312.8     567        6.72       6.72       0          117.339    -745       306        7089       0.1        9215       1665       2772.63    36.05     
1313       489        6.64       6.64       0          117.339    -745       302        7089       0.1        9215       1665       2773.07    36.051    
1313.2     698        6.61       6.61       0          117.361    -745       301        7090       0.1        9216       1665       2773.5     36.056    
1313.4     5935       6.61       6.61       0          117.403    -745       301        7092       0.1        9218       1665       2773.92    36.061    
1313.6     3933       6.61       6.61       0          117.403    -745       301        7092       0.1        9218       1665       2774.36    36.062    
1313.8     1784       6.61       6.61       0          117.414    -745       301        7092       0.1        9220       1665       2774.78    36.069    
1314       1381       6.67       6.67       0          117.455    -745       304        7094       0.1        9221       1664       2775.2     36.075    
1314.2     966        6.7        6.7        0          117.45     -745       305        7094       0.1        9222       1664       2775.68    36.08     
1314.4     786        6.7        6.7        0          117.471    -745       305        7095       0.1        9223       1664       2776.1     36.082    
1314.6     854        6.7        6.7        0          117.506    -745       305        7097       0.1        9224       1664       2776.52    36.085    
