~Version
 VERS              .         2.0                           : CWLS LOG ASCII STANDARD - VERSION 2.0
 WRAP              .         NO                            : ONE LINE PER DEPTH STEP
 DLM               .         SPACE                         : DELIMITING CHARACTER(SPACE TAB OR COMMA)
~Well Information
#_______________________________________________________________________________
#
#PARAMETER_NAME    .UNIT     VALUE                         : DESCRIPTION
#_______________________________________________________________________________
STRT               .M        2645.2                        : First reference value
STOP               .M        2753.000054                   : Last reference value
STEP               .M        0.2000001                     : Step increment
NULL               .         -9999                         : Missing value
COMP               .                                       : Company
WELL               .         616                           : Well name
FLD                .                                       : Field
LOC                .                                       : Location
CNTY               .                                       : County
STAT               .                                       : State
CTRY               .                                       : Country
SRVC               .                                       : Service Company
DATE               .                                       : Date
API                .                                       : API number
PROJECT_UPGRADE_TIME .         2021-03-18T21_24_50           : 
group              .         Good                          : 
~Parameter Information Block
#_______________________________________________________________________________
#
#PARAMETER_NAME    .UNIT     VALUE                         : DESCRIPTION
#_______________________________________________________________________________
SET                .         D4407_D                       : 
OTHER              .         Запись производится в присутствии: 
OTHER_10           .         Максимальная температура      : 
OTHER_11           .         Тип промывочной жидкости      : 
OTHER_12           .         Сопротивление ПЖ (Ом*м) при 20°C: 
OTHER_13           .         Плотность ПЖ(г/см3)           : 
OTHER_14           .         Вязкость ПЖ(с)                : 
OTHER_15           .         Водоотдача ПЖ(см3/30мин)      : 
OTHER_16           .         Уровень ПЖ                    : 
OTHER_17           .         Нефть ПЖ (%)                  : 
OTHER_18           .         Барит ПЖ (%)                  : 
OTHER_19           .         Гематит ПЖ (%)                : 
OTHER_2            .         Заказчик ННСН  ЦДНГ-1         : 
OTHER_20           .         КМЦ ПЖ (%)                    : 
OTHER_21           .         Разгазирование ПЖ (да,нет)    : 
OTHER_22           .         Подъемник                     : 
OTHER_23           .         Лаборатория                   : 
OTHER_24           .         Тип кабеля                    : 
OTHER_25           .         Длина кабеля (м)              : 
OTHER_26           .         Цена последней метки          : 
OTHER_27           .         Цена контрольной метки        : 
OTHER_28           .         Диаметр долота (мм)           : 
OTHER_29           .         Глубина бурения (м)           : 
OTHER_3            .         Площадь                       : 
OTHER_30           .         Искусственный забой (м)       : 
OTHER_31           .         Диаметр колонны (мм)          : 
OTHER_32           .         Толщина колонны (мм)          : 
OTHER_33           .         Башмак колонны (м)            : 
OTHER_34           .         Диаметр НКТ (мм)              : 
OTHER_35           .         Толщина НКТ (мм)              : 
OTHER_36           .         Воронка НКТ (м)               : 
OTHER_37           .         Дата цементожа                : 
OTHER_38           .         Тип, количество(т) и плотность цемента: 
OTHER_39           .         Интервалы перфорации (м)      : 
OTHER_4            .         Категория                     : 
OTHER_40           .         Направление, диаметр (мм)     : 
OTHER_41           .         Направление, глубина (м)      : 
OTHER_42           .         Кондуктор, диаметр (мм)       : 
OTHER_43           .         Кондуктор, глубина (м)        : 
OTHER_44           .         Техническая колонна, диаметр (мм): 
OTHER_45           .         Техническая колонна, глубина (м): 
OTHER_46           .         Эксплуатационная колонна, диаметр (мм): 
OTHER_47           .         Эксплуатационная колонна, глубина (м): 
OTHER_48           .         Программа Кедр-02 версия 3.4  : 
OTHER_49           .         Операционная система Windows NT 5.1 build 2600 Service Pack 2: 
OTHER_5            .         Назначение исследований       : 
OTHER_50           .         Программное обеспечение станции MONITOR-386EX 25/12/99 15_08_10   BGF V54 20/09/05 15_32_17   3.3__BGF_9030071: 
OTHER_51           .         Kedr.exe версия 3.4.2.74      : 
OTHER_52           .         KedrData.dll версия 3.4.2.29  : 
OTHER_53           .         Мнемоники версия 3.18 S       : 
OTHER_54           .         Драйвер версия 2.1.1.4        : 
OTHER_55           .         LasInf.dll 4.3.0.35           : 
OTHER_56           .         Прибор_ КСА-Т4                : 
OTHER_57           .         Номер прибора_ 160            : 
OTHER_58           .         Режим_ КСА-Т4                 : 
OTHER_59           .         Форма_ С.А.Б.                 : 
OTHER_6            .         Альтитуда стола ротора        : 
OTHER_60           .         Тарировки_                    : 
OTHER_61           .         <_techsia_sc_> Дата тарировки температуры 25.05.2010: 
OTHER_62           .         Ручной ввод коэффициентов     : 
OTHER_63           .         TM.DEGC = 0.00402*RTM.E.ACP + -0.994: 
OTHER_64           .         <_techsia_sc_> Дата тарировки давления 25.05.2010: 
OTHER_65           .         Ручной ввод коэффициентов     : 
OTHER_66           .         MN.ATM = (2.27521e-006*TM.DEGC + 0.02078)*(RMN.E.ACP + 6.2*TM.DEGC + -1688): 
OTHER_67           .         <_techsia_sc_> Дата тарировки ГК 25.05.2010: 
OTHER_68           .         Ручной ввод коэффициентов     : 
OTHER_69           .         GR.UR/H = RGR.IMP/MIN / 45.5144: 
OTHER_7            .         Вид исследований 3  6         : 
OTHER_70           .         GK.FLT = 0.1*GR.UR/H[-1] + (1-0.1)*GR.UR/H[0]: 
OTHER_8            .         Начало бурения интервала каротажа: 
OTHER_9            .         Окончание бурения интервала каротажа: 
PROJECT_UPGRADE_TIME .         2021-03-18T21_24_50           : 
TLFamily_CCLC      .                                       : 
TLFamily_DEPT      .         Measured Depth                : 
TLFamily_GK        .         Gamma Ray                     : 
TLFamily_GR        .         Gamma Ray                     : 
TLFamily_METKA     .                                       : 
TLFamily_MN        .                                       : 
TLFamily_RCOR      .                                       : 
TLFamily_RGR       .                                       : 
TLFamily_RMN       .                                       : 
TLFamily_RTEN      .                                       : 
TLFamily_RTM       .                                       : 
TLFamily_SPEE      .         Cable Speed                   : 
TLFamily_TIME      .         Time                          : 
TLFamily_TM        .         Temperature                   : 
group              .         prim                          : 
~Curve Information
#_______________________________________________________________________________
#
#LOGNAME           .UNIT     LOG_ID                        : DESCRIPTION
#_______________________________________________________________________________
DEPT               .M                                      : 1 Глубина, м -    0.0 см 
CCLC               .E.ACP                                  : 9 Локатор муфт,  -   20.0 см 
GK                 .FLT                                    : 14 Гамма-активность фильтрованная, мкр./ч -  110.0 см 
GR                 .UR/H                                   : 13 Гамма-активность, мкр./ч -  110.0 см 
METKA              .CU                                     : 3 Метки,  -    0.0 см 
MN                 .ATM                                    : 12 Давление, атм. -  160.0 см 
RCOR               .CM/KM                                  : 5 Коррекция по ролику, см/км -    0.0 см 
RGR                .IMP/MIN                                : 10 Гамма-активность, усл.ед. -  110.0 см 
RMN                .E.ACP                                  : 8 Давление, усл.ед. -  160.0 см 
RTEN               .T                                      : 6 Натяжение кабеля, т -    0.0 см 
RTM                .E.ACP                                  : 7 Температура, усл.ед. -  170.0 см 
SPEE               .M/H                                    : 2 Скорость, м/час -    0.0 см 
TIME               .S                                      : 4 Время, сек -    0.0 см 
TM                 .DEGC                                   : 11 Температура, °C -  170.0 см 
~Ascii
# ...
2655.600005 191        7.51       7.51       0          238.685    -1117      342        12682      0.26       16692      569        69.42      66.107    
2655.800005 319        7.51       7.51       0          238.703    -1117      342        12683      0.26       16686      570        70.69      66.084    
2656.000005 290        7.23       7.23       0          238.7      -1117      329        12683      0.26       16681      571        71.94      66.062    
2656.200005 382        7.23       7.23       0          238.717    -1117      329        12684      0.26       16675      571        73.24      66.041    
2656.400006 323        7.69       7.69       0          238.734    -1117      350        12685      0.26       16670      570        74.53      66.018    
2656.600006 314        7.69       7.69       0          238.753    -1117      350        12686      0.26       16661      570        75.78      65.983    
2656.800006 447        8.11       8.11       0          238.766    -1117      369        12687      0.26       16653      570        77.01      65.953    
2657.000006 346        8.11       8.11       0          238.782    -1117      369        12688      0.26       16645      569        78.27      65.92     
2657.200006 416        8.63       8.63       0          238.8      -1117      393        12689      0.26       16639      571        79.61      65.896    
2657.400006 4343       8.57       8.57       0          238.817    -1117      390        12690      0.26       16635      571        80.84      65.879    
2657.600006 2825       8.26       8.26       0          238.835    -1117      376        12691      0.26       16628      572        82.11      65.852    
2657.800006 614        8.26       8.26       0          238.829    -1117      376        12691      0.26       16622      572        83.36      65.826    
2658.000006 391        7.34       7.34       0          238.845    -1117      334        12692      0.26       16614      572        84.69      65.793    
2658.200006 159        7.34       7.34       0          238.863    -1117      334        12693      0.26       16607      572        85.9       65.767    
2658.400007 296        7.05       7.05       0          238.866    -1117      321        12693      0.26       16600      573        87.14      65.739    
2658.600007 349        7.16       7.16       0          238.895    -1117      326        12695      0.26       16592      573        88.41      65.705    
2658.800007 262        7.73       7.73       0          238.89     -1117      352        12695      0.26       16584      574        89.67      65.673    
2659.000007 223        7.73       7.73       0          238.906    -1117      352        12696      0.26       16576      574        90.99      65.643    
2659.200007 406        7.62       7.62       0          238.923    -1117      347        12697      0.26       16571      574        92.23      65.619    
2659.400007 405        7.23       7.23       0          238.936    -1117      329        12698      0.26       16563      573        93.45      65.589    
2659.600007 220        6.83       6.83       0          238.948    -1117      311        12699      0.26       16556      572        94.75      65.562    
2659.800007 155        6.96       6.96       0          238.951    -1117      317        12699      0.26       16547      574        96.03      65.526    
2660.000007 317        7.6        7.6        0          238.968    -1117      346        12700      0.26       16541      573        97.28      65.501    
2660.200007 296        7.6        7.6        0          238.985    -1117      346        12701      0.26       16536      574        98.55      65.481    
2660.400008 209        8.46       8.46       0          239.02     -1117      385        12703      0.26       16529      573        99.81      65.452    
2660.600008 122        7.91       7.91       0          239.018    -1117      360        12703      0.26       16523      572        101.13     65.427    
2660.800008 267        7.49       7.49       0          239.046    -1117      341        12705      0.26       16515      573        102.36     65.396    
2661.000008 220        7.36       7.36       0          239.047    -1117      335        12705      0.26       16503      573        103.64     65.349    
2661.200008 265        7.1        7.1        0          239.063    -1117      323        12706      0.26       16493      572        104.84     65.307    
2661.400008 223        7.82       7.82       0          239.078    -1117      356        12707      0.26       16484      572        106.11     65.272    
2661.600008 165        7.82       7.82       0          239.093    -1117      356        12708      0.26       16475      572        107.44     65.237    
2661.800008 282        8.14       8.14       0          239.095    -1117      370        12708      0.26       16466      574        108.69     65.199    
2662.000008 319        8.26       8.26       0          239.126    -1117      376        12710      0.26       16458      573        109.92     65.167    
2662.200008 373        8.36       8.36       0          239.143    -1117      380        12711      0.26       16453      574        111.16     65.148    
2662.400009 324        8.55       8.55       0          239.147    -1117      389        12711      0.26       16447      574        112.47     65.121    
2662.600009 114        8.28       8.28       0          239.154    -1117      377        12712      0.26       16439      574        113.73     65.09     
2662.800009 203        8.28       8.28       0          239.169    -1117      377        12713      0.26       16429      574        114.98     65.051    
2663.000009 285        8.15       8.15       0          239.184    -1117      371        12714      0.26       16419      574        116.19     65.009    
2663.200009 290        8.13       8.13       0          239.2      -1117      370        12715      0.26       16411      575        117.45     64.977    
2663.400009 288        7.96       7.96       0          239.219    -1117      362        12716      0.26       16403      575        118.77     64.944    
2663.600009 254        7.62       7.62       0          239.231    -1117      347        12717      0.26       16395      575        120.03     64.912    
2663.800009 125        7.45       7.45       0          239.247    -1117      339        12718      0.26       16387      574        121.29     64.882    
2664.000009 102        7.45       7.45       0          239.264    -1117      339        12719      0.26       16376      575        122.55     64.839    
2664.200009 101        7.54       7.54       0          239.277    -1117      343        12720      0.26       16367      574        123.81     64.799    
2664.40001 169        7.58       7.58       0          239.292    -1117      345        12721      0.26       16359      574        125.07     64.767    
2664.60001 184        7.51       7.51       0          239.35     -1117      342        12724      0.26       16351      575        126.33     64.737    
2664.80001 337        7.51       7.51       0          239.351    -1117      342        12724      0.26       16342      575        127.59     64.7      
2665.00001 400        7.65       7.65       1          239.359    -1117      348        12725      0.26       16332      575        128.81     64.659    
2665.20001 192        7.65       7.65       0          239.378    -1117      348        12726      0.26       16323      574        130.11     64.624    
2665.40001 204        7.46       7.46       0          239.403    -1117      340        12728      0.26       16316      574        131.38     64.598    
2665.60001 198        7.43       7.43       0          239.408    -1117      338        12728      0.26       16310      575        132.63     64.57     
2665.80001 237        7.76       7.76       0          239.424    -1117      353        12729      0.26       16301      574        133.89     64.535    
