~Version
 VERS              .         2.0                           : CWLS LOG ASCII STANDARD - VERSION 2.0
 WRAP              .         NO                            : ONE LINE PER DEPTH STEP
 DLM               .         SPACE                         : DELIMITING CHARACTER(SPACE TAB OR COMMA)
~Well Information
#_______________________________________________________________________________
#
#PARAMETER_NAME    .UNIT     VALUE                         : DESCRIPTION
#_______________________________________________________________________________
STRT               .M        3.4                           : First reference value
STOP               .M        832.4                         : Last reference value
STEP               .M        0.2                           : Step increment
NULL               .         -9999                         : Missing value
COMP               .                                       : Company
WELL               .         616                           : Well name
FLD                .                                       : Field
LOC                .                                       : Location
CNTY               .                                       : County
STAT               .                                       : State
CTRY               .                                       : Country
SRVC               .                                       : Service Company
DATE               .                                       : Date
API                .                                       : API number
PROJECT_UPGRADE_TIME .         2021-03-18T21_24_50           : 
group              .         Good                          : 
~Parameter Information Block
#_______________________________________________________________________________
#
#PARAMETER_NAME    .UNIT     VALUE                         : DESCRIPTION
#_______________________________________________________________________________
SET                .         ULN                           : 
PROJECT_UPGRADE_TIME .         2021-03-18T21_24_50           : 
TLFamily_AK4       .                                       : 
TLFamily_ALFAK     .                                       : 
TLFamily_AMPL      .                                       : 
TLFamily_DEPTH     .         Measured Depth                : 
TLFamily_DK1       .                                       : 
TLFamily_DK2       .                                       : 
TLFamily_DTK       .         Compressional Slowness        : 
TLFamily_QCBL      .                                       : 
TLFamily_T1        .         Travel Time 1                 : 
TLFamily_T2        .         Travel Time 2                 : 
group              .         prim                          : 
~Curve Information
#_______________________________________________________________________________
#
#LOGNAME           .UNIT     LOG_ID                        : DESCRIPTION
#_______________________________________________________________________________
DEPTH              .M                                      : 0 Depth curve 
AK4                .                                       : 2 Амплитуда - Волна по колонне - Канал1 
ALFAK              .дБ/м                                   : 1 Затухание - Волна по колонне 
AMPL               .                                       : 8 Коэффициент усиления ВС 
DK1                .дБ                                     : 3 Кривая ослабления - Волна по колонне - Канал1 
DK2                .дБ                                     : 4 Кривая ослабления - Волна по колонне - Канал2 
DTK                .мкс/м                                  : 5 ДельтаТ - Волна по породе 
QCBL               .                                       : 9 Контакт цемент-колонна 
T1                 .мкс                                    : 6 Время пробега - Волна по породе - Канал1 
T2                 .мкс                                    : 7 Время пробега - Волна по породе - Канал2 
~Ascii
# ...
324.6      8521.448   32.264     1          12.523     28.655     186.352    2          357.231    450.408   
324.8      11241.61   31.572     1          9.815      25.601     186.216    2          357.364    450.473   
325        13432.69   31.007     1          7.87       23.373     182.474    2          358.158    449.396   
325.2      13432.69   26.36      1          7.87       21.05      182.276    2          358.158    449.297   
325.4      13432.69   22.699     1          7.87       19.219     183.396    2          358.158    449.857   
325.6      15017.18   22.076     1          6.992      18.03      184.335    2          358.865    451.033   
325.8      16601.67   22.669     1          6.115      17.449     185.529    2          359.572    452.338   
326        18186.15   22.757     1          5.238      16.617     185.894    2          360.28     453.227   
326.2      18186.15   21.188     1          5.238      15.832     187.255    2          360.28     453.908   
326.4      18186.15   19.668     1          5.238      15.072     188.717    2          360.28     454.639   
326.6      18401.56   19.273     1          5.137      14.773     188.679    2          360.884    455.225   
326.8      18749.01   19.067     1          4.976      14.509     188.664    2          361.618    455.951   
327        18476.95   18.667     1          5.108      14.442     187.571    2          362.186    455.973   
327.2      17989.48   18.298     1          5.342      14.492     187.5      2          362.15     455.901   
327.4      15233.19   15.88      1          6.97       14.91      189.998    2          360.7      455.7     
327.6      13096.4    14.543     1          8.304      15.575     191.538    2          359.415    455.185   
327.8      10959.61   13.457     1          9.637      16.365     193.101    2          358.13     454.682   
328        10959.61   14.962     1          9.637      17.118     192.189    2          358.13     454.225   
328.2      10959.61   16.728     1          9.637      18.001     191.694    2          358.13     453.978   
328.4      10734.23   17.307     1          9.821      18.475     190.304    2          358.166    453.318   
328.6      10007.18   17.208     1          10.464     19.068     189.815    2          357.54     452.448   
328.8      9280.133   16.057     1          11.106     19.135     189.772    2          356.913    451.8     
329        8861.515   16.106     1          11.483     19.536     190.626    2          356.279    451.593   
329.2      8671.409   16.247     1          11.678     19.801     191.334    2          355.405    451.073   
329.4      8481.304   17.239     1          11.872     20.492     190.814    2          354.531    449.939   
329.6      8208.152   18.036     1          12.148     21.166     189.866    2          353.63     448.563   
329.8      8022.046   18.047     1          12.352     21.375     189.638    2          354.709    447.826   
330        6962.138   15.882     1          13.771     21.711     184.518    2          356.868    447.426   
330.2      5902.23    15.472     1          15.189     22.925     179.855    2          359.027    447.253   
330.4      5028.429   17.785     1          16.404     25.297     173.785    2          360.107    447       
330.6      5028.429   23.191     1          16.404     27.999     173.785    2          360.107    447       
330.8      5028.429   29.76      1          16.404     31.284     173.785    2          360.107    447       
331        5028.429   34.644     1          16.404     33.726     173.785    2          360.107    447       
331.2      5028.429   38.204     1          16.404     35.506     176.118    2          360.107    448.167   
331.4      5028.429   39.877     1          16.404     36.343     180.785    2          360.107    450.5     
331.6      5028.429   42.757     1          16.404     37.783     181.535    2          360.107    450.875   
331.8      5028.429   45.843     1          16.404     39.325     179.63     2          360.107    449.923   
332        5028.429   45.708     1          16.404     39.258     174.964    2          360.107    447.59    
332.2      5028.429   45.777     1          16.404     39.293     174.214    2          360.107    447.215   
332.4      4370.505   44.577     1          17.025     37.608     179.278    2          357.361    447       
332.6      3786.077   41.681     1          18.266     35.208     187.251    2          353.658    447.285   
332.8      3295.523   33.871     1          19.269     32.305     194.656    2          349.956    447.285   
333        3462.894   29.206     1          19.65      32.06      196.569    2          349        447.285   
333.2      3358.546   29.746     1          19.941     32.971     196        2          349        447       
333.4      3364.904   30.267     1          19.926     33.216     196        2          349        447       
333.6      3371.262   29.394     1          19.91      32.764     196        2          349        447       
333.8      3575.844   27.692     1          19.365     33.211     196        2          349        447       
334        3575.844   25.727     1          19.365     32.229     196        2          349        447       
334.2      3798.751   23.641     1          18.869     30.69      196        2          349        447       
334.4      4218.396   19.168     1          17.995     27.579     195.517    2          349.241    447       
334.6      4638.04    18.288     1          17.122     26.266     195.033    2          349.483    447       
334.8      4850.816   18.422     1          16.717     25.928     194.605    2          349.697    447       
335        4866.855   16.771     1          16.688     25.073     194.66     2          349.67     447       
335.2      4882.895   16.598     1          16.659     24.958     194.714    2          349.642    447       
335.4      4591.203   12.849     1          17.231     23.655     195.143    2          349.428    447       
335.6      4299.512   13.459     1          17.803     24.532     195.571    2          349.214    447       
335.8      4007.821   13.016     1          18.375     24.883     196        2          349        447       
336        4007.821   15.106     1          18.375     25.927     196        2          349        447       
336.2      4007.821   15.916     1          18.375     26.333     196        2          349        447       
336.4      4007.821   14.982     1          18.375     25.866     196        2          349        447       
336.6      4007.821   14.87      1          18.375     25.81      196        2          349        447       
336.8      4007.821   17.231     1          18.375     26.99      196        2          349        447       
337        3710.112   19.411     1          19.105     28.81      196        2          349        447       
337.2      3536.573   20.076     1          19.507     29.545     196        2          349        447       
337.4      3363.034   19.896     1          19.91      29.858     196        2          349        447       
337.6      3487.204   20.048     1          19.583     29.607     196        2          349        447       
337.8      4115.161   22.375     1          18.333     29.52      196        2          349        447       
338        4743.117   22.776     1          17.082     28.47      196        2          349        447       
338.2      5371.073   22.54      1          15.832     27.101     196        2          349        447       
338.4      4778.273   19.257     1          16.996     26.624     196        2          349        447       
338.6      4185.474   15.811     1          18.16      26.066     196        2          349        447       
338.8      3592.674   14.112     1          19.324     26.38      196        2          349        447       
339        3434.469   13.573     1          19.735     26.521     196        2          349        447       
