~Version
 VERS              .         2.0                           : CWLS LOG ASCII STANDARD - VERSION 2.0
 WRAP              .         NO                            : ONE LINE PER DEPTH STEP
 DLM               .         SPACE                         : DELIMITING CHARACTER(SPACE TAB OR COMMA)
~Well Information
#_______________________________________________________________________________
#
#PARAMETER_NAME    .UNIT     VALUE                         : DESCRIPTION
#_______________________________________________________________________________
STRT               .M        2668.6                        : First reference value
STOP               .M        2774.399788                   : Last reference value
STEP               .M        0.1999996                     : Step increment
NULL               .         -9999                         : Missing value
COMP               .                                       : Company
WELL               .         616                           : Well name
FLD                .                                       : Field
LOC                .                                       : Location
CNTY               .                                       : County
STAT               .                                       : State
CTRY               .                                       : Country
SRVC               .                                       : Service Company
DATE               .                                       : Date
API                .                                       : API number
PROJECT_UPGRADE_TIME .         2021-03-18T21_24_50           : 
group              .         Good                          : 
~Parameter Information Block
#_______________________________________________________________________________
#
#PARAMETER_NAME    .UNIT     VALUE                         : DESCRIPTION
#_______________________________________________________________________________
SET                .         D1803_D_2                     : 
NPR                .                                       : 
OTHER              .         Программное обеспечение станции MONITOR-386EX 25/12/99 15_08_10   BGF V52 22/08/01 16_56_30   3.1_SNGF___BGF_N_092049: 
OTHER_10           .         Тарировки_                    : 
OTHER_11           .         TM.GRD = 0.00403*TM$.UE + -1.07: 
OTHER_12           .         MN.ATM = (9.34907e-006*TM.GRD + 0.02171)*(MN$.UE + -7.93*TM.GRD + -1787): 
OTHER_13           .         GK.MKR/H = LM. / 42.4676      : 
OTHER_14           .         GK.FLT = 0.1*GK.MKR/H[-1] + (1-0.1)*GK.MKR/H[0]: 
OTHER_2            .         Kedr.exe версия 3.4.2.51      : 
OTHER_3            .         KedrData.dll версия 3.4.2.24  : 
OTHER_4            .         Драйвер версия 2.1.1.3        : 
OTHER_5            .         Мнемоники версия 3.3 S        : 
OTHER_6            .         Прибор_ КСА-Т4                : 
OTHER_7            .         Номер прибора_ 03             : 
OTHER_8            .         Режим_ КСА-Т4                 : 
OTHER_9            .         Форма_ КВА.                   : 
PR                 .                                       : 
PROJECT_UPGRADE_TIME .         2021-03-18T21_24_49           : 
PRTY               .         ПП-603-1                      : N партии
SRV                .                                       : 
SRVC               .         Карпов                        : Начальник партии
TLFamily_DEPT      .         Measured Depth                : 
TLFamily_LM        .         Casing Collar locator         : 
TLFamily_MN        .                                       : 
TLFamily_TM        .         Temperature                   : 
group              .         second                        : 
~Curve Information
#_______________________________________________________________________________
#
#LOGNAME           .UNIT     LOG_ID                        : DESCRIPTION
#_______________________________________________________________________________
DEPT               .M                                      : Depth curve 
LM                 .е.ацп                                  : Локатор муфт,е.ацп 
MN                 .атм                                    : Манометрия, атм 
TM                 .град.C                                 : Термограмма по стволу скважины,град.C 
~Ascii
# ...
2740.199857 369.966    332.97     46.625    
2740.399856 302.039    332.253    46.583    
2740.599856 381.986    333.037    46.56     
2740.799856 352.981    332.551    46.566    
2740.999855 315.033    333.643    46.618    
2741.199855 380.974    332.466    46.678    
2741.399854 328.983    333.299    46.761    
2741.599854 294.004    333.113    46.827    
2741.799854 302.009    333.623    46.886    
2741.999853 320.964    332.891    46.929    
2742.199853 248.003    333.758    46.992    
2742.399852 255.012    333.022    47.048    
2742.599852 280.018    333.439    47.115    
2742.799852 315.963    333.2      47.173    
2742.999851 242.018    333.673    47.233    
2743.199851 277.989    332.858    47.276    
2743.39985 256.021    333.615    47.326    
2743.59985 297.993    333.451    47.368    
2743.79985 283.009    332.878    47.397    
2743.999849 301.979    333.168    47.421    
2744.199849 258.993    333.903    47.472    
2744.399848 244.029    333.378    47.517    
2744.599848 301.987    333.558    47.551    
2744.799848 274.995    333.898    47.584    
2744.999847 264.998    333.262    47.649    
2745.199847 259.982    333.786    47.692    
2745.399846 224        334.148    47.742    
2745.599846 225.019    333.988    47.81     
2745.799846 264.01     333.383    47.894    
2745.999845 284.968    334.496    47.958    
2746.199845 220.984    332.567    48.022    
2746.399844 189.232    334.386    48.091    
2746.599844 2680.427   333.371    48.16     
2746.799844 1521.461   334.605    48.214    
2746.999843 431.915    332.777    48.297    
2747.199843 259.998    334.646    48.398    
2747.399842 255.958    333.078    48.479    
2747.599842 172.015    334.343    48.551    
2747.799842 201.986    333.774    48.624    
2747.999841 174.015    335.044    48.709    
2748.199841 203.979    333.614    48.803    
2748.39984 161.039    334.574    48.905    
2748.59984 239.002    334.25     48.992    
2748.79984 242.954    335.029    49.118    
2748.999839 149.021    334.351    49.236    
2749.199839 190.983    335.398    49.402    
2749.399838 157        334.53     49.528    
2749.599838 157.002    335.212    49.648    
2749.799838 161.012    334.91     49.727    
2749.999837 185.018    335.656    49.877    
2750.199837 220.999    334.713    49.981    
2750.399836 218.998    335.756    50.123    
2750.599836 214.987    334.401    50.201    
2750.799836 189.007    335.456    50.329    
2750.999835 203.994    334.213    50.483    
2751.199835 192.004    335.297    50.627    
2751.399834 200.992    335.171    50.737    
2751.599834 184.009    335.866    50.91     
2751.799834 202.985    334.983    51.051    
2751.999833 172.023    335.644    51.227    
2752.199833 218        335.613    51.398    
2752.399832 219.006    335.623    51.606    
2752.599832 230.993    335.179    51.767    
2752.799832 216.015    336.076    51.934    
2752.999831 245.993    335.168    52.039    
2753.199831 231.998    335.233    52.248    
2753.39983 227.996    335.563    52.424    
2753.59983 220.027    336.115    52.606    
2753.79983 273.966    335.191    52.767    
2753.999829 205.022    336.084    52.98     
2754.199829 248.985    335.644    53.132    
2754.399828 218.027    335.286    53.288    
2754.599828 272.977    335.801    53.408    
2754.799828 227.013    335.314    53.536    
2754.999827 252.983    335.394    53.718    
2755.199827 219.047    335.816    53.932    
2755.399826 314.987    336.259    54.148    
2755.599826 288.016    335.052    54.363    
2755.799826 320.988    336.353    54.567    
2755.999825 297.003    336.393    54.768    
2756.199825 303.003    337.03     54.906    
2756.399824 308.979    335.759    55.096    
2756.599824 265.994    336.949    55.294    
2756.799824 253.997    335.102    55.559    
2756.999823 248.03     336.619    55.773    
2757.199823 308.996    336.165    55.992    
2757.399822 300.982    336.62     56.284    
2757.599822 267.736    335.45     56.559    
2757.799822 5791.958   336.848    56.815    
2757.999821 3686.644   335.16     57.011    
2758.199821 947.7      336.441    57.211    
2758.39982 340.964    336.138    57.478    
2758.59982 268.02     336.872    57.708    
2758.79982 307.965    335.84     57.902    
2758.999819 236.989    337.028    58.07     
2759.199819 214.002    336.465    58.264    
2759.399818 219.053    337.266    58.472    
2759.599818 326.96     336.561    58.626    
2759.799818 246.983    337.494    58.774    
2759.999817 213.004    336.698    58.951    
2760.199817 221.984    337.508    59.164    
2760.399816 190.005    335.984    59.416    
2760.599816 199.997    337.245    59.601    
2760.799816 194.001    336.919    59.808    
2760.999815 197.024    337.901    60.002    
2761.199815 245.985    336.591    60.157    
2761.399814 214.991    337.619    60.317    
2761.599814 195.991    337.053    60.416    
2761.799814 178.012    337.879    60.504    
2761.999813 202.007    337.219    60.591    
2762.199813 217.008    337.852    60.711    
2762.399812 232.979    337.51     60.816    
2762.599812 191.056    336.766    60.962    
2762.799812 303.98     337.041    61.093    
2762.999811 262.989    336.273    61.266    
2763.199811 240.989    335.535    61.361    
2763.39981 217.998    335.99     61.427    
2763.59981 213.005    335.307    61.484    
2763.79981 223.017    336.11     61.58     
2763.999809 257.996    333.943    61.7      
2764.199809 248.991    335.248    61.795    
2764.399808 230.016    334.871    61.871    
2764.599808 261.992    334.147    61.935    
2764.799808 245        335.34     61.993    
2764.999807 243.988    333.857    62.056    
2765.199807 220.012    334.593    62.115    
2765.399806 244.991    334.498    62.177    
2765.599806 226.004    334.629    62.24     
2765.799806 235.021    333.549    62.318    
2765.999805 278.019    334.1      62.394    
2766.199805 315.99     333.566    62.459    
2766.399804 295.986    334.375    62.471    
2766.599804 266.991    332.374    62.491    
2766.799804 249.018    333.814    62.533    
2766.999803 284.997    333.504    62.594    
2767.199803 277.982    333.157    62.637    
2767.399802 240.997    334.482    62.652    
2767.599802 235.018    333.239    62.687    
2767.799802 270.994    333.457    62.715    
2767.999801 259.012    332.992    62.769    
2768.199801 283.972    332.687    62.833    
2768.3998  228.032    332.651    62.868    
2768.5998  293.294    333.123    62.924    
2768.7998  2902.152   332.961    62.991    
2768.999799 1192.612   333.858    63.093    
2769.199799 409.954    331.904    63.166    
2769.399798 317.99     333.374    63.242    
2769.599798 297.981    332.934    63.333    
2769.799798 259.994    332.664    63.407    
2769.999797 247.021    333.445    63.492    
2770.199797 289.992    332.491    63.579    
2770.399796 274.006    332.567    63.716    
2770.599796 287.02     333.406    63.818    
2770.799796 326.975    331.897    63.91     
2770.999795 275.991    333.177    64.01     
2771.199795 258.001    331.729    64.119    
2771.399794 261.029    333.151    64.202    
2771.599794 319.02     333.224    64.325    
2771.799794 359.011    332.637    64.416    
2771.999793 381.975    333.299    64.491    
2772.199793 330.918    332.443    64.608    
2772.399792 165.01     333.491    64.709    
2772.599792 184.996    333.093    64.804    
2772.799792 177.001    332.104    64.893    
2772.999791 -9999      332.523    64.983    
2773.199791 -9999      333.608    65.084    
2773.39979 -9999      332.095    65.139    
2773.59979 -9999      333.033    65.165    
2773.79979 -9999      331.807    65.461    
2773.999789 -9999      333.213    65.807    
2774.199789 -9999      331.834    65.959    
2774.399788 -9999      332.025    66.023    
