~Version
 VERS              .         2.0                           : CWLS LOG ASCII STANDARD - VERSION 2.0
 WRAP              .         NO                            : ONE LINE PER DEPTH STEP
 DLM               .         SPACE                         : DELIMITING CHARACTER(SPACE TAB OR COMMA)
~Well Information
#_______________________________________________________________________________
#
#PARAMETER_NAME    .UNIT     VALUE                         : DESCRIPTION
#_______________________________________________________________________________
STRT               .M        2659.2                        : First reference value
STOP               .M        2769.000055                   : Last reference value
STEP               .M        0.2000001                     : Step increment
NULL               .         -9999                         : Missing value
COMP               .                                       : Company
WELL               .         616                           : Well name
FLD                .                                       : Field
LOC                .                                       : Location
CNTY               .                                       : County
STAT               .                                       : State
CTRY               .                                       : Country
SRVC               .                                       : Service Company
DATE               .                                       : Date
API                .                                       : API number
PROJECT_UPGRADE_TIME .         2021-03-18T21_24_50           : 
group              .         Good                          : 
~Parameter Information Block
#_______________________________________________________________________________
#
#PARAMETER_NAME    .UNIT     VALUE                         : DESCRIPTION
#_______________________________________________________________________________
SET                .         D1165_D                       : 
OTHER              .         Программное обеспечение станции MONITOR-386EX 25/12/99 15_08_10   BGF V52 22/08/01 16_56_30   3.2_BGF_N_3070031: 
OTHER_10           .         Тарировки_                    : 
OTHER_11           .         TM.GRD = 0.00403*TM$.UE + -1.19: 
OTHER_12           .         MN.ATM = (7.1e-006*TM.GRD + 0.02017)*(MN$.UE + -3.03*TM.GRD + -1833): 
OTHER_13           .         Id error                      : 
OTHER_2            .         Kedr.exe версия 3.4.2.51      : 
OTHER_3            .         KedrData.dll версия 3.4.2.24  : 
OTHER_4            .         Драйвер версия 2.1.1.8        : 
OTHER_5            .         Мнемоники версия 3.3 S        : 
OTHER_6            .         Прибор_ КСА-М1                : 
OTHER_7            .         Номер прибора_ 265            : 
OTHER_8            .         Режим_ КСА-М1                 : 
OTHER_9            .         Форма_ ТЕРМОМЕТР              : 
PROJECT_UPGRADE_TIME .         2021-03-18T21_24_49           : 
TLFamily_DEPT      .         Measured Depth                : 
TLFamily_GK        .         Gamma Ray                     : 
TLFamily_GK$       .                                       : 
TLFamily_LM        .         Casing Collar locator         : 
TLFamily_METKA     .                                       : 
TLFamily_MN        .                                       : 
TLFamily_MN$       .                                       : 
TLFamily_RCOR      .                                       : 
TLFamily_SPID      .         Spontaneous Potential         : 
TLFamily_STD       .                                       : 
TLFamily_TENS      .         Cable Tension                 : 
TLFamily_TIME      .         Time                          : 
TLFamily_TM        .         Temperature                   : 
TLFamily_TM$       .         Temperature                   : 
TLFamily_VGD       .         Gas Volume                    : 
group              .         prim                          : 
~Curve Information
#_______________________________________________________________________________
#
#LOGNAME           .UNIT     LOG_ID                        : DESCRIPTION
#_______________________________________________________________________________
DEPT               .M                                      : 1 Глубина, м -    0.0 см 
GK                 .MKR/H                                  : 15 Гамма-активность, мкр./ч -  110.0 см 
GK$                .UE                                     : 12 Гамма-активность, усл.ед. -  110.0 см 
LM                 .                                       : 10 Локатор муфт,  -   20.0 см 
METKA              .                                       : 3 Метки,  -    0.0 см 
MN                 .ATM                                    : 14 Давление, атм. -  160.0 см 
MN$                .UE                                     : 8 Давление, усл.ед. -  160.0 см 
RCOR               .CM/KM                                  : 5 Коррекция по ролику, см/км -    0.0 см 
SPID               .M/H                                    : 2 Скорость, м/час -    0.0 см 
STD                .                                       : 11 Приток,  -  170.0 см 
TENS               .T                                      : 6 Натяжение кабеля, т -    0.0 см 
TIME               .S                                      : 4 Время, сек -    0.0 см 
TM                 .GRD                                    : 13 Температура, °C -  180.0 см 
TM$                .UE                                     : 7 Температура, усл.ед. -  180.0 см 
VGD                .                                       : 9 Влагомер,  -  170.0 см 
~Ascii
2659.1999512 -9999      -9999      -9999      0          -9999      -9999      -9999      -9999      -9999      -9999      -9999      -9999      -9999      -9999     
2659.4     -9999      -9999      1          0          -9999      -9999      -1400      82         -9999      0          20994.08   -9999      -9999      -9999     
2659.6     -9999      -9999      1          0          -9999      -9999      -1400      187        -9999      0          20996.03   -9999      -9999      -9999     
2659.8     -9999      -9999      1          0          -9999      -9999      -1400      276        -9999      0          20997.36   -9999      -9999      -9999     
2660       -9999      -9999      1          1          -9999      -9999      -1400      353        -9999      0          20998.52   -9999      -9999      -9999     
2660.2     -9999      -9999      1          0          -9999      -9999      -1400      423        -9999      0          20999.67   -9999      -9999      -9999     
2660.400001 4.07       174        1          0          -9999      -9999      -1400      471        -9999      0          21000.85   -9999      -9999      -9999     
2660.600001 4.07       174        1          0          -9999      -9999      -1400      511        -9999      0          21001.97   -9999      -9999      -9999     
2660.800001 4.07       174        1          0          -9999      -9999      -1400      538        -9999      0          21003.2    -9999      -9999      -9999     
2661.000001 4.07       174        1          0          351.466    19007      -1400      562        31489      0          21004.29   -9999      -9999      6597      
2661.200001 4.07       174        1          0          348.661    18872      -1400      576        31499      0          21005.43   85.775     21579      6596      
2661.400001 4.07       174        1          0          349.999    18937      -1400      591        31501      0          21006.58   85.773     21579      6595      
2661.600001 4.07       174        1          0          349.986    18936      -1400      594        31503      0          21007.72   85.766     21577      6596      
2661.800001 4.07       174        1          0          349.078    18892      -1400      603        31499      0          21008.87   85.769     21578      6595      
2662.000001 4.07       174        1          0          349.296    18903      -1400      612        31484      0          21009.95   85.765     21577      6592      
2662.200001 4.07       174        1          0          351.155    18992      -1400      616        31467      0          21011.12   85.758     21575      6589      
2662.400002 4.07       174        1          0          349.007    18889      -1400      619        31458      0          21012.24   85.757     21575      6587      
2662.600002 4.07       174        1          0          349.796    18927      -1400      624        31446      0          21013.33   85.76      21576      6587      
2662.800002 83.47      6176       1          0          351.248    18997      -1400      628        31437      0          21014.42   85.761     21576      6587      
2663.000002 122.46     6176       21         0          347.699    18826      -1400      626        31431      0          21015.56   85.765     21577      6586      
2663.200002 86.31      2450       1          0          349.895    18932      -1400      633        31424      0          21016.66   85.769     21578      6584      
2663.400002 67.11      2450       1          0          349.292    18903      -1400      635        31423      0          21017.74   85.778     21580      6583      
2663.600002 40.46      261        1          0          348.923    18885      -1400      636        31420      0          21018.89   85.785     21582      6584      
2663.800002 18.24      261        1          0          349.091    18893      -1400      637        31423      0          21019.98   85.794     21584      6582      
2664.000002 10.14      256        1          0          348.822    18880      -1400      643        31419      0          21021.07   85.798     21585      6583      
2664.200002 7.32       248        1          0          350.484    18960      -1400      647        31419      0          21022.16   85.802     21586      6582      
2664.400003 6.36       250        1          0          349.047    18891      -1400      646        31421      0          21023.3    85.804     21587      6581      
2664.600003 6.09       254        1          0          349.436    18910      -1400      645        31418      0          21024.39   85.81      21588      6580      
2664.800003 5.99       254        1          0          350.467    18959      -1400      645        31419      0          21025.42   85.81      21588      6581      
2665.000003 6.1        265        1          0          348.609    18870      -1400      648        31418      0          21026.63   85.814     21589      6581      
2665.200003 6.16       265        1          0          349.377    18907      -1400      646        31422      0          21027.66   85.816     21590      6581      
2665.400003 6.2        267        1          0          348.823    18880      -1400      650        31422      0          21028.74   85.819     21590      6580      
2665.600003 6.23       267        1          0          350.369    18954      -1400      650        31423      0          21029.83   85.822     21591      6582      
2665.800003 6.25       268        1          0          348.89     18883      -1400      651        31422      0          21030.98   85.827     21592      6572      
2666.000003 6.35       274        1          0          349.418    18909      -1400      654        31424      0          21032.02   85.834     21594      6534      
2666.200003 6.39       274        1          0          351.087    18989      -1400      661        31427      0          21033.12   85.835     21594      6530      
2666.400004 6.39       273        1          0          348.651    18872      -1400      657        31431      0          21034.23   85.838     21595      6528      
2666.600004 6.39       273        1          0          348.968    18887      -1400      653        31432      0          21035.37   85.843     21596      6527      
2666.800004 6.53       285        1          0          349.584    18917      -1400      656        31430      0          21036.4    85.846     21597      6525      
2667.000004 6.62       285        1          0          350.344    18953      -1400      663        31435      0          21037.5    85.847     21597      6526      
2667.200004 6.67       288        1          0          348.492    18864      -1400      658        31434      0          21038.6    85.85      21598      6524      
2667.400004 6.74       290        1          0          349.281    18902      -1400      654        31441      0          21039.7    85.854     21599      6522      
2667.600004 6.77       290        1          0          351.122    18991      -1400      657        31442      0          21040.79   85.854     21599      6520      
2667.800004 6.81       292        1          0          348.393    18859      -1400      659        31443      0          21041.94   85.86      21600      6521      
2668.000004 6.82       292        1          0          348.369    18858      -1400      649        31447      0          21042.98   85.87      21603      6522      
2668.200004 6.59       274        1          0          349.655    18920      -1400      653        31448      0          21044.08   85.872     21603      6521      
2668.400005 6.47       274        1          0          349.707    18922      -1400      655        31449      0          21045.13   85.874     21604      6521      
2668.600005 6.09       234        1          0          348.436    18861      -1400      646        31446      0          21046.28   85.88      21605      6520      
2668.800005 5.7        234        1          0          349.263    18901      -1400      657        31448      0          21047.37   85.883     21606      6520      
