~Version
 VERS              .         2.0                           : CWLS LOG ASCII STANDARD - VERSION 2.0
 WRAP              .         NO                            : ONE LINE PER DEPTH STEP
 DLM               .         SPACE                         : DELIMITING CHARACTER(SPACE TAB OR COMMA)
~Well Information
#_______________________________________________________________________________
#
#PARAMETER_NAME    .UNIT     VALUE                         : DESCRIPTION
#_______________________________________________________________________________
STRT               .M        2659.4                        : First reference value
STOP               .M        2769.4                        : Last reference value
STEP               .M        0.2                           : Step increment
NULL               .         -9999                         : Missing value
COMP               .                                       : Company
WELL               .         616                           : Well name
FLD                .                                       : Field
LOC                .                                       : Location
CNTY               .                                       : County
STAT               .                                       : State
CTRY               .                                       : Country
SRVC               .                                       : Service Company
DATE               .                                       : Date
API                .                                       : API number
PROJECT_UPGRADE_TIME .         2021-03-18T21_24_50           : 
group              .         Good                          : 
~Parameter Information Block
#_______________________________________________________________________________
#
#PARAMETER_NAME    .UNIT     VALUE                         : DESCRIPTION
#_______________________________________________________________________________
SET                .         D1171_D                       : 
OTHER              .         Программное обеспечение станции MONITOR-386EX 25/12/99 15_08_10   BGF V52 22/08/01 16_56_30   3.2_BGF_N_3070031: 
OTHER_10           .         Тарировки_                    : 
OTHER_11           .         TM.GRD = 0.00403*TM$.UE + -1.19: 
OTHER_12           .         MN.ATM = (7.1e-006*TM.GRD + 0.02017)*(MN$.UE + -3.03*TM.GRD + -1833): 
OTHER_13           .         Id error                      : 
OTHER_2            .         Kedr.exe версия 3.4.2.51      : 
OTHER_3            .         KedrData.dll версия 3.4.2.24  : 
OTHER_4            .         Драйвер версия 2.1.1.8        : 
OTHER_5            .         Мнемоники версия 3.3 S        : 
OTHER_6            .         Прибор_ КСА-М1                : 
OTHER_7            .         Номер прибора_ 265            : 
OTHER_8            .         Режим_ КСА-М1                 : 
OTHER_9            .         Форма_ ТЕРМОМЕТР              : 
PROJECT_UPGRADE_TIME .         2021-03-18T21_24_49           : 
TLFamily_DEPT      .         Measured Depth                : 
TLFamily_GK        .         Gamma Ray                     : 
TLFamily_GK$       .                                       : 
TLFamily_LM        .         Casing Collar locator         : 
TLFamily_METKA     .                                       : 
TLFamily_MN        .                                       : 
TLFamily_MN$       .                                       : 
TLFamily_RCOR      .                                       : 
TLFamily_SPID      .         Spontaneous Potential         : 
TLFamily_STD       .                                       : 
TLFamily_TENS      .         Cable Tension                 : 
TLFamily_TIME      .         Time                          : 
TLFamily_TM        .         Temperature                   : 
TLFamily_TM$       .         Temperature                   : 
TLFamily_VGD       .         Gas Volume                    : 
group              .         prim                          : 
~Curve Information
#_______________________________________________________________________________
#
#LOGNAME           .UNIT     LOG_ID                        : DESCRIPTION
#_______________________________________________________________________________
DEPT               .M                                      : 1 Глубина, м -    0.0 см 
GK                 .MKR/H                                  : 15 Гамма-активность, мкр./ч -  110.0 см 
GK$                .UE                                     : 12 Гамма-активность, усл.ед. -  110.0 см 
LM                 .                                       : 10 Локатор муфт,  -   20.0 см 
METKA              .                                       : 3 Метки,  -    0.0 см 
MN                 .ATM                                    : 14 Давление, атм. -  160.0 см 
MN$                .UE                                     : 8 Давление, усл.ед. -  160.0 см 
RCOR               .CM/KM                                  : 5 Коррекция по ролику, см/км -    0.0 см 
SPID               .M/H                                    : 2 Скорость, м/час -    0.0 см 
STD                .                                       : 11 Приток,  -  170.0 см 
TENS               .T                                      : 6 Натяжение кабеля, т -    0.0 см 
TIME               .S                                      : 4 Время, сек -    0.0 см 
TM                 .GRD                                    : 13 Температура, °C -  180.0 см 
TM$                .UE                                     : 7 Температура, усл.ед. -  180.0 см 
VGD                .                                       : 9 Влагомер,  -  170.0 см 
~Ascii
2659.4     -9999      -9999      -9999      -9999      -9999      -9999      -9999      -9999      -9999      -9999      -9999      -9999      -9999      -9999     
2659.6     -9999      -9999      -9999      0          -9999      -9999      -1400      159        -9999      0          27604.81   -9999      -9999      -9999     
2659.8     -9999      -9999      1          0          -9999      -9999      -1400      257        -9999      0          27606.38   -9999      -9999      -9999     
2660       -9999      -9999      1          2          -9999      -9999      -1400      301        -9999      0          27607.15   -9999      -9999      -9999     
2660.2     -9999      -9999      1          0          -9999      -9999      -1400      350        -9999      0          27608.1    -9999      -9999      -9999     
2660.4     -9999      -9999      1          0          -9999      -9999      -1400      407        -9999      0          27609.2    -9999      -9999      -9999     
2660.6     -9999      -9999      1          0          -9999      -9999      -1400      461        -9999      0          27610.45   -9999      -9999      -9999     
2660.8     9.07       384        1          0          -9999      -9999      -1400      492        -9999      0          27611.71   -9999      -9999      -9999     
2661       8.99       382        1          0          -9999      -9999      -1400      515        -9999      0          27612.93   -9999      -9999      -9999     
2661.2     8.76       361        1          0          255.214    14377      -1400      533        -9999      0          27614.22   -9999      -9999      -9999     
2661.4     8.55       361        1          0          255.214    14377      -1400      545        30936      0          27615.39   84.247     21200      6609      
2661.6     8.6        377        1          0          255.214    14377      -1400      564        30940      0          27616.6    84.25      21201      6608      
2661.8     8.75       377        1          0          255.232    14378      -1400      568        30935      0          27617.82   84.25      21201      6608      
2662       8.7        364        1          0          255.235    14378      -1400      570        30914      0          27619.07   84.253     21202      6607      
2662.2     8.49       359        1          0          255.263    14379      -1400      584        30872      0          27620.27   84.256     21202      6607      
2662.4     8.39       354        1          0          255.277    14380      -1400      588        30835      0          27621.43   84.258     21203      6607      
2662.6     8.27       351        1          0          255.301    14381      -1400      591        30801      0          27622.71   84.263     21204      6607      
2662.8     8.19       347        1          0          255.319    14382      -1400      589        30775      0          27623.83   84.267     21205      6606      
2663       7.71       321        1          0          255.337    14383      -1400      592        30750      0          27625.02   84.271     21206      6606      
2663.2     7.21       276        1          0          255.381    14385      -1400      595        30739      0          27626.2    84.274     21207      6607      
2663.4     6.56       268        1          0          255.372    14385      -1400      594        30728      0          27627.43   84.278     21208      6606      
2663.6     6.32       262        1          0          255.423    14387      -1400      601        30721      0          27628.6    84.282     21209      6607      
2663.8     6.07       255        1          0          255.408    14386      -1400      604        30716      0          27629.77   84.282     21209      6606      
2664       6          255        1          0          255.444    14388      -1400      602        30714      0          27630.96   84.29      21211      6606      
2664.2     5.38       218        1          0          255.444    14388      -1400      600        30715      0          27632.12   84.29      21211      6606      
2664.4     5.19       218        1          0          255.486    14390      -1400      605        30716      0          27633.31   84.298     21213      6606      
2664.6     5.26       227        1          0          255.499    14391      -1400      603        30717      0          27634.47   84.301     21214      6605      
2664.8     5.29       227        1          0          255.512    14391      -1400      600        30717      0          27635.69   84.306     21215      6605      
2665       5.7        259        1          0          255.548    14393      -1400      610        30718      0          27636.85   84.31      21216      6605      
2665.2     5.95       259        1          0          255.548    14393      -1400      612        30718      0          27638.03   84.31      21216      6605      
2665.4     6.25       282        1          0          255.59     14395      -1400      614        30720      0          27639.17   84.315     21217      6604      
2665.6     6.49       282        1          0          255.596    14395      -1400      601        30720      0          27640.38   84.319     21218      6605      
2665.8     6.64       291        1          0          255.631    14397      -1400      607        30725      0          27641.5    84.319     21218      6604      
2666       6.79       293        1          0          255.632    14397      -1400      611        30729      0          27642.68   84.323     21219      6604      
2666.2     6.79       289        1          0          255.652    14398      -1400      609        30738      0          27643.92   84.327     21220      6600      
2666.4     6.77       289        1          0          255.673    14399      -1400      609        30738      0          27645.04   84.332     21221      6599      
2666.6     6.76       288        1          0          255.674    14399      -1400      616        30736      0          27646.2    84.336     21222      6599      
2666.8     6.74       288        1          0          255.71     14401      -1400      619        30735      0          27647.36   84.343     21224      6598      
2667       6.69       282        1          0          255.715    14401      -1400      609        30732      0          27648.57   84.347     21225      6597      
2667.2     6.39       267        1          0          255.741    14402      -1400      614        30734      0          27649.74   84.351     21226      6597      
2667.4     6.29       267        1          0          255.757    14403      -1400      620        30740      0          27650.85   84.36      21228      6597      
2667.6     6.1        256        1          0          255.778    14404      -1400      613        30742      0          27652.09   84.366     21230      6597      
2667.8     6.02       256        1          0          255.799    14405      -1400      614        30747      0          27653.22   84.369     21231      6597      
2668       6.01       257        1          0          255.82     14406      -1400      620        30747      0          27654.39   84.373     21232      6597      
2668.2     6.01       257        1          0          255.838    14407      -1400      619        30751      0          27655.52   84.379     21233      6597      
2668.4     5.99       255        1          0          255.853    14408      -1400      619        30751      0          27656.72   84.386     21235      6596      
2668.6     5.97       255        1          0          255.883    14409      -1400      613        30757      0          27657.88   84.391     21236      6596      
2668.8     5.92       251        1          0          255.883    14409      -1400      620        30762      0          27659.04   84.397     21237      6596      
2669       5.89       251        1          0          255.924    14411      -1400      617        30768      0          27660.22   84.403     21239      6596      
