~Version
 VERS              .         2.0                           : CWLS LOG ASCII STANDARD - VERSION 2.0
 WRAP              .         NO                            : ONE LINE PER DEPTH STEP
 DLM               .         SPACE                         : DELIMITING CHARACTER(SPACE TAB OR COMMA)
~Well Information
#_______________________________________________________________________________
#
#PARAMETER_NAME    .UNIT     VALUE                         : DESCRIPTION
#_______________________________________________________________________________
STRT               .M        21.55                         : First reference value
STOP               .M        2764.75                       : Last reference value
STEP               .M        0.2                           : Step increment
NULL               .         -9999                         : Missing value
COMP               .                                       : Company
WELL               .         616                           : Well name
FLD                .                                       : Field
LOC                .                                       : Location
CNTY               .                                       : County
STAT               .                                       : State
CTRY               .                                       : Country
SRVC               .                                       : Service Company
DATE               .                                       : Date
API                .                                       : API number
PROJECT_UPGRADE_TIME .         2021-03-18T21_24_50           : 
group              .         Good                          : 
~Parameter Information Block
#_______________________________________________________________________________
#
#PARAMETER_NAME    .UNIT     VALUE                         : DESCRIPTION
#_______________________________________________________________________________
SET                .         D7028_D_2                     : 
NPR                .         155                           : Номер прибора
OTHER              .         Kedr.exe версия 2.1.2.32      : 
OTHER_10           .         TM.GRD = 0.00404*TM$.UE + 0.07: 
OTHER_11           .         MN.ATM = (6.33279e-006*TM.GRD + 0.02401)*(MN$.UE + 2.72*TM.GRD + -2018): 
OTHER_12           .         GK.MKR/H = GK$.UE / 43.5489 + 0: 
OTHER_13           .         RES.SM = 0.00476*CRES.UE - 1.51709: 
OTHER_14           .         PL.GSM3 = 0 + 0 * (PL.UE / 1) +  0 * (PL.UE / 1)^2: 
OTHER_15           .         Постоянная времени ГГП = 6 сек: 
OTHER_16           .         Постоянная времени ГК = 6 сек : 
OTHER_2            .         KedrData.dll версия 3.2.2.14  : 
OTHER_3            .         LasInf.dll версия 3.2.0.13    : 
OTHER_4            .         Драйвер версия 1.2.0.5        : 
OTHER_5            .         Прибор_ КСА-M1                : 
OTHER_6            .         Номер прибора_ 155+р204       : 
OTHER_7            .         Режим_ КСА-М1 + ГГП + Резистивиметр: 
OTHER_8            .         Форма_ 223\2                  : 
OTHER_9            .         Тарировки_                    : 
PR                 .         КСА-Т7 М1                     : Тип прибора
PROJECT_UPGRADE_TIME .         2021-03-18T21_24_50           : 
PRTY               .         ПП-223_2                      : Номер партии
SRV                .         ЦКРС                          : Заказчик
SRVC               .         Лузин  А.Б.                   : Начальник партии
TLFamily_DEPT      .         Measured Depth                : 
TLFamily_LM        .         Casing Collar locator         : 
TLFamily_MN        .                                       : 
TLFamily_SPID      .         Spontaneous Potential         : 
TLFamily_TM        .         Temperature                   : 
group              .         second                        : 
~Curve Information
#_______________________________________________________________________________
#
#LOGNAME           .UNIT     LOG_ID                        : DESCRIPTION
#_______________________________________________________________________________
DEPT               .M                                      : Depth curve 
LM                 .е.ацп                                  : Локация муфт 
MN                 .атм                                    : Манометрия, атм 
SPID               .м/ч                                    : Скорость записи,м/час 
TM                 .град.С                                 : Термометрия,град.С 
~Ascii
# ...
2182.35    327.002    195.98     -1834.997  58.58     
2182.55    342        196        -1815.007  58.58     
2182.75    341.999    196.01     -1860      58.58     
2182.95    334.011    196.04     -1859.996  58.59     
2183.15    406.991    196.07     -1834.993  58.59     
2183.35    349.014    196.08     -1790      58.59     
2183.55    436.028    196.09     -1790      58.59     
2183.75    614.019    196.12     -1790.004  58.6      
2183.95    733.038    196.13     -1818.007  58.6      
2184.15    974.091    196.14     -1859.996  58.6      
2184.35    1551.145   196.17     -1834.997  58.61     
2184.55    2472.238   196.19     -1815.007  58.61     
2184.75    3983.403   196.22     -1859.996  58.61     
2184.95    6542.021   196.23     -1836.993  58.62     
2185.15    324.024    196.25     -1790      58.62     
2185.35    477.044    196.28     -1790      58.62     
2185.55    757.076    196.29     -1790.004  58.62     
2185.75    1239.861   196.31     -1817.003  58.63     
2185.95    358.972    196.34     -1833.993  58.63     
2186.15    177.992    196.36     -1790.004  58.63     
2186.35    127.998    196.36     -1815.007  58.63     
2186.55    117.998    196.39     -1860      58.64     
2186.75    103.997    196.41     -1859.996  58.64     
2186.95    88.002     196.43     -1834.993  58.64     
2187.15    98.002     196.44     -1790.004  58.65     
2187.35    108        196.46     -1813.007  58.65     
2187.55    108.003    196.48     -1860      58.65     
2187.75    130.003    196.49     -1859.996  58.66     
2187.95    147.008    196.51     -1834.993  58.66     
2188.15    197.011    196.54     -1790.003  58.66     
2188.35    265.021    196.56     -1811.004  58.66     
2188.55    398.033    196.58     -1837.992  58.67     
2188.75    607.055    196.59     -1790      58.67     
2188.95    958.088    196.61     -1790.004  58.67     
2189.15    1517.969   196.64     -1813.004  58.68     
2189.35    1324.114   196.66     -1838.992  58.68     
2189.55    2045.986   196.69     -1790.004  58.68     
2189.75    1959.892   196.7      -1813.004  58.69     
2189.95    1272.956   196.71     -1838.992  58.69     
2190.15    995.983    196.74     -1790      58.69     
2190.35    890.039    196.75     -1790.003  58.69     
2190.55    1140.104   196.76     -1809.008  58.69     
2190.75    1801.882   196.79     -1860      58.69     
2190.95    1056.91    196.81     -1860      58.7      
2191.15    486.107    196.83     -1859.992  58.7      
2191.35    1164.918   196.85     -1807.997  58.71     
2191.55    642.909    196.86     -1790.009  58.71     
2191.75    68.001     196.88     -1849.991  58.71     
2191.95    74         196.91     -1794.009  58.72     
2192.15    72.003     196.93     -1853.001  58.72     
2192.35    89.005     196.93     -1859.99   58.72     
2192.55    121.006    196.96     -1797.008  58.72     
2192.75    162.005    196.98     -1850.002  58.73     
2192.95    195.01     197.02     -1860      58.73     
2193.15    261        197.05     -1860      58.73     
2193.35    261.048    197.05     -1860      58.74     
2193.55    565.053    197.07     -1860      58.74     
2193.75    899.09     197.1      -1859.991  58.74     
2193.95    1468.845   197.1      -1801.007  58.75     
2194.15    485        197.12     -1847.002  58.75     
2194.35    484.986    197.15     -1860      58.75     
2194.55    396.01     197.15     -1860      58.75     
2194.75    458.087    197.17     -1860      58.76     
2194.95    1007       197.19     -1859.992  58.76     
2195.15    1007.096   197.22     -1806.991  58.76     
2195.35    1613.152   197.24     -1746.997  58.77     
2195.55    2572.247   197.25     -1730.015  58.77     
2195.75    4133.451   197.27     -1826.997  58.77     
2195.95    662.934    197.29     -1805.006  58.77     
2196.15    242.994    197.32     -1843.003  58.78     
2196.35    207.009    197.32     -1859.991  58.78     
2196.55    266.007    197.36     -1805.997  58.78     
2196.75    310.989    197.39     -1790      58.78     
2196.95    240        197.4      -1790.008  58.79     
2197.15    240.009    197.42     -1842.994  58.79     
2197.35    296.996    197.44     -1807.997  58.79     
2197.55    269.007    197.47     -1790.009  58.8      
2197.75    313        197.49     -1846.993  58.8      
2197.95    310.995    197.5      -1804.007  58.8      
2198.15    282        197.52     -1846.002  58.81     
2198.35    282.001    197.54     -1860      58.81     
2198.55    288.994    197.57     -1860      58.81     
2198.75    248.004    197.57     -1860      58.82     
2198.95    270.994    197.59     -1860      58.82     
2199.15    235.002    197.62     -1859.992  58.82     
2199.35    247.999    197.64     -1811.005  58.83     
2199.55    242.996    197.65     -1842.003  58.83     
2199.75    214.998    197.67     -1859.992  58.83     
2199.95    202        197.69     -1810.997  58.83     
2200.15    198.997    197.72     -1790      58.84     
2200.35    180.997    197.74     -1790.008  58.84     
2200.55    161.004    197.75     -1841.995  58.84     
2200.75    185.005    197.76     -1809.997  58.84     
2200.95    213.999    197.79     -1790      58.84     
2201.15    206.016    197.79     -1790      58.85     
2201.35    305.022    197.81     -1790      58.85     
2201.55    442.029    197.84     -1790.003  58.86     
2201.75    625.059    197.86     -1811.008  58.86     
2201.95    1000.053   197.89     -1860      58.86     
2202.15    1331.84    197.91     -1859.997  58.86     
2202.35    320.98     197.94     -1838.992  58.86     
2202.55    195.005    197.94     -1790      58.87     
2202.75    228.003    197.96     -1790.005  58.87     
2202.95    250.002    198        -1823.013  58.88     
2203.15    265.011    198.02     -1904.993  58.88     
2203.35    334.005    198.03     -1860      58.88     
2203.55    367.996    198.05     -1859.998  58.89     
2203.75    343.009    198.07     -1845.993  58.89     
2203.95    399.011    198.08     -1803.009  58.89     
2204.15    468.026    198.12     -1859.998  58.89     
2204.35    629.004    198.12     -1845.993  58.89     
2204.55    656.027    198.15     -1803.009  58.9      
2204.75    823.01     198.17     -1860      58.9      
2204.95    886.937    198.19     -1860      58.91     
2205.15    492.009    198.2      -1859.999  58.91     
2205.35    549.031    198.22     -1852.99   58.91     
2205.55    743.017    198.25     -1790.001  58.92     
2205.75    850.072    198.27     -1797.01   58.92     
2205.95    1304.118   198.29     -1860      58.92     
2206.15    2049.194   198.3      -1859.999  58.93     
2206.35    3272.245   198.32     -1852.99   58.93     
2206.55    4814.359   198.34     -1793.011  58.93     
2206.75    779.988    198.37     -1860      58.93     
2206.95    704.029    198.39     -1859.999  58.93     
2207.15    889.071    198.39     -1855.99   58.94     
2207.35    1333.07    198.42     -1790      58.94     
2207.55    1772.943   198.44     -1790      58.94     
2207.75    1414.076   198.44     -1790.011  58.95     
2207.95    1889.918   198.49     -1856.989  58.95     
2208.15    1376.887   198.49     -1790      58.95     
2208.35    663.94     198.51     -1790      58.95     
2208.55    288.997    198.52     -1793.011  58.95     
2208.75    270.987    198.54     -1859.989  58.96     
2208.95    190.997    198.57     -1790      58.96     
2209.15    173.006    198.59     -1790.011  58.97     
2209.35    208        198.61     -1855.989  58.97     
2209.55    208.006    198.64     -1790.001  58.97     
2209.75    248.004    198.66     -1794.011  58.97     
2209.95    271        198.66     -1860      58.97     
2210.15    269.005    198.69     -1860      58.98     
2210.35    298.007    198.71     -1856.989  58.98     
2210.55    339.018    198.74     -1790      58.98     
2210.75    453.017    198.76     -1790.011  58.98     
2210.95    560.047    198.76     -1860      58.99     
2211.15    854.074    198.79     -1860      58.99     
2211.35    1320.836   198.81     -1859.989  58.99     
