~Version
 VERS              .         2.0                           : CWLS LOG ASCII STANDARD - VERSION 2.0
 WRAP              .         NO                            : ONE LINE PER DEPTH STEP
 DLM               .         SPACE                         : DELIMITING CHARACTER(SPACE TAB OR COMMA)
~Well Information
#_______________________________________________________________________________
#
#PARAMETER_NAME    .UNIT     VALUE                         : DESCRIPTION
#_______________________________________________________________________________
STRT               .M        3.4                           : First reference value
STOP               .M        832.4                         : Last reference value
STEP               .M        0.2                           : Step increment
NULL               .         -9999                         : Missing value
COMP               .                                       : Company
WELL               .         616                           : Well name
FLD                .                                       : Field
LOC                .                                       : Location
CNTY               .                                       : County
STAT               .                                       : State
CTRY               .                                       : Country
SRVC               .                                       : Service Company
DATE               .                                       : Date
API                .                                       : API number
PROJECT_UPGRADE_TIME .         2021-03-18T21_24_50           : 
group              .         Good                          : 
~Parameter Information Block
#_______________________________________________________________________________
#
#PARAMETER_NAME    .UNIT     VALUE                         : DESCRIPTION
#_______________________________________________________________________________
SET                .         ULN                           : 
PROJECT_UPGRADE_TIME .         2021-03-18T21_24_50           : 
TLFamily_AK4       .                                       : 
TLFamily_ALFAK     .                                       : 
TLFamily_AMPL      .                                       : 
TLFamily_DEPTH     .         Measured Depth                : 
TLFamily_DK1       .                                       : 
TLFamily_DK2       .                                       : 
TLFamily_DTK       .         Compressional Slowness        : 
TLFamily_QCBL      .                                       : 
TLFamily_T1        .         Travel Time 1                 : 
TLFamily_T2        .         Travel Time 2                 : 
group              .         prim                          : 
~Curve Information
#_______________________________________________________________________________
#
#LOGNAME           .UNIT     LOG_ID                        : DESCRIPTION
#_______________________________________________________________________________
DEPTH              .M                                      : 0 Depth curve 
AK4                .                                       : 2 Амплитуда - Волна по колонне - Канал1 
ALFAK              .дБ/м                                   : 1 Затухание - Волна по колонне 
AMPL               .                                       : 8 Коэффициент усиления ВС 
DK1                .дБ                                     : 3 Кривая ослабления - Волна по колонне - Канал1 
DK2                .дБ                                     : 4 Кривая ослабления - Волна по колонне - Канал2 
DTK                .мкс/м                                  : 5 ДельтаТ - Волна по породе 
QCBL               .                                       : 9 Контакт цемент-колонна 
T1                 .мкс                                    : 6 Время пробега - Волна по породе - Канал1 
T2                 .мкс                                    : 7 Время пробега - Волна по породе - Канал2 
~Ascii
# ...
499.8      6841.99    24.747     1          13.849     28.131     189.24     2          357.121    454.113   
500        7670.745   25.884     1          12.847     29.339     186.65     2          359.778    455.474   
500.2      7427.92    26.482     1          13.221     30.013     188.672    2          363.054    457.391   
500.4      6356.34    26.786     1          14.596     29.632     187.135    2          363.675    457.243   
500.6      5284.76    26.932     1          15.972     29.438     187.463    2          364.296    458.028   
500.8      4913.233   25.652     1          16.658     29.484     194.228    2          359.575    456.689   
501        4541.707   22.073     1          17.344     28.38      203.511    2          354.854    456.61    
501.2      5025.823   19.446     1          16.868     27.223     210.609    2          351.982    457.287   
501.4      6737.104   21.569     1          14.545     25.96      205.603    2          353.955    456.757   
501.6      8448.386   23.675     1          12.221     24.69      195.229    2          355.927    453.542   
501.8      9775.668   24.974     1          10.649     23.137     189.176    2          356.171    450.759   
502        10247.31   22.892     1          10.24      21.686     187.146    2          356.292    449.865   
502.2      10835.95   22.445     1          9.736      20.959     187.729    2          356.79     450.655   
502.4      12035.71   22.706     1          8.898      20.251     188.039    2          357.263    451.283   
502.6      13235.46   22.772     1          8.06       19.446     187.597    2          357.736    451.535   
502.8      12968.86   21.83      1          8.277      19.192     188.281    2          357.837    451.977   
503        11619.5    20.052     1          9.239      19.265     189.466    2          357.842    452.575   
503.2      10270.15   18.896     1          10.201     19.649     189.509    2          357.847    452.602   
503.4      10270.15   19.093     1          10.201     19.748     191.006    2          357.847    453.35    
503.6      10707.63   20.226     1          9.853      19.966     190.851    2          357.895    453.32    
503.8      11145.11   21.295     1          9.505      20.152     190.43     2          357.942    453.157   
504        11582.59   22.589     1          9.157      20.451     189.263    2          357.989    452.621   
504.2      11582.59   22.439     1          9.157      20.376     189.33     2          357.989    452.655   
504.4      11582.59   21.865     1          9.157      20.089     189.373    2          357.989    452.676   
504.6      11543.2    20.877     1          9.186      19.625     190.575    2          357.885    453.173   
504.8      11503.8    21.047     1          9.216      19.74      189.783    2          357.781    452.673   
505        10687.94   20.85      1          9.903      20.329     189.651    2          357.86     452.686   
505.2      9911.484   21.538     1          10.561     21.33      188.103    2          358.043    452.095   
505.4      8523.334   21.885     1          11.868     22.81      187.903    2          358.052    452.004   
505.6      6981.571   20.679     1          13.912     24.251     189.126    2          356.738    451.301   
505.8      5439.809   18.843     1          15.955     25.377     190.226    2          355.424    450.538   
506        4518.641   18.299     1          17.333     26.482     189.711    2          354.268    449.124   
506.2      4531.13    20.083     1          17.309     27.35      190.487    2          352.908    448.151   
506.4      4543.62    21.709     1          17.285     28.139     192.273    2          351.547    447.684   
506.6      4547.206   22.205     1          17.278     28.381     194.518    2          350.203    447.462   
506.8      4284.539   23.139     1          17.829     29.398     194.907    2          350.009    447.462   
507        4021.873   22.378     1          18.38      29.569     194.372    2          349.814    447.001   
507.2      3845.088   22.029     1          18.739     29.754     194.529    2          349.736    447.001   
507.4      3681.866   20.256     1          19.143     29.271     194.942    2          349.529    447.001   
507.6      3518.644   19.816     1          19.547     29.455     195.356    2          349.322    447.001   
507.8      3314.421   19.758     1          20.026     29.905     196        2          349        447.001   
508        3359.302   20.609     1          19.909     30.214     196        2          349        447.001   
508.2      3288.88    21.711     1          20.103     30.958     195.444    2          349.278    447.001   
508.4      3173.577   22.06      1          20.413     31.443     194.889    2          349.556    447.001   
508.6      2952.088   22.702     1          21.042     32.393     193.717    2          350.404    447.262   
508.8      2791.427   24.396     1          21.538     33.736     190.519    2          353.003    448.262   
509        2630.767   27.234     1          22.035     35.652     187.136    2          355.602    449.17    
509.2      2450.291   26.019     1          22.672     35.682     184.171    2          357.894    449.979   
509.4      2316.738   25.133     1          23.162     35.728     185.193    2          357.368    449.964   
509.6      2031.277   23.217     1          24.332     35.94      184.027    2          358.043    450.057   
509.8      1871.817   26.131     1          25.042     38.108     181.726    2          358.455    449.319   
510        1560.11    26.597     1          26.669     39.967     184.958    2          359.021    451.5     
510.2      1400.31    27.612     1          27.615     41.42      188.729    2          358.386    452.75    
510.4      1240.51    25.866     1          28.561     43.155     195.444    2          357.75     455.473   
510.6      1033.202   26.704     1          28.697     45.589     192.07     2          357.798    453.834   
510.8      995.945    26.608     1          28.971     45.814     187.378    2          357.895    451.584   
511        819.564    26.283     1          30.581     45.6       185.945    2          360.618    450.25    
511.2      853.264    22.231     1          33.016     44.131     198.519    2          361.918    456.167   
511.4      599.061    20.508     1          34.585     44.017     211.506    2          365.482    465.389   
511.6      643.434    22.927     1          34.088     44.73      216.883    2          368.731    470.417   
511.8      685.033    27.149     1          32.63      45.382     197.961    2          373.355    467.25    
512        844.484    32.264     1          31.901     45.765     202.973    2          375.667    469.639   
512.2      1211.921   38.273     1          29.483     44.252     200.882    2          373.692    469.237   
512.4      1545.491   43.91      1          27.224     42.546     221.398    2          369.741    473.246   
512.6      1845.194   37.34      1          25.125     39.43      215.071    2          360.852    465.779   
512.8      1777.462   29.169     1          25.444     37.601     212.94     2          353.939    459.431   
513        1812.786   23.888     1          25.278     37.059     201.646    2          349        451.144   
513.2      1766.036   25.932     1          25.521     38.324     196        2          349        447       
513.4      1719.285   26.652     1          25.764     39.089     196        2          349        447       
513.6      1632.89    25.939     1          26.176     39.146     196        2          349        447       
513.8      1662.436   27.107     1          26.021     39.574     196        2          349        447       
514        1691.982   28.196     1          25.865     39.963     196        2          349        447       
514.2      1755.938   29.545     1          25.554     40.326     196        2          349        447       
