~Version
 VERS              .         2.0                           : CWLS LOG ASCII STANDARD - VERSION 2.0
 WRAP              .         NO                            : ONE LINE PER DEPTH STEP
 DLM               .         SPACE                         : DELIMITING CHARACTER(SPACE TAB OR COMMA)
~Well Information
#_______________________________________________________________________________
#
#PARAMETER_NAME    .UNIT     VALUE                         : DESCRIPTION
#_______________________________________________________________________________
STRT               .M        2645.2                        : First reference value
STOP               .M        2753.000054                   : Last reference value
STEP               .M        0.2000001                     : Step increment
NULL               .         -9999                         : Missing value
COMP               .                                       : Company
WELL               .         616                           : Well name
FLD                .                                       : Field
LOC                .                                       : Location
CNTY               .                                       : County
STAT               .                                       : State
CTRY               .                                       : Country
SRVC               .                                       : Service Company
DATE               .                                       : Date
API                .                                       : API number
PROJECT_UPGRADE_TIME .         2021-03-18T21_24_50           : 
group              .         Good                          : 
~Parameter Information Block
#_______________________________________________________________________________
#
#PARAMETER_NAME    .UNIT     VALUE                         : DESCRIPTION
#_______________________________________________________________________________
SET                .         D4407_D                       : 
OTHER              .         Запись производится в присутствии: 
OTHER_10           .         Максимальная температура      : 
OTHER_11           .         Тип промывочной жидкости      : 
OTHER_12           .         Сопротивление ПЖ (Ом*м) при 20°C: 
OTHER_13           .         Плотность ПЖ(г/см3)           : 
OTHER_14           .         Вязкость ПЖ(с)                : 
OTHER_15           .         Водоотдача ПЖ(см3/30мин)      : 
OTHER_16           .         Уровень ПЖ                    : 
OTHER_17           .         Нефть ПЖ (%)                  : 
OTHER_18           .         Барит ПЖ (%)                  : 
OTHER_19           .         Гематит ПЖ (%)                : 
OTHER_2            .         Заказчик ННСН  ЦДНГ-1         : 
OTHER_20           .         КМЦ ПЖ (%)                    : 
OTHER_21           .         Разгазирование ПЖ (да,нет)    : 
OTHER_22           .         Подъемник                     : 
OTHER_23           .         Лаборатория                   : 
OTHER_24           .         Тип кабеля                    : 
OTHER_25           .         Длина кабеля (м)              : 
OTHER_26           .         Цена последней метки          : 
OTHER_27           .         Цена контрольной метки        : 
OTHER_28           .         Диаметр долота (мм)           : 
OTHER_29           .         Глубина бурения (м)           : 
OTHER_3            .         Площадь                       : 
OTHER_30           .         Искусственный забой (м)       : 
OTHER_31           .         Диаметр колонны (мм)          : 
OTHER_32           .         Толщина колонны (мм)          : 
OTHER_33           .         Башмак колонны (м)            : 
OTHER_34           .         Диаметр НКТ (мм)              : 
OTHER_35           .         Толщина НКТ (мм)              : 
OTHER_36           .         Воронка НКТ (м)               : 
OTHER_37           .         Дата цементожа                : 
OTHER_38           .         Тип, количество(т) и плотность цемента: 
OTHER_39           .         Интервалы перфорации (м)      : 
OTHER_4            .         Категория                     : 
OTHER_40           .         Направление, диаметр (мм)     : 
OTHER_41           .         Направление, глубина (м)      : 
OTHER_42           .         Кондуктор, диаметр (мм)       : 
OTHER_43           .         Кондуктор, глубина (м)        : 
OTHER_44           .         Техническая колонна, диаметр (мм): 
OTHER_45           .         Техническая колонна, глубина (м): 
OTHER_46           .         Эксплуатационная колонна, диаметр (мм): 
OTHER_47           .         Эксплуатационная колонна, глубина (м): 
OTHER_48           .         Программа Кедр-02 версия 3.4  : 
OTHER_49           .         Операционная система Windows NT 5.1 build 2600 Service Pack 2: 
OTHER_5            .         Назначение исследований       : 
OTHER_50           .         Программное обеспечение станции MONITOR-386EX 25/12/99 15_08_10   BGF V54 20/09/05 15_32_17   3.3__BGF_9030071: 
OTHER_51           .         Kedr.exe версия 3.4.2.74      : 
OTHER_52           .         KedrData.dll версия 3.4.2.29  : 
OTHER_53           .         Мнемоники версия 3.18 S       : 
OTHER_54           .         Драйвер версия 2.1.1.4        : 
OTHER_55           .         LasInf.dll 4.3.0.35           : 
OTHER_56           .         Прибор_ КСА-Т4                : 
OTHER_57           .         Номер прибора_ 160            : 
OTHER_58           .         Режим_ КСА-Т4                 : 
OTHER_59           .         Форма_ С.А.Б.                 : 
OTHER_6            .         Альтитуда стола ротора        : 
OTHER_60           .         Тарировки_                    : 
OTHER_61           .         <_techsia_sc_> Дата тарировки температуры 25.05.2010: 
OTHER_62           .         Ручной ввод коэффициентов     : 
OTHER_63           .         TM.DEGC = 0.00402*RTM.E.ACP + -0.994: 
OTHER_64           .         <_techsia_sc_> Дата тарировки давления 25.05.2010: 
OTHER_65           .         Ручной ввод коэффициентов     : 
OTHER_66           .         MN.ATM = (2.27521e-006*TM.DEGC + 0.02078)*(RMN.E.ACP + 6.2*TM.DEGC + -1688): 
OTHER_67           .         <_techsia_sc_> Дата тарировки ГК 25.05.2010: 
OTHER_68           .         Ручной ввод коэффициентов     : 
OTHER_69           .         GR.UR/H = RGR.IMP/MIN / 45.5144: 
OTHER_7            .         Вид исследований 3  6         : 
OTHER_70           .         GK.FLT = 0.1*GR.UR/H[-1] + (1-0.1)*GR.UR/H[0]: 
OTHER_8            .         Начало бурения интервала каротажа: 
OTHER_9            .         Окончание бурения интервала каротажа: 
PROJECT_UPGRADE_TIME .         2021-03-18T21_24_50           : 
TLFamily_CCLC      .                                       : 
TLFamily_DEPT      .         Measured Depth                : 
TLFamily_GK        .         Gamma Ray                     : 
TLFamily_GR        .         Gamma Ray                     : 
TLFamily_METKA     .                                       : 
TLFamily_MN        .                                       : 
TLFamily_RCOR      .                                       : 
TLFamily_RGR       .                                       : 
TLFamily_RMN       .                                       : 
TLFamily_RTEN      .                                       : 
TLFamily_RTM       .                                       : 
TLFamily_SPEE      .         Cable Speed                   : 
TLFamily_TIME      .         Time                          : 
TLFamily_TM        .         Temperature                   : 
group              .         prim                          : 
~Curve Information
#_______________________________________________________________________________
#
#LOGNAME           .UNIT     LOG_ID                        : DESCRIPTION
#_______________________________________________________________________________
DEPT               .M                                      : 1 Глубина, м -    0.0 см 
CCLC               .E.ACP                                  : 9 Локатор муфт,  -   20.0 см 
GK                 .FLT                                    : 14 Гамма-активность фильтрованная, мкр./ч -  110.0 см 
GR                 .UR/H                                   : 13 Гамма-активность, мкр./ч -  110.0 см 
METKA              .CU                                     : 3 Метки,  -    0.0 см 
MN                 .ATM                                    : 12 Давление, атм. -  160.0 см 
RCOR               .CM/KM                                  : 5 Коррекция по ролику, см/км -    0.0 см 
RGR                .IMP/MIN                                : 10 Гамма-активность, усл.ед. -  110.0 см 
RMN                .E.ACP                                  : 8 Давление, усл.ед. -  160.0 см 
RTEN               .T                                      : 6 Натяжение кабеля, т -    0.0 см 
RTM                .E.ACP                                  : 7 Температура, усл.ед. -  170.0 см 
SPEE               .M/H                                    : 2 Скорость, м/час -    0.0 см 
TIME               .S                                      : 4 Время, сек -    0.0 см 
TM                 .DEGC                                   : 11 Температура, °C -  170.0 см 
~Ascii
# ...
2666.00001 321        7.76       7.76       2          239.437    -1117      353        12730      0.26       16292      575        135.15     64.498    
2666.20001 405        8.48       8.48       0          239.451    -1116      386        12731      0.26       16279      576        136.34     64.449    
2666.400011 183        8.48       8.48       0          239.464    -1116      386        12732      0.26       16267      576        137.61     64.399    
2666.600011 197        8.11       8.11       0          239.479    -1116      369        12733      0.26       16256      575        138.86     64.354    
2666.800011 186        8.11       8.11       0          239.492    -1116      369        12734      0.26       16247      576        140.08     64.321    
2667.000011 5692       6.9        6.9        0          239.511    -1116      314        12735      0.26       16239      575        141.41     64.287    
2667.200011 1689       6.9        6.9        0          239.526    -1116      314        12736      0.26       16231      576        142.66     64.253    
2667.400011 492        6.07       6.07       0          239.52     -1116      276        12736      0.26       16221      575        143.87     64.212    
2667.600011 290        6.06       6.06       0          239.512    -1116      276        12736      0.26       16210      575        145.15     64.17     
2667.800011 213        6.5        6.5        0          239.525    -1116      296        12737      0.26       16197      575        146.44     64.119    
2668.000011 166        6.5        6.5        0          239.54     -1116      296        12738      0.26       16185      575        147.7      64.07     
2668.200011 76         6.22       6.22       0          239.556    -1116      283        12739      0.26       16176      575        148.96     64.035    
2668.400012 100        6.22       6.22       0          239.576    -1116      283        12740      0.26       16169      575        150.17     64.006    
2668.600012 66         6.92       6.92       0          239.608    -1116      315        12742      0.26       16161      575        151.52     63.973    
2668.800012 132        6.92       6.92       0          239.624    -1116      315        12743      0.26       16153      576        152.75     63.942    
2669.000012 157        7.27       7.27       0          239.639    -1116      331        12744      0.26       16144      575        154        63.905    
2669.200012 232        7.27       7.27       0          239.643    -1116      331        12745      0.26       16133      576        155.27     63.862    
2669.400012 253        6.66       6.66       0          239.644    -1116      303        12745      0.26       16119      575        156.48     63.803    
2669.600012 160        6.66       6.66       1          239.665    -1116      303        12746      0.26       16107      575        157.83     63.757    
2669.800012 39         7.29       7.29       0          239.688    -1116      332        12748      0.26       16099      575        159.05     63.724    
2670.000012 106        7.29       7.29       0          239.689    -1116      332        12748      0.26       16090      575        160.3      63.688    
2670.200012 104        6.44       6.44       0          239.714    -1116      293        12749      0.26       16082      576        161.56     63.655    
2670.400013 120        6.44       6.44       1          239.733    -1116      293        12751      0.26       16072      575        162.86     63.615    
2670.600013 99         6          6          0          239.754    -1116      273        12752      0.26       16062      576        164.08     63.575    
2670.800013 119        6          6          1          239.768    -1116      273        12753      0.26       16050      576        165.34     63.528    
2671.000013 162        6.7        6.7        0          239.781    -1116      305        12754      0.26       16038      578        166.53     63.477    
2671.200013 193        6.7        6.7        0          239.795    -1116      305        12755      0.26       16026      577        167.84     63.432    
2671.400013 170        6.64       6.64       0          239.81     -1116      302        12756      0.26       16017      576        169.13     63.394    
2671.600013 49         6.64       6.64       0          239.824    -1116      302        12757      0.26       16006      576        170.38     63.35     
2671.800013 31         6.94       6.94       0          239.839    -1116      316        12758      0.26       15995      575        171.64     63.306    
2672.000013 39         6.94       6.94       0          239.855    -1116      316        12759      0.26       15987      576        172.85     63.275    
2672.200013 74         7.03       7.03       0          239.885    -1116      320        12761      0.26       15979      576        174.16     63.242    
2672.400014 69         7.03       7.03       0          239.881    -1116      320        12761      0.26       15967      575        175.42     63.195    
2672.600014 72         7.03       7.03       0          239.897    -1116      320        12762      0.26       15950      575        176.69     63.125    
2672.800014 65         7.03       7.03       0          239.927    -1116      320        12764      0.26       15938      576        177.89     63.079    
2673.000014 110        7.12       7.12       0          239.919    -1116      324        12764      0.26       15925      576        179.18     63.023    
2673.200014 191        7.12       7.12       0          239.957    -1116      324        12766      0.26       15915      575        180.47     62.983    
2673.400014 139        6.5        6.5        0          239.966    -1116      296        12767      0.26       15908      575        181.72     62.956    
2673.600014 210        6.5        6.5        0          239.985    -1116      296        12768      0.26       15900      575        182.96     62.922    
2673.800014 194        6.31       6.31       0          239.999    -1116      287        12769      0.26       15887      576        184.19     62.872    
2674.000014 148        6.31       6.31       0          240.011    -1116      287        12770      0.26       15871      575        185.5      62.807    
2674.200014 187        5.71       5.71       0          240.023    -1116      260        12771      0.26       15857      575        186.77     62.75     
2674.400015 134        5.71       5.71       0          240.038    -1116      260        12772      0.26       15846      575        188.02     62.707    
2674.600015 102        5.08       5.08       0          240.063    -1116      231        12774      0.26       15834      575        189.23     62.657    
2674.800015 367        5.08       5.08       0          240.065    -1116      231        12774      0.26       15821      575        190.55     62.608    
2675.000015 252        4.61       4.61       0          240.081    -1116      210        12775      0.26       15814      576        191.8      62.577    
2675.200015 212        4.61       4.61       0          240.108    -1116      210        12777      0.26       15805      577        193.05     62.542    
2675.400015 292        4.55       4.55       0          240.128    -1116      207        12778      0.26       15792      576        194.3      62.49     
2675.600015 375        4.55       4.55       0          240.139    -1116      207        12779      0.26       15776      574        195.52     62.424    
2675.800015 282        4.94       4.94       0          240.152    -1116      225        12780      0.26       15762      574        196.84     62.369    
2676.000015 246        4.94       4.94       2          240.167    -1111      225        12781      0.26       15751      573        197.78     62.325    
2676.200015 178        5.4        5.4        0          240.181    -1110      246        12782      0.26       15741      572        198.99     62.283    
