~Version
 VERS              .         2.0                           : CWLS LOG ASCII STANDARD - VERSION 2.0
 WRAP              .         NO                            : ONE LINE PER DEPTH STEP
 DLM               .         SPACE                         : DELIMITING CHARACTER(SPACE TAB OR COMMA)
~Well Information
#_______________________________________________________________________________
#
#PARAMETER_NAME    .UNIT     VALUE                         : DESCRIPTION
#_______________________________________________________________________________
STRT               .M        2669.6                        : First reference value
STOP               .M        2776.19984                    : Last reference value
STEP               .M        0.1999997                     : Step increment
NULL               .         -9999                         : Missing value
COMP               .                                       : Company
WELL               .         616                           : Well name
FLD                .                                       : Field
LOC                .                                       : Location
CNTY               .                                       : County
STAT               .                                       : State
CTRY               .                                       : Country
SRVC               .                                       : Service Company
DATE               .                                       : Date
API                .                                       : API number
PROJECT_UPGRADE_TIME .         2021-03-18T21_24_50           : 
group              .         Good                          : 
~Parameter Information Block
#_______________________________________________________________________________
#
#PARAMETER_NAME    .UNIT     VALUE                         : DESCRIPTION
#_______________________________________________________________________________
SET                .         D1805_D                       : 
OTHER              .         Программное обеспечение станции MONITOR-386EX 25/12/99 15_08_10   BGF V52 22/08/01 16_56_30   3.1_SNGF___BGF_N_092049: 
OTHER_10           .         Тарировки_                    : 
OTHER_11           .         TM.GRD = 0.00403*TM$.UE + -1.07: 
OTHER_12           .         MN.ATM = (9.34907e-006*TM.GRD + 0.02171)*(MN$.UE + -7.93*TM.GRD + -1787): 
OTHER_13           .         GK.MKR/H = LM. / 42.4676      : 
OTHER_14           .         GK.FLT = 0.1*GK.MKR/H[-1] + (1-0.1)*GK.MKR/H[0]: 
OTHER_2            .         Kedr.exe версия 3.4.2.51      : 
OTHER_3            .         KedrData.dll версия 3.4.2.24  : 
OTHER_4            .         Драйвер версия 2.1.1.3        : 
OTHER_5            .         Мнемоники версия 3.3 S        : 
OTHER_6            .         Прибор_ КСА-Т4                : 
OTHER_7            .         Номер прибора_ 03             : 
OTHER_8            .         Режим_ КСА-Т4                 : 
OTHER_9            .         Форма_ КВА.                   : 
PROJECT_UPGRADE_TIME .         2021-03-18T21_24_49           : 
TLFamily_DEPT      .         Measured Depth                : 
TLFamily_GK        .         Gamma Ray                     : 
TLFamily_GK$       .                                       : 
TLFamily_GK_2      .         Gamma Ray                     : 
TLFamily_LM        .         Casing Collar locator         : 
TLFamily_METKA     .                                       : 
TLFamily_MN        .                                       : 
TLFamily_MN$       .                                       : 
TLFamily_RCOR      .                                       : 
TLFamily_SPID      .         Spontaneous Potential         : 
TLFamily_TENS      .         Cable Tension                 : 
TLFamily_TIME      .         Time                          : 
TLFamily_TM        .         Temperature                   : 
TLFamily_TM$       .         Temperature                   : 
group              .         prim                          : 
~Curve Information
#_______________________________________________________________________________
#
#LOGNAME           .UNIT     LOG_ID                        : DESCRIPTION
#_______________________________________________________________________________
DEPT               .M                                      : 1 Глубина, м -    0.0 см 
GK                 .MKR/H                                  : 13 Гамма-активность, мкр./ч -  110.0 см 
GK$                .UE                                     : 10 Гамма-активность, усл.ед. -  110.0 см 
GK_2               .FLT                                    : 14 Гамма-активность фильтрованная, мкр./ч -  110.0 см 
LM                 .                                       : 9 Локатор муфт,  -   20.0 см 
METKA              .                                       : 3 Метки,  -    0.0 см 
MN                 .ATM                                    : 12 Давление, атм. -  160.0 см 
MN$                .UE                                     : 8 Давление, усл.ед. -  160.0 см 
RCOR               .CM/KM                                  : 5 Коррекция по ролику, см/км -    0.0 см 
SPID               .M/H                                    : 2 Скорость, м/час -    0.0 см 
TENS               .T                                      : 6 Натяжение кабеля, т -    0.0 см 
TIME               .S                                      : 4 Время, сек -    0.0 см 
TM                 .GRD                                    : 11 Температура, °C -  170.0 см 
TM$                .UE                                     : 7 Температура, усл.ед. -  170.0 см 
~Ascii
# ...
2721.599922 11.33      481        11.33      158        0          329.975    17072      -657       542        0.01       3571.08    55.612     14065     
2721.799922 11.3       480        11.31      183        0          328.959    17026      -657       538        0.01       3572.39    55.608     14064     
2721.999921 11.3       480        11.3       162        0          330.103    17077      -657       534        0.01       3573.8     55.608     14064     
2722.199921 10.93      464        11.01      166        0          330.683    17104      -657       533        0.01       3575.06    55.607     14064     
2722.399921 10.93      464        10.93      139        0          330.083    17077      -657       533        0.03       3576.42    55.6       14062     
2722.59992 9.96       423        10.04      199        0          329.917    17069      -657       538        0.03       3577.73    55.596     14061     
2722.79992 9.96       423        9.96       179        0          329.254    17039      -657       531        0.01       3579.01    55.592     14060     
2722.99992 9.51       404        9.55       179        0          330.072    17076      -657       537        0.03       3580.38    55.588     14059     
2723.19992 9.7        412        9.63       213        0          330.374    17090      -657       537        0.03       3581.66    55.584     14058     
2723.399919 10.6       450        10.57      187        0          330.414    17091      -657       539        0.03       3583       55.584     14058     
2723.599919 10.9       463        10.79      222        0          330.529    17097      -657       530        0.01       3584.39    55.582     14057     
2723.799919 12.39      526        12.33      257        0          329.687    17059      -657       536        0.01       3585.72    55.58      14057     
2723.999918 12.1       514        12.21      195        0          330.281    17085      -657       546        0.02       3587.05    55.58      14057     
2724.199918 12.1       514        12.11      252        0          329.634    17056      -657       540        0.02       3588.31    55.575     14056     
2724.399918 9.96       423        10.75      213        0          330.706    17105      -657       544        0.01       3589.66    55.572     14055     
2724.599917 9.96       423        9.98       196        0          331.03     17119      -657       545        0.01       3590.98    55.568     14054     
2724.799917 8.45       359        9.01       250        0          329.992    17072      -657       542        0.01       3592.25    55.564     14053     
2724.999917 8.45       359        8.47       261        0          330.369    17089      -657       549        0.03       3593.67    55.56      14052     
2725.199917 7.16       304        7.33       453        0          329.585    17054      -657       535        0.01       3594.97    55.547     14049     
2725.399916 7.16       304        7.17       420        0          330.449    17093      -657       544        0.01       3596.29    55.547     14049     
2725.599916 6.36       270        6.5        1157       0          330.869    17112      -657       542        0.01       3597.64    55.554     14051     
2725.799916 6.36       270        6.36       732        0          330.629    17101      -657       537        0.01       3598.91    55.56      14052     
2725.999915 6.48       275        6.47       321        0          330.614    17100      -657       548        0.01       3600.25    55.558     14052     
2726.199915 6.48       275        6.48       281        0          329.785    17063      -657       540        0.01       3601.58    55.551     14050     
2726.399915 7.44       316        7.39       247        0          330.63     17101      -657       545        0.01       3602.91    55.547     14049     
2726.599915 7.91       336        7.73       268        0          330.408    17091      -657       534        0.01       3604.3     55.543     14048     
2726.799914 8.83       375        8.8        263        0          330.794    17108      -657       540        0.01       3605.58    55.531     14045     
2726.999914 8.84       375        8.84       222        0          330.972    17116      -657       547        0.01       3606.91    55.523     14043     
2727.199914 8.88       377        8.88       265        0          330.558    17098      -657       538        -0.01      3608.24    55.525     14043     
2727.399913 8.79       373        8.82       347        0          331.166    17125      -657       538        0.01       3609.53    55.523     14043     
2727.599913 8.38       356        8.39       273        0          330.072    17076      -657       539        0.01       3610.89    55.523     14043     
2727.799913 8.34       354        8.35       212        0          330.672    17103      -657       537        0.01       3612.17    55.523     14043     
2727.999912 8.34       354        8.34       232        0          331.428    17137      -657       535        0.01       3613.56    55.523     14043     
2728.199912 7.86       334        8.02       203        0          330.937    17115      -657       527        0.01       3614.89    55.519     14042     
2728.399912 7.86       334        7.87       283        0          331.783    17153      -657       535        0.01       3616.24    55.514     14041     
2728.599911 7.32       311        7.39       255        0          329.728    17060      -657       533        0.01       3617.56    55.5       14037     
2728.799911 7.32       311        7.33       403        0          330.454    17093      -657       544        0.01       3618.83    55.507     14039     
2728.999911 9.23       392        9          398        0          331.268    17130      -657       537        0.01       3620.16    55.503     14038     
2729.199911 9.23       392        9.22       260        0          331.605    17145      -657       544        0.01       3621.49    55.503     14038     
2729.39991 10.88      462        10.81      280        0          331.307    17131      -657       543        0.01       3622.82    55.503     14038     
2729.59991 10.88      462        10.88      255        0          329.254    17039      -657       535        0.03       3624.22    55.503     14038     
2729.79991 11.49      488        11.46      193        0          331.555    17143      -657       539        0.01       3625.51    55.499     14037     
2729.999909 11.49      488        11.49      213        2          330.939    17115      -657       533        0.01       3626.88    55.495     14036     
2730.199909 10.9       463        10.93      264        0          331.416    17136      -663       535        -0.01      3628.53    55.495     14036     
2730.399909 9.65       410        10.11      272        0          331.163    17125      -663       545        0.01       3629.86    55.491     14035     
2730.599908 8.41       357        8.45       281        0          329.758    17062      -663       538        0.01       3631.19    55.491     14035     
2730.799908 8.04       342        8.18       232        0          332.17     17170      -663       544        0.01       3632.46    55.491     14035     
2730.999908 7.86       334        7.87       285        0          330.503    17095      -663       540        0.01       3633.91    55.489     14035     
2731.199908 7.21       306        7.26       334        0          331.295    17131      -663       543        0.01       3635.19    55.487     14034     
2731.399907 7.21       306        7.21       353        0          331.464    17139      -663       546        0.01       3636.54    55.483     14033     
2731.599907 6          255        6.1        305        0          331.763    17152      -663       541        0.01       3637.86    55.483     14033     
2731.799907 6.01       255        6.01       1111       0          331.351    17133      -663       551        0.01       3639.13    55.48      14032     
