~Version
 VERS              .         2.0                           : CWLS LOG ASCII STANDARD - VERSION 2.0
 WRAP              .         NO                            : ONE LINE PER DEPTH STEP
 DLM               .         SPACE                         : DELIMITING CHARACTER(SPACE TAB OR COMMA)
~Well Information
#_______________________________________________________________________________
#
#PARAMETER_NAME    .UNIT     VALUE                         : DESCRIPTION
#_______________________________________________________________________________
STRT               .M        2648.2                        : First reference value
STOP               .M        2758.600166                   : Last reference value
STEP               .M        0.2000003                     : Step increment
NULL               .         -9999                         : Missing value
COMP               .                                       : Company
WELL               .         616                           : Well name
FLD                .                                       : Field
LOC                .                                       : Location
CNTY               .                                       : County
STAT               .                                       : State
CTRY               .                                       : Country
SRVC               .                                       : Service Company
DATE               .                                       : Date
API                .                                       : API number
PROJECT_UPGRADE_TIME .         2021-03-18T21_24_50           : 
group              .         Good                          : 
~Parameter Information Block
#_______________________________________________________________________________
#
#PARAMETER_NAME    .UNIT     VALUE                         : DESCRIPTION
#_______________________________________________________________________________
SET                .         D7020_D                       : 
OTHER              .         Kedr.exe версия 2.1.2.32      : 
OTHER_10           .         TM.GRD = 0.00404*TM$.UE + 0.07: 
OTHER_11           .         MN.ATM = (6.33279e-006*TM.GRD + 0.02401)*(MN$.UE + 2.72*TM.GRD + -2018): 
OTHER_12           .         GK.MKR/H = GK$.UE / 43.5489 + 0: 
OTHER_13           .         RES.SM = 0.00476*CRES.UE - 1.51709: 
OTHER_14           .         PL.GSM3 = 0 + 0 * (PL.UE / 1) +  0 * (PL.UE / 1)^2: 
OTHER_15           .         Постоянная времени ГГП = 6 сек: 
OTHER_16           .         Постоянная времени ГК = 6 сек : 
OTHER_2            .         KedrData.dll версия 3.2.2.14  : 
OTHER_3            .         LasInf.dll версия 3.2.0.13    : 
OTHER_4            .         Драйвер версия 1.2.0.5        : 
OTHER_5            .         Прибор_ КСА-M1                : 
OTHER_6            .         Номер прибора_ 155+р204       : 
OTHER_7            .         Режим_ КСА-М1 + ГГП + Резистивиметр: 
OTHER_8            .         Форма_ 223\2                  : 
OTHER_9            .         Тарировки_                    : 
PROJECT_UPGRADE_TIME .         2021-03-18T21_24_50           : 
TLFamily_CRES      .                                       : 
TLFamily_DEPT      .         Measured Depth                : 
TLFamily_GK        .         Gamma Ray                     : 
TLFamily_GK$       .                                       : 
TLFamily_LM        .         Casing Collar locator         : 
TLFamily_METKA     .                                       : 
TLFamily_MN        .                                       : 
TLFamily_MN$       .                                       : 
TLFamily_PL        .                                       : 
TLFamily_PL_2      .                                       : 
TLFamily_RCOR      .                                       : 
TLFamily_RES       .         Mud Resistivity               : 
TLFamily_SPID      .         Spontaneous Potential         : 
TLFamily_STD       .                                       : 
TLFamily_TIME      .         Time                          : 
TLFamily_TM        .         Temperature                   : 
TLFamily_TM$       .         Temperature                   : 
TLFamily_VGD       .         Gas Volume                    : 
group              .         prim                          : 
~Curve Information
#_______________________________________________________________________________
#
#LOGNAME           .UNIT     LOG_ID                        : DESCRIPTION
#_______________________________________________________________________________
DEPT               .M                                      : 1 Глубина, м -    0.0 см 
CRES               .UE                                     : 9 Проводимость, усл.ед. -  222.0 см 
GK                 .MKR/H                                  : 16 Гамма-активность, мкр./ч -  106.0 см 
GK$                .UE                                     : 13 Гамма-активность, усл.ед. -  106.0 см 
LM                 .                                       : 11 Локатор муфт,  -   16.0 см 
METKA              .                                       : 3 Метки,  -    0.0 см 
MN                 .ATM                                    : 15 Давление, атм. -  160.0 см 
MN$                .UE                                     : 7 Давление, усл.ед. -  160.0 см 
PL                 .UE                                     : 10 Плотность, усл.ед. -  270.0 см 
PL_2               .GSM3                                   : 18 Плотность, г./см3 -  270.0 см 
RCOR               .CM/KM                                  : 5 Коррекция по ролику, см/км -    0.0 см 
RES                .SM                                     : 17 Проводимость,  -  222.0 см 
SPID               .M/H                                    : 2 Скорость, м/час -    0.0 см 
STD                .                                       : 12 Приток,  -  170.0 см 
TIME               .S                                      : 4 Время, сек -    0.0 см 
TM                 .GRD                                    : 14 Температура, °C -  180.0 см 
TM$                .UE                                     : 6 Температура, усл.ед. -  180.0 см 
VGD                .                                       : 8 Влагомер,  -  170.0 см 
~Ascii
# ...
2705.600086 1214       9.21       468        57         0          248.548    12120      14         0          0          4.2636     510        9039       11540.28   46.121     11399      6661      
2705.800086 1215       10.54      599        43         0          248.547    12120      13         0          0          4.2639     580        9040       11541.58   46.116     11397      6660      
2706.000087 1215       12.48      632        86         0          248.591    12122      14         0          0          4.2663     580        9039       11542.88   46.11      11396      6659      
2706.200087 1215       12.8       506        70         0          248.619    12123      13         0          0          4.2655     580        9041       11544.13   46.11      11396      6660      
2706.400087 1215       12.21      506        51         0          248.613    12123      15         0          0          4.2663     580        9043       11545.44   46.103     11394      6660      
2706.600088 1215       11.43      395        36         0          248.643    12124      14         0          0          4.2663     580        9043       11546.69   46.11      11396      6660      
2706.800088 1216       10.3       395        31         0          248.667    12125      13         0          0          4.2704     510        9039       11548.01   46.106     11395      6660      
2707.000088 1214       9.77       408        43         0          248.691    12126      13         0          0          4.2636     580        9035       11549.32   46.1       11394      6660      
2707.200088 1214       9.57       408        69         0          248.714    12127      13         0          0          4.26       580        9030       11550.63   46.095     11392      6660      
2707.400089 1214       9.48       409        92         0          248.738    12128      13         0          0          4.2616     580        9027       11551.88   46.09      11391      6660      
2707.600089 1215       9.44       409        77         0          248.762    12129      14         0          0          4.2663     580        9024       11553.19   46.089     11391      6660      
2707.800089 1215       9.58       436        67         0          248.761    12129      14         0          0          4.2643     510        9022       11554.49   46.082     11389      6659      
2708.00009 1213       9.8        436        78         0          248.785    12130      13         0          0          4.2576     510        9019       11555.81   46.073     11387      6658      
2708.20009 1214       10.14      467        81         0          248.809    12131      14         0          0          4.2615     580        9018       11557.09   46.073     11387      6661      
2708.40009 1214       10.43      467        58         0          248.833    12132      15         0          0          4.26       580        9015       11558.37   46.069     11386      6659      
2708.600091 1212       10.51      460        66         0          248.832    12132      13         0          0          4.252      580        9014       11559.69   46.069     11386      6657      
2708.800091 1212       10.54      460        112        0          248.881    12134      14         0          0          4.252      510        9014       11561      46.061     11384      6657      
2709.000091 1212       10.46      449        97         1          248.873    12134      13         0          0          4.252      580        9013       11562.3    46.061     11384      6660      
2709.200091 1212       10.38      449        71         0          248.905    12135      14         0          0          4.2544     580        9013       11563.61   46.061     11384      6658      
2709.400092 1211       10.21      436        106        0          248.929    12136      13         0          0          4.2482     580        9013       11564.93   46.059     11383      6659      
2709.600092 1212       10.08      430        111        0          248.952    12137      13         0          0          4.252      510        9012       11566.25   46.061     11384      6658      
2709.800092 1210       9.81       415        97         0          248.977    12138      13         0          0          4.2425     510        9012       11567.56   46.053     11382      6658      
2710.000093 1210       9.67       415        85         0          248.997    12139      12         0          0          4.2409     580        9012       11568.88   46.051     11381      6657      
2710.200093 1209       9.83       436        126        1          249.025    12140      14         0          0          4.2378     533        9011       11570.77   46.05      11381      6658      
2710.400093 1210       9.96       445        106        0          249.025    12140      14         0          0          4.2425     533        9010       11572.09   46.049     11381      6658      
2710.600094 1209       10.16      451        76         0          249.045    12141      14         0          0          4.2378     580        9011       11573.4    46.049     11381      6657      
2710.800094 1209       10.23      445        75         0          249.073    12142      14         0          0          4.2378     580        9012       11574.66   46.049     11381      6657      
2711.000094 1210       10.22      445        80         0          249.109    12144      13         0          0          4.2417     550        9012       11575.99   46.045     11380      6658      
2711.200094 1207       9.92       411        68         0          249.101    12143      14         0          0          4.2259     520        9012       11577.29   46.039     11379      6657      
2711.400095 1208       9.68       411        59         1          249.148    12145      14         0          0          4.2322     568        9011       11578.59   46.04      11379      6658      
2711.600095 1208       9.8        434        49         0          249.157    12145      13         0          0          4.233      580        9013       11579.89   46.034     11377      6657      
2711.800095 1208       9.88       434        52         0          249.193    12147      14         0          0          4.2354     580        9010       11581.16   46.037     11378      6657      
2712.000096 1208       10.12      454        50         0          249.193    12147      14         0          0          4.2316     580        9012       11582.45   46.034     11377      6657      
2712.200096 1207       10.27      454        56         0          249.217    12148      14         0          0          4.2274     533        9013       11583.77   46.033     11377      6657      
2712.400096 1208       10.17      438        88         0          249.241    12149      14         0          0          4.233      533        9013       11585.08   46.029     11376      6657      
2712.600097 1208       10.24      466        120        1          249.279    12151      14         0          0          4.233      580        9012       11586.4    46.029     11376      6657      
2712.800097 1208       10.79      494        319        0          249.286    12151      14         0          0          4.2314     580        9012       11587.71   46.029     11376      6657      
2713.000097 1207       11.06      494        146        0          249.297    12151      14         0          0          4.2275     545        9012       11588.95   46.025     11375      6658      
2713.200097 1209       11.5       520        201        0          249.325    12152      14         0          0          4.2364     522        9014       11590.26   46.025     11375      6657      
2713.400098 1208       11.48      463        78         0          249.362    12154      13         0          0          4.233      568        9015       11591.57   46.025     11375      6658      
2713.600098 1209       10.73      435        112        0          249.361    12154      14         0          0          4.2378     580        9016       11592.89   46.025     11375      6658      
