~Version
 VERS              .         2.0                           : CWLS LOG ASCII STANDARD - VERSION 2.0
 WRAP              .         NO                            : ONE LINE PER DEPTH STEP
 DLM               .         SPACE                         : DELIMITING CHARACTER(SPACE TAB OR COMMA)
~Well Information
#_______________________________________________________________________________
#
#PARAMETER_NAME    .UNIT     VALUE                         : DESCRIPTION
#_______________________________________________________________________________
STRT               .M        44                            : First reference value
STOP               .M        2769.2                        : Last reference value
STEP               .M        0.2                           : Step increment
NULL               .         -9999                         : Missing value
COMP               .                                       : Company
WELL               .         616                           : Well name
FLD                .                                       : Field
LOC                .                                       : Location
CNTY               .                                       : County
STAT               .                                       : State
CTRY               .                                       : Country
SRVC               .                                       : Service Company
DATE               .                                       : Date
API                .                                       : API number
PROJECT_UPGRADE_TIME .         2021-03-18T21_24_50           : 
group              .         Good                          : 
~Parameter Information Block
#_______________________________________________________________________________
#
#PARAMETER_NAME    .UNIT     VALUE                         : DESCRIPTION
#_______________________________________________________________________________
SET                .         D1160_D                       : 
OTHER              .         Программное обеспечение станции MONITOR-386EX 25/12/99 15_08_10   BGF V52 22/08/01 16_56_30   3.2_BGF_N_3070031: 
OTHER_10           .         Тарировки_                    : 
OTHER_11           .         TM.GRD = 0.00403*TM$.UE + -1.19: 
OTHER_12           .         MN.ATM = (7.1e-006*TM.GRD + 0.02017)*(MN$.UE + -3.03*TM.GRD + -1833): 
OTHER_13           .         Id error                      : 
OTHER_2            .         Kedr.exe версия 3.4.2.51      : 
OTHER_3            .         KedrData.dll версия 3.4.2.24  : 
OTHER_4            .         Драйвер версия 2.1.1.8        : 
OTHER_5            .         Мнемоники версия 3.3 S        : 
OTHER_6            .         Прибор_ КСА-М1                : 
OTHER_7            .         Номер прибора_ 265            : 
OTHER_8            .         Режим_ КСА-М1                 : 
OTHER_9            .         Форма_ ТЕРМОМЕТР              : 
PROJECT_UPGRADE_TIME .         2021-03-18T21_24_49           : 
TLFamily_DEPT      .         Measured Depth                : 
TLFamily_GK        .         Gamma Ray                     : 
TLFamily_GK$       .                                       : 
TLFamily_LM        .         Casing Collar locator         : 
TLFamily_METKA     .                                       : 
TLFamily_MN        .                                       : 
TLFamily_MN$       .                                       : 
TLFamily_RCOR      .                                       : 
TLFamily_SPID      .         Spontaneous Potential         : 
TLFamily_STD       .                                       : 
TLFamily_TENS      .         Cable Tension                 : 
TLFamily_TIME      .         Time                          : 
TLFamily_TM        .         Temperature                   : 
TLFamily_TM$       .         Temperature                   : 
TLFamily_VGD       .         Gas Volume                    : 
group              .         prim                          : 
~Curve Information
#_______________________________________________________________________________
#
#LOGNAME           .UNIT     LOG_ID                        : DESCRIPTION
#_______________________________________________________________________________
DEPT               .M                                      : 1 Глубина, м -    0.0 см 
GK                 .MKR/H                                  : 15 Гамма-активность, мкр./ч -  110.0 см 
GK$                .UE                                     : 12 Гамма-активность, усл.ед. -  110.0 см 
LM                 .                                       : 10 Локатор муфт,  -   20.0 см 
METKA              .                                       : 3 Метки,  -    0.0 см 
MN                 .ATM                                    : 14 Давление, атм. -  160.0 см 
MN$                .UE                                     : 8 Давление, усл.ед. -  160.0 см 
RCOR               .CM/KM                                  : 5 Коррекция по ролику, см/км -    0.0 см 
SPID               .M/H                                    : 2 Скорость, м/час -    0.0 см 
STD                .                                       : 11 Приток,  -  170.0 см 
TENS               .T                                      : 6 Натяжение кабеля, т -    0.0 см 
TIME               .S                                      : 4 Время, сек -    0.0 см 
TM                 .GRD                                    : 13 Температура, °C -  180.0 см 
TM$                .UE                                     : 7 Температура, усл.ед. -  180.0 см 
VGD                .                                       : 9 Влагомер,  -  170.0 см 
~Ascii
# ...
945.6      7.63       321        54         0          85.106     6102       -1400      1897       9033       0          12150.07   31.983     8231       6324      
945.8      7.59       321        54         0          85.126     6103       -1400      1899       9037       0          12150.45   31.988     8233       6323      
946        7.56       321        59         0          85.147     6104       -1400      1900       9042       0          12150.84   31.996     8235       6323      
946.2      7.54       321        63         0          85.167     6105       -1400      1897       9045       0          12151.2    32.004     8237       6322      
946.4      7.53       321        62         0          85.186     6106       -1400      1900       9048       0          12151.59   32.012     8239       6322      
946.6      7.73       347        69         0          85.206     6107       -1400      1900       9050       0          12151.96   32.02      8241       6322      
946.8      7.92       355        59         0          85.225     6108       -1400      1898       9052       0          12152.35   32.028     8243       6322      
947        8.06       355        76         0          85.245     6109       -1400      1900       9057       0          12152.74   32.035     8244       6323      
947.2      8.14       355        83         0          85.265     6110       -1400      1902       9061       0          12153.09   32.04      8246       6322      
947.4      8.19       355        71         0          85.285     6111       -1400      1904       9065       0          12153.47   32.047     8248       6322      
947.6      8.23       355        61         0          85.305     6112       -1400      1905       9068       0          12153.85   32.056     8250       6322      
947.8      8.26       355        54         0          85.324     6113       -1400      1906       9070       0          12154.24   32.063     8251       6322      
948        8.25       352        51         0          85.345     6114       -1400      1901       9075       0          12154.61   32.067     8252       6322      
948.2      8.24       351        55         0          85.365     6115       -1400      1897       9079       0          12154.99   32.076     8254       6323      
948.4      8.23       351        59         0          85.385     6116       -1400      1895       9084       0          12155.39   32.083     8256       6322      
948.6      8.22       351        53         0          85.405     6117       -1400      1903       9087       0          12155.74   32.091     8258       6322      
948.8      8.22       351        51         0          85.421     6118       -1400      1904       9089       0          12156.12   32.1       8260       6323      
949        8.22       351        51         0          85.424     6118       -1400      1899       9091       0          12156.52   32.107     8262       6322      
949.2      7.82       302        60         0          85.445     6119       -1400      1896       9092       0          12156.89   32.115     8264       6322      
949.4      7.29       269        71         0          85.484     6121       -1400      1898       9095       0          12157.27   32.123     8266       6323      
949.6      6.96       269        63         0          85.502     6122       -1400      1894       9098       0          12157.67   32.131     8268       6322      
949.8      6.74       269        62         0          85.503     6122       -1400      1891       9101       0          12158.04   32.135     8269       6322      
950        6.58       269        59         0          85.524     6123       -1400      1888       9104       0          12158.4    32.143     8271       6322      
950.2      6.48       269        63         2          85.543     6124       -1400      1885       9106       0          12158.82   32.151     8273       6322      
950.4      6.42       269        56         0          85.563     6125       -1400      1883       9108       0          12159.2    32.159     8275       6323      
950.6      6.2        247        53         0          85.582     6126       -1400      1886       9110       0          12159.57   32.167     8277       6323      
950.8      5.93       231        47         0          85.583     6126       -1400      1890       9113       0          12159.96   32.175     8279       6322      
951        5.76       231        49         0          85.603     6127       -1400      1892       9116       0          12160.35   32.179     8280       6322      
951.2      5.63       231        75         0          85.624     6128       -1400      1890       9119       0          12160.71   32.187     8282       6322      
951.4      5.55       231        338        0          85.643     6129       -1400      1893       9121       0          12161.09   32.195     8284       6322      
951.6      5.5        231        3319       0          85.662     6130       -1400      1895       9122       0          12161.48   32.203     8286       6322      
951.8      5.42       224        2174       0          85.684     6131       -1400      1892       9124       0          12161.86   32.211     8288       6322      
952        5.31       219        1426       0          85.705     6132       -1400      1894       9127       0          12162.23   32.22      8290       6323      
952.2      5.25       219        942        0          85.724     6133       -1400      1891       9130       0          12162.61   32.227     8292       6322      
952.4      5.21       219        621        0          85.744     6134       -1400      1888       9135       0          12162.97   32.231     8293       6322      
952.6      5.18       219        416        0          85.765     6135       -1400      1891       9139       0          12163.37   32.239     8295       6322      
952.8      5.16       219        278        0          85.784     6136       -1400      1894       9142       0          12163.74   32.248     8297       6322      
953        5.15       219        200        0          85.803     6137       -1400      1896       9146       0          12164.12   32.255     8299       6323      
953.2      5.14       219        148        0          85.824     6138       -1400      1893       9150       0          12164.5    32.263     8301       6323      
953.4      5.13       219        125        0          85.823     6138       -1400      1895       9155       0          12164.88   32.271     8303       6323      
953.6      5.13       219        118        0          85.843     6139       -1400      1898       9156       0          12165.26   32.275     8304       6323      
953.8      5.13       219        110        0          85.863     6140       -1400      1895       9158       0          12165.65   32.283     8306       6322      
954        5.13       219        82         0          85.882     6141       -1400      1897       9161       0          12166.02   32.291     8308       6322      
954.2      5.12       219        69         0          85.903     6142       -1400      1899       9165       0          12166.39   32.299     8310       6322      
954.4      5.2        229        68         0          85.904     6142       -1400      1901       9169       0          12166.77   32.303     8311       6322      
954.6      5.37       244        58         0          85.922     6143       -1400      1898       9172       0          12167.15   32.311     8313       6322      
954.8      5.49       244        65         0          85.942     6144       -1400      1894       9175       0          12167.53   32.319     8315       6322      
955        5.56       244        61         0          85.962     6145       -1400      1895       9177       0          12167.9    32.323     8316       6321      
955.2      5.61       244        54         0          85.964     6145       -1400      1893       9180       0          12168.3    32.33      8318       6321      
