~Version
 VERS              .         2.0                           : CWLS LOG ASCII STANDARD - VERSION 2.0
 WRAP              .         NO                            : ONE LINE PER DEPTH STEP
 DLM               .         SPACE                         : DELIMITING CHARACTER(SPACE TAB OR COMMA)
~Well Information
#_______________________________________________________________________________
#
#PARAMETER_NAME    .UNIT     VALUE                         : DESCRIPTION
#_______________________________________________________________________________
STRT               .M        19.65                         : First reference value
STOP               .M        2766.85                       : Last reference value
STEP               .M        0.2                           : Step increment
NULL               .         -9999                         : Missing value
COMP               .                                       : Company
WELL               .         616                           : Well name
FLD                .                                       : Field
LOC                .                                       : Location
CNTY               .                                       : County
STAT               .                                       : State
CTRY               .                                       : Country
SRVC               .                                       : Service Company
DATE               .                                       : Date
API                .                                       : API number
PROJECT_UPGRADE_TIME .         2021-03-18T21_24_50           : 
group              .         Good                          : 
~Parameter Information Block
#_______________________________________________________________________________
#
#PARAMETER_NAME    .UNIT     VALUE                         : DESCRIPTION
#_______________________________________________________________________________
SET                .         D7016_D_2                     : 
NPR                .         155                           : Номер прибора
OTHER              .         Kedr.exe версия 2.1.2.32      : 
OTHER_10           .         TM.GRD = 0.00404*TM$.UE + 0.07: 
OTHER_11           .         MN.ATM = (6.33279e-006*TM.GRD + 0.02401)*(MN$.UE + 2.72*TM.GRD + -2018): 
OTHER_12           .         GK.MKR/H = GK$.UE / 43.5489 + 0: 
OTHER_13           .         RES.SM = 0.00476*CRES.UE - 1.51709: 
OTHER_14           .         PL.GSM3 = 0 + 0 * (PL.UE / 1) +  0 * (PL.UE / 1)^2: 
OTHER_15           .         Постоянная времени ГГП = 6 сек: 
OTHER_16           .         Постоянная времени ГК = 6 сек : 
OTHER_2            .         KedrData.dll версия 3.2.2.14  : 
OTHER_3            .         LasInf.dll версия 3.2.0.13    : 
OTHER_4            .         Драйвер версия 1.2.0.5        : 
OTHER_5            .         Прибор_ КСА-M1                : 
OTHER_6            .         Номер прибора_ 155+р204       : 
OTHER_7            .         Режим_ КСА-М1 + ГГП + Резистивиметр: 
OTHER_8            .         Форма_ 223\2                  : 
OTHER_9            .         Тарировки_                    : 
PR                 .         КСА-Т7 М1                     : Тип прибора
PROJECT_UPGRADE_TIME .         2021-03-18T21_24_50           : 
PRTY               .         ПП-223_2                      : Номер партии
SRV                .         ЦКРС                          : Заказчик
SRVC               .         Лузин  А.Б.                   : Начальник партии
TLFamily_DEPT      .         Measured Depth                : 
TLFamily_LM        .         Casing Collar locator         : 
TLFamily_MN        .                                       : 
TLFamily_SPID      .         Spontaneous Potential         : 
TLFamily_TM        .         Temperature                   : 
group              .         second                        : 
~Curve Information
#_______________________________________________________________________________
#
#LOGNAME           .UNIT     LOG_ID                        : DESCRIPTION
#_______________________________________________________________________________
DEPT               .M                                      : Depth curve 
LM                 .е.ацп                                  : Локация муфт 
MN                 .атм                                    : Манометрия, атм 
SPID               .м/ч                                    : Скорость записи,м/час 
TM                 .град.С                                 : Термометрия,град.С 
~Ascii
# ...
2384.85    113.005    215.92     1660       59.95     
2385.05    139.006    215.95     1660       59.95     
2385.25    172.991    215.97     1660       59.95     
2385.45    118.999    216        1660       59.94     
2385.65    110.997    216.02     1660       59.94     
2385.85    93.001     216.03     1660       59.94     
2386.05    96.994     216.06     1660       59.94     
2386.25    64.001     216.07     1660       59.93     
2386.45    69.002     216.08     1660       59.93     
2386.65    82.995     216.11     1660       59.92     
2386.85    56.006     216.14     1659.992   59.92     
2387.05    87.996     216.14     1616.006   59.92     
2387.25    67.003     216.17     1650.002   59.92     
2387.45    81.997     216.19     1659.99    59.92     
2387.65    63.006     216.21     1604.01    59.91     
2387.85    96.994     216.22     1660       59.91     
2388.05    62.003     216.25     1660       59.91     
2388.25    77         216.26     1660       59.91     
2388.45    79         216.28     1660       59.91     
2388.65    77.001     216.3      1660       59.91     
2388.85    81.997     216.33     1659.992   59.9      
2389.05    67.002     216.33     1616.997   59.9      
2389.25    81.003     216.36     1600.01    59.9      
2389.45    98.003     216.39     1657.001   59.9      
2389.65    112.996    216.4      1660       59.89     
2389.85    90.998     216.41     1660       59.89     
2390.05    82         216.44     1659.991   59.89     
2390.25    81         216.45     1609.998   59.88     
2390.45    80.999     216.47     1600.01    59.88     
2390.65    76.001     216.49     1656.99    59.88     
2390.85    79.003     216.5      1600.002   59.87     
2391.05    93.997     216.52     1613.008   59.87     
2391.25    75.999     216.56     1660       59.87     
2391.45    69.002     216.57     1660       59.87     
2391.65    80.002     216.59     1659.994   59.87     
2391.85    89.035     216.62     1623.003   59.87     
2392.05    289.256    216.64     1641.003   59.87     
2392.25    1753.871   216.65     1660       59.87     
2392.45    6732.27    216.67     1660       59.86     
2392.65    2561       216.69     1660       59.86     
2392.85    2560.727   216.71     1660       59.86     
2393.05    1002.936   216.74     1660       59.86     
2393.25    637.96     216.75     1660       59.85     
2393.45    408.978    216.78     1660       59.85     
2393.65    280.986    216.81     1660       59.85     
2393.85    200.995    216.81     1660       59.85     
2394.05    170.997    216.83     1660       59.84     
2394.25    152.003    216.86     1660       59.84     
2394.45    170.996    216.86     1660       59.84     
2394.65    146.995    216.89     1660       59.83     
2394.85    116.992    216.91     1660       59.83     
2395.05    69.998     216.92     1660       59.83     
2395.25    56         216.94     1660       59.83     
2395.45    54.999     216.97     1660.003   59.82     
2395.65    49         216.99     1675.01    59.82     
2395.85    47.002     217        1730       59.81     
2396.05    58         217.02     1729.995   59.81     
2396.25    59.001     217.05     1701.998   59.81     
2396.45    63.998     217.07     1691.007   59.81     
2396.65    53.999     217.08     1729.992   59.81     
2396.85    51         217.1      1686.995   59.81     
2397.05    52         217.12     1660.009   59.8      
2397.25    50.001     217.13     1712.003   59.8      
2397.45    55.003     217.16     1729.989   59.8      
2397.65    69.999     217.18     1666.988   59.8      
2397.85    66.001     217.21     1600.002   59.8      
2398.05    69.999     217.23     1609.009   59.79     
2398.25    61.999     217.25     1660       59.79     
2398.45    53.997     217.26     1660       59.79     
2398.65    39         217.29     1660       59.78     
2398.85    41.003     217.31     1660       59.78     
2399.05    55.998     217.32     1660       59.78     
2399.25    42.001     217.34     1660       59.78     
2399.45    44.998     217.34     1660       59.78     
2399.65    34.006     217.37     1660       59.77     
2399.85    69.996     217.39     1660       59.77     
2400.05    49.002     217.41     1660       59.77     
2400.25    58.004     217.42     1660       59.77     
2400.45    77.999     217.45     1660       59.76     
2400.65    70.996     217.47     1660       59.76     
2400.85    47.003     217.5      1659.999   59.76     
2401.05    64.003     217.51     1652.993   59.76     
2401.25    79.002     217.54     1613.008   59.75     
2401.45    88.001     217.57     1660       59.75     
2401.65    93.999     217.58     1660       59.75     
2401.85    88.001     217.6      1660       59.75     
2402.05    94.995     217.63     1660       59.74     
2402.25    67.002     217.65     1660       59.74     
2402.45    77.002     217.65     1660       59.73     
2402.65    88.995     217.68     1660       59.73     
2402.85    62.014     217.7      1660       59.73     
2403.05    141.014    217.68     1660       59.72     
2403.25    224.079    217.69     1660       59.72     
2403.45    6361.563   217.76     1660       59.72     
2403.65    3873.742   217.79     1660       59.71     
2403.85    2407.841   217.8      1660       59.71     
2404.05    1502.901   217.81     1660       59.71     
2404.25    939.938    217.82     1660       59.7      
2404.45    589.962    217.84     1660       59.7      
2404.65    375.977    217.87     1659.991   59.7      
2404.85    244.987    217.9      1609.021   59.7      
2405.05    170.984    217.92     1729.977   59.69     
2405.25    81.999     217.94     1600.002   59.68     
2405.45    78.997     217.95     1610.009   59.68     
2405.65    62.009     217.97     1660       59.68     
2405.85    110.995    217.99     1660       59.68     
2406.05    85         218        1660       59.67     
2406.25    83.998     218.03     1660       59.67     
2406.45    69.997     218.06     1660       59.67     
2406.65    53.001     218.08     1660       59.66     
2406.85    58.005     218.08     1659.99    59.66     
2407.05    84.999     218.11     1603       59.66     
2407.25    77.003     218.13     1604.01    59.66     
2407.45    93.994     218.14     1660       59.66     
2407.65    61.001     218.17     1660       59.66     
2407.85    69.003     218.19     1660       59.65     
2408.05    86.001     218.2      1659.994   59.65     
2408.25    92.001     218.24     1626.995   59.64     
2408.45    98         218.25     1600.009   59.64     
2408.65    97.997     218.27     1650.002   59.64     
2408.85    83.002     218.29     1660       59.64     
2409.05    93.997     218.25     1660       59.63     
2409.25    78.003     218.33     1660       59.63     
2409.45    95.001     218.35     1660       59.63     
2409.65    102.002    218.36     1660       59.63     
2409.85    113.998    218.38     1660       59.62     
2410.05    103.998    218.39     1660       59.62     
2410.25    94.998     218.41     1660       59.62     
2410.45    81.999     218.44     1660       59.61     
2410.65    73.999     218.47     1660.004   59.61     
2410.85    66         218.47     1683.003   59.61     
2411.05    67.997     218.5      1699.993   59.6      
2411.25    53.001     218.53     1660       59.6      
2411.45    56.999     218.54     1660       59.59     
2411.65    52.998     218.56     1660       59.59     
2411.85    43.007     218.59     1660       59.59     
2412.05    84.997     218.61     1660       59.58     
2412.25    67.997     218.61     1660       59.58     
2412.45    50         218.64     1660       59.57     
2412.65    51.002     218.66     1659.997   59.57     
2412.85    62.002     218.67     1643.992   59.56     
2413.05    74.999     218.69     1600.01    59.56     
2413.25    67.998     218.72     1658.006   59.56     
2413.45    54.998     218.75     1690.995   59.56     
2413.65    46         218.75     1660       59.55     
2413.85    46.001     218.77     1660       59.55     
