~Version
 VERS              .         2.0                           : CWLS LOG ASCII STANDARD - VERSION 2.0
 WRAP              .         NO                            : ONE LINE PER DEPTH STEP
 DLM               .         SPACE                         : DELIMITING CHARACTER(SPACE TAB OR COMMA)
~Well Information
#_______________________________________________________________________________
#
#PARAMETER_NAME    .UNIT     VALUE                         : DESCRIPTION
#_______________________________________________________________________________
STRT               .M        2645.2                        : First reference value
STOP               .M        2753.000054                   : Last reference value
STEP               .M        0.2000001                     : Step increment
NULL               .         -9999                         : Missing value
COMP               .                                       : Company
WELL               .         616                           : Well name
FLD                .                                       : Field
LOC                .                                       : Location
CNTY               .                                       : County
STAT               .                                       : State
CTRY               .                                       : Country
SRVC               .                                       : Service Company
DATE               .                                       : Date
API                .                                       : API number
PROJECT_UPGRADE_TIME .         2021-03-18T21_24_50           : 
group              .         Good                          : 
~Parameter Information Block
#_______________________________________________________________________________
#
#PARAMETER_NAME    .UNIT     VALUE                         : DESCRIPTION
#_______________________________________________________________________________
SET                .         D4407_D                       : 
OTHER              .         Запись производится в присутствии: 
OTHER_10           .         Максимальная температура      : 
OTHER_11           .         Тип промывочной жидкости      : 
OTHER_12           .         Сопротивление ПЖ (Ом*м) при 20°C: 
OTHER_13           .         Плотность ПЖ(г/см3)           : 
OTHER_14           .         Вязкость ПЖ(с)                : 
OTHER_15           .         Водоотдача ПЖ(см3/30мин)      : 
OTHER_16           .         Уровень ПЖ                    : 
OTHER_17           .         Нефть ПЖ (%)                  : 
OTHER_18           .         Барит ПЖ (%)                  : 
OTHER_19           .         Гематит ПЖ (%)                : 
OTHER_2            .         Заказчик ННСН  ЦДНГ-1         : 
OTHER_20           .         КМЦ ПЖ (%)                    : 
OTHER_21           .         Разгазирование ПЖ (да,нет)    : 
OTHER_22           .         Подъемник                     : 
OTHER_23           .         Лаборатория                   : 
OTHER_24           .         Тип кабеля                    : 
OTHER_25           .         Длина кабеля (м)              : 
OTHER_26           .         Цена последней метки          : 
OTHER_27           .         Цена контрольной метки        : 
OTHER_28           .         Диаметр долота (мм)           : 
OTHER_29           .         Глубина бурения (м)           : 
OTHER_3            .         Площадь                       : 
OTHER_30           .         Искусственный забой (м)       : 
OTHER_31           .         Диаметр колонны (мм)          : 
OTHER_32           .         Толщина колонны (мм)          : 
OTHER_33           .         Башмак колонны (м)            : 
OTHER_34           .         Диаметр НКТ (мм)              : 
OTHER_35           .         Толщина НКТ (мм)              : 
OTHER_36           .         Воронка НКТ (м)               : 
OTHER_37           .         Дата цементожа                : 
OTHER_38           .         Тип, количество(т) и плотность цемента: 
OTHER_39           .         Интервалы перфорации (м)      : 
OTHER_4            .         Категория                     : 
OTHER_40           .         Направление, диаметр (мм)     : 
OTHER_41           .         Направление, глубина (м)      : 
OTHER_42           .         Кондуктор, диаметр (мм)       : 
OTHER_43           .         Кондуктор, глубина (м)        : 
OTHER_44           .         Техническая колонна, диаметр (мм): 
OTHER_45           .         Техническая колонна, глубина (м): 
OTHER_46           .         Эксплуатационная колонна, диаметр (мм): 
OTHER_47           .         Эксплуатационная колонна, глубина (м): 
OTHER_48           .         Программа Кедр-02 версия 3.4  : 
OTHER_49           .         Операционная система Windows NT 5.1 build 2600 Service Pack 2: 
OTHER_5            .         Назначение исследований       : 
OTHER_50           .         Программное обеспечение станции MONITOR-386EX 25/12/99 15_08_10   BGF V54 20/09/05 15_32_17   3.3__BGF_9030071: 
OTHER_51           .         Kedr.exe версия 3.4.2.74      : 
OTHER_52           .         KedrData.dll версия 3.4.2.29  : 
OTHER_53           .         Мнемоники версия 3.18 S       : 
OTHER_54           .         Драйвер версия 2.1.1.4        : 
OTHER_55           .         LasInf.dll 4.3.0.35           : 
OTHER_56           .         Прибор_ КСА-Т4                : 
OTHER_57           .         Номер прибора_ 160            : 
OTHER_58           .         Режим_ КСА-Т4                 : 
OTHER_59           .         Форма_ С.А.Б.                 : 
OTHER_6            .         Альтитуда стола ротора        : 
OTHER_60           .         Тарировки_                    : 
OTHER_61           .         <_techsia_sc_> Дата тарировки температуры 25.05.2010: 
OTHER_62           .         Ручной ввод коэффициентов     : 
OTHER_63           .         TM.DEGC = 0.00402*RTM.E.ACP + -0.994: 
OTHER_64           .         <_techsia_sc_> Дата тарировки давления 25.05.2010: 
OTHER_65           .         Ручной ввод коэффициентов     : 
OTHER_66           .         MN.ATM = (2.27521e-006*TM.DEGC + 0.02078)*(RMN.E.ACP + 6.2*TM.DEGC + -1688): 
OTHER_67           .         <_techsia_sc_> Дата тарировки ГК 25.05.2010: 
OTHER_68           .         Ручной ввод коэффициентов     : 
OTHER_69           .         GR.UR/H = RGR.IMP/MIN / 45.5144: 
OTHER_7            .         Вид исследований 3  6         : 
OTHER_70           .         GK.FLT = 0.1*GR.UR/H[-1] + (1-0.1)*GR.UR/H[0]: 
OTHER_8            .         Начало бурения интервала каротажа: 
OTHER_9            .         Окончание бурения интервала каротажа: 
PROJECT_UPGRADE_TIME .         2021-03-18T21_24_50           : 
TLFamily_CCLC      .                                       : 
TLFamily_DEPT      .         Measured Depth                : 
TLFamily_GK        .         Gamma Ray                     : 
TLFamily_GR        .         Gamma Ray                     : 
TLFamily_METKA     .                                       : 
TLFamily_MN        .                                       : 
TLFamily_RCOR      .                                       : 
TLFamily_RGR       .                                       : 
TLFamily_RMN       .                                       : 
TLFamily_RTEN      .                                       : 
TLFamily_RTM       .                                       : 
TLFamily_SPEE      .         Cable Speed                   : 
TLFamily_TIME      .         Time                          : 
TLFamily_TM        .         Temperature                   : 
group              .         prim                          : 
~Curve Information
#_______________________________________________________________________________
#
#LOGNAME           .UNIT     LOG_ID                        : DESCRIPTION
#_______________________________________________________________________________
DEPT               .M                                      : 1 Глубина, м -    0.0 см 
CCLC               .E.ACP                                  : 9 Локатор муфт,  -   20.0 см 
GK                 .FLT                                    : 14 Гамма-активность фильтрованная, мкр./ч -  110.0 см 
GR                 .UR/H                                   : 13 Гамма-активность, мкр./ч -  110.0 см 
METKA              .CU                                     : 3 Метки,  -    0.0 см 
MN                 .ATM                                    : 12 Давление, атм. -  160.0 см 
RCOR               .CM/KM                                  : 5 Коррекция по ролику, см/км -    0.0 см 
RGR                .IMP/MIN                                : 10 Гамма-активность, усл.ед. -  110.0 см 
RMN                .E.ACP                                  : 8 Давление, усл.ед. -  160.0 см 
RTEN               .T                                      : 6 Натяжение кабеля, т -    0.0 см 
RTM                .E.ACP                                  : 7 Температура, усл.ед. -  170.0 см 
SPEE               .M/H                                    : 2 Скорость, м/час -    0.0 см 
TIME               .S                                      : 4 Время, сек -    0.0 см 
TM                 .DEGC                                   : 11 Температура, °C -  170.0 см 
~Ascii
# ...
2728.400042 189        7.84       7.84       0          245.324    -1105      357        13122      0.26       12601      561        530.09     49.662    
2728.600042 216        9.87       9.87       0          245.362    -1105      449        13124      0.26       12601      561        531.39     49.663    
2728.800042 123        9.87       9.87       0          245.387    -1105      449        13125      0.25       12602      561        532.66     49.666    
2729.000042 147        10.9       10.9       0          245.402    -1105      496        13126      0.26       12603      561        533.92     49.67     
2729.200042 144        10.9       10.9       0          245.431    -1105      496        13127      0.26       12604      562        535.2      49.676    
2729.400042 104        10.52      10.52      0          245.453    -1105      479        13128      0.26       12606      562        536.55     49.682    
2729.600042 125        10.52      10.52      0          245.474    -1105      479        13129      0.26       12607      563        537.8      49.687    
2729.800042 147        9.4        9.4        0          245.505    -1105      428        13130      0.26       12609      563        539.05     49.694    
2730.000042 193        9.4        9.4        0          245.536    -1105      428        13132      0.26       12609      563        540.36     49.694    
2730.200042 146        7.58       7.58       0          245.554    -1105      345        13133      0.26       12605      563        541.66     49.677    
2730.400043 160        7.58       7.58       0          245.572    -1105      345        13134      0.26       12600      562        542.94     49.657    
2730.600043 102        7.01       7.01       0          245.591    -1105      319        13135      0.26       12596      561        544.23     49.642    
2730.800043 123        7.01       7.01       0          245.611    -1105      319        13136      0.26       12593      561        545.49     49.631    
2731.000043 66         6.59       6.59       0          245.635    -1105      300        13137      0.26       12592      562        546.81     49.626    
2731.200043 96         6.59       6.59       0          245.663    -1105      300        13139      0.26       12592      562        548.13     49.626    
2731.400043 200        7.14       7.14       0          245.69     -1105      325        13140      0.26       12592      562        549.44     49.626    
2731.600043 162        7.14       7.14       0          245.702    -1105      325        13140      0.26       12593      563        550.69     49.63     
2731.800043 121        7.25       7.25       0          245.736    -1105      330        13142      0.26       12594      563        551.94     49.634    
2732.000043 84         7.25       7.25       0          245.752    -1105      330        13143      0.26       12591      561        553.3      49.621    
2732.200043 75         7.82       7.82       0          245.755    -1105      356        13144      0.26       12577      562        554.56     49.566    
2732.400044 56         7.82       7.82       0          245.774    -1105      356        13145      0.26       12559      561        555.84     49.495    
2732.600044 74         8.55       8.55       0          245.8      -1105      389        13146      0.26       12548      561        557.13     49.447    
2732.800044 69         8.15       8.15       0          245.808    -1105      371        13147      0.26       12542      562        558.38     49.423    
2733.000044 45         7.76       7.76       0          245.826    -1105      353        13148      0.26       12538      563        559.75     49.41     
2733.200044 51         7.76       7.76       0          245.863    -1105      353        13150      0.26       12535      563        561        49.397    
2733.400044 53         7.76       7.76       0          245.886    -1105      353        13151      0.26       12533      562        562.31     49.387    
2733.600044 90         7.92       7.92       0          245.905    -1105      361        13152      0.26       12531      562        563.5      49.381    
2733.800044 388        8.26       8.26       0          245.924    -1105      376        13153      0.26       12527      563        564.87     49.367    
2734.000044 263        8.7        8.7        0          245.943    -1105      396        13154      0.26       12524      564        566.14     49.353    
2734.200044 74         8.7        8.7        0          245.961    -1105      396        13155      0.26       12521      564        567.45     49.339    
2734.400045 72         8.35       8.35       0          245.98     -1105      380        13156      0.26       12517      563        568.7      49.326    
2734.600045 78         8.35       8.35       0          246.02     -1105      380        13158      0.26       12514      563        570.02     49.311    
2734.800045 567        8.48       8.48       0          246.039    -1105      386        13159      0.26       12510      562        571.33     49.298    
2735.000045 177        8.5        8.5        0          246.058    -1105      387        13160      0.26       12507      561        572.58     49.284    
2735.200045 331        9.12       9.12       0          246.077    -1105      415        13161      0.26       12505      562        573.89     49.274    
2735.400045 304        9.12       9.12       0          246.088    -1105      415        13162      0.26       12502      562        575.14     49.265    
2735.600045 131        8.81       8.81       0          246.115    -1105      401        13163      0.26       12500      562        576.45     49.255    
2735.800045 83         8.81       8.81       0          246.135    -1105      401        13164      0.26       12497      562        577.77     49.245    
2736.000045 70         9.25       9.25       2          246.155    -1105      421        13165      0.26       12496      562        579.03     49.239    
2736.200045 251        9.25       9.25       0          246.176    -1109      421        13166      0.26       12495      561        580.6      49.236    
2736.400046 7257       8.35       8.35       0          246.195    -1109      380        13167      0.26       12493      561        581.86     49.227    
2736.600046 3149       8.35       8.35       0          246.215    -1109      380        13168      0.26       12491      561        583.17     49.218    
2736.800046 616        7.1        7.1        0          246.234    -1109      323        13169      0.26       12489      561        584.48     49.212    
2737.000046 135        7.1        7.1        0          246.255    -1109      323        13170      0.26       12488      562        585.74     49.206    
2737.200046 117        7.58       7.58       0          246.276    -1109      345        13171      0.26       12487      562        586.99     49.204    
2737.400046 90         7.58       7.58       0          246.317    -1109      345        13173      0.26       12487      562        588.31     49.204    
2737.600046 55         7.69       7.69       0          246.318    -1109      350        13173      0.26       12487      562        589.63     49.204    
2737.800046 56         7.69       7.69       0          246.35     -1109      350        13175      0.26       12488      562        590.88     49.208    
2738.000046 52         7.07       7.07       0          246.382    -1109      322        13176      0.26       12490      563        592.19     49.216    
2738.200046 84         7.07       7.07       0          246.404    -1109      322        13177      0.26       12492      563        593.49     49.222    
2738.400047 83         7.45       7.45       0          246.423    -1109      339        13178      0.26       12493      562        594.8      49.228    
2738.600047 70         8.34       8.34       0          246.448    -1109      380        13179      0.26       12495      562        596.06     49.236    
