~Version
 VERS              .         2.0                           : CWLS LOG ASCII STANDARD - VERSION 2.0
 WRAP              .         NO                            : ONE LINE PER DEPTH STEP
 DLM               .         SPACE                         : DELIMITING CHARACTER(SPACE TAB OR COMMA)
~Well Information
#_______________________________________________________________________________
#
#PARAMETER_NAME    .UNIT     VALUE                         : DESCRIPTION
#_______________________________________________________________________________
STRT               .M        2696.4                        : First reference value
STOP               .M        2750.4                        : Last reference value
STEP               .M        0.2                           : Step increment
NULL               .         -9999                         : Missing value
COMP               .                                       : Company
WELL               .         616                           : Well name
FLD                .                                       : Field
LOC                .                                       : Location
CNTY               .                                       : County
STAT               .                                       : State
CTRY               .                                       : Country
SRVC               .                                       : Service Company
DATE               .                                       : Date
API                .                                       : API number
PROJECT_UPGRADE_TIME .         2021-03-18T21_24_50           : 
group              .         Good                          : 
~Parameter Information Block
#_______________________________________________________________________________
#
#PARAMETER_NAME    .UNIT     VALUE                         : DESCRIPTION
#_______________________________________________________________________________
SET                .         D1804_D                       : 
OTHER              .         Программное обеспечение станции MONITOR-386EX 25/12/99 15_08_10   BGF V52 22/08/01 16_56_30   3.1_SNGF___BGF_N_092049: 
OTHER_10           .         Тарировки_                    : 
OTHER_11           .         RGD.M3/SUT = 0.822396 * RGD.UE + 26.7014: 
OTHER_2            .         Kedr.exe версия 3.4.2.51      : 
OTHER_3            .         KedrData.dll версия 3.4.2.24  : 
OTHER_4            .         Драйвер версия 2.1.0.2        : 
OTHER_5            .         Мнемоники версия 3.3 S        : 
OTHER_6            .         Прибор_ Гранат                : 
OTHER_7            .         Номер прибора_ 1229           : 
OTHER_8            .         Режим_ КСА_Гранат             : 
OTHER_9            .         Форма_ КВА                    : 
PROJECT_UPGRADE_TIME .         2021-03-18T21_24_49           : 
TLFamily_DEPT      .         Measured Depth                : 
TLFamily_METKA     .                                       : 
TLFamily_RCOR      .                                       : 
TLFamily_RGD       .                                       : 
TLFamily_RGD_2     .                                       : 
TLFamily_SPID      .         Spontaneous Potential         : 
TLFamily_TENS      .         Cable Tension                 : 
TLFamily_TIME      .         Time                          : 
group              .         prim                          : 
~Curve Information
#_______________________________________________________________________________
#
#LOGNAME           .UNIT     LOG_ID                        : DESCRIPTION
#_______________________________________________________________________________
DEPT               .M                                      : 1 Глубина, м -    0.0 см 
METKA              .                                       : 3 Метки,  -    0.0 см 
RCOR               .CM/KM                                  : 5 Коррекция по ролику, см/км -    0.0 см 
RGD                .UE                                     : 7 Расход, имп/мин -  232.0 см 
RGD_2              .M3/SUT                                 : 8 Расход, м3/сут -  232.0 см 
SPID               .M/H                                    : 2 Скорость, м/час -    0.0 см 
TENS               .T                                      : 6 Натяжение кабеля, т -    0.0 см 
TIME               .S                                      : 4 Время, сек -    0.0 см 
~Ascii
# ...
2732.8     0          -621       94         103.9      -212       0.19       2553.71   
2733       0          -621       108        115.19     -208       0.19       2550.22   
2733.2     0          -621       107        114.95     -207       0.19       2546.83   
2733.4     0          -621       110        117.35     -206       0.19       2543.53   
2733.6     0          -621       112        118.59     -199       0.19       2540.14   
2733.8     0          -621       101        109.65     -201       0.19       2536.64   
2734       0          -621       100        108.88     -204       0.19       2533.25   
2734.2     0          -621       106        113.8      -202       0.19       2529.95   
2734.4     0          -621       98         106.9      -201       0.19       2526.56   
2734.6     0          -621       106        113.79     -202       0.21       2523.27   
2734.8     0          -621       103        111.36     -202       0.19       2519.88   
2735       0          -621       100        108.99     -201       0.21       2516.47   
2735.2     0          -621       96         105.49     -192       0.19       2513.08   
2735.4     0          -621       91         101.42     -207       0.19       2509.48   
2735.6     0          -621       94         104.15     -205       0.19       2506.09   
2735.8     0          -621       102        110.2      -205       0.19       2502.89   
2736       0          -621       99         108.14     -205       0.19       2499.41   
2736.2     0          -621       95         104.45     -205       0.19       2496      
2736.4     0          -621       93         102.93     -206       0.19       2492.72   
2736.6     0          -621       100        109.13     -210       0.19       2489.31   
2736.8     0          -621       97         106.63     -212       0.19       2486.03   
2737       0          -621       94         103.98     -229       0.19       2482.44   
2737.2     0          -621       102        110.32     -236       0.19       2479.14   
2737.4     0          -621       97         106.64     -205       0.19       2475.73   
2737.6     0          -621       105        113.19     -227       0.19       2472.4    
2737.8     0          -621       106        113.6      -225       0.19       2469.05   
2738       0          -621       105        112.83     -221       0.19       2465.66   
2738.2     0          -621       100        108.54     -222       0.21       2462.27   
2738.4     0          -621       105        112.98     -220       0.19       2458.88   
2738.6     0          -621       98         107.63     -218       0.21       2455.28   
2738.8     0          -621       104        112.12     -226       0.21       2452.08   
2739       0          -621       101        110.1      -222       0.21       2448.59   
2739.2     0          -621       93         103.23     -215       0.21       2445.19   
2739.4     0          -621       99         108.11     -204       0.21       2441.8    
2739.6     0          -621       89         100.12     -207       0.19       2438.41   
2739.8     0          -621       91         101.94     -201       0.19       2435.21   
2740       2          -621       96         105.86     -193       0.21       2431.81   
2740.2     0          -614       89         99.74      -201       0.19       2426.92   
2740.4     0          -614       92         102.51     -193       0.19       2423.53   
2740.6     0          -614       83         95.21      -210       0.19       2420.14   
2740.8     0          -614       83         94.86      -211       0.19       2416.94   
2741       0          -614       87         98.45      -215       0.17       2413.34   
2741.2     0          -614       87         97.92      -210       0.19       2410.05   
2741.4     0          -614       87         98.51      -213       0.19       2406.66   
2741.6     0          -614       84         96.12      -194       0.19       2403.27   
2741.8     0          -614       84         95.56      -213       0.19       2399.88   
2742       0          -614       99         108.45     -197       0.19       2396.47   
2742.2     0          -614       94         103.66     -218       0.19       2393.08   
2742.4     0          -614       95         104.96     -217       0.21       2389.69   
2742.6     0          -614       95         104.59     -216       0.19       2386.39   
2742.8     0          -614       98         107        -218       0.19       2383      
2743       0          -614       92         102.63     -217       0.19       2379.61   
2743.2     0          -614       82         93.86      -203       0.21       2376.2    
2743.4     0          -614       85         96.22      -201       0.19       2372.61   
2743.6     0          -614       82         94.21      -213       0.19       2369.22   
2743.8     0          -614       84         95.5       -207       0.19       2366.03   
2744       0          -614       87         98.6       -216       0.19       2362.44   
2744.2     0          -614       85         96.61      -213       0.19       2359.14   
2744.4     0          -614       82         93.93      -208       0.19       2355.75   
2744.6     0          -614       90         100.33     -227       0.19       2352.34   
2744.8     0          -614       87         98.66      -222       0.19       2349.16   
2745       0          -614       85         96.43      -217       0.19       2345.47   
2745.2     0          -614       95         104.94     -211       0.19       2342.06   
2745.4     0          -614       96         106.02     -196       0.19       2338.67   
2745.6     0          -614       94         104.41     -209       0.21       2335.28   
2745.8     0          -614       96         105.84     -206       0.21       2331.89   
2746       0          -614       86         97.37      -207       0.19       2328.48   
2746.2     0          -614       82         94.04      -208       0.21       2325.19   
2746.4     0          -614       76         88.83      -211       0.19       2321.8    
2746.6     0          -614       81         93.11      -225       0.19       2318.2    
2746.8     0          -614       81         93.14      -225       0.21       2314.91   
2747       0          -614       79         91.68      -207       0.19       2311.31   
2747.2     0          -614       76         89.54      -205       0.17       2308.03   
2747.4     0          -614       74         87.82      -204       0.19       2304.63   
2747.6     0          -614       71         85.46      -207       0.19       2301.23   
2747.8     0          -614       79         91.91      -199       0.19       2297.94   
2748       0          -614       82         94.12      -217       0.19       2294.45   
2748.2     0          -614       95         104.67     -220       0.19       2290.95   
2748.4     -9999      -9999      85         96.48      -9999      -9999      -9999     
2748.6     -9999      -9999      81         93.36      -9999      -9999      -9999     
2748.8     -9999      -9999      92         102.3      -9999      -9999      -9999     
2749       -9999      -9999      95         104.84     -9999      -9999      -9999     
2749.2     -9999      -9999      95         104.73     -9999      -9999      -9999     
2749.4     -9999      -9999      97         106.1      -9999      -9999      -9999     
2749.6     -9999      -9999      95         105.12     -9999      -9999      -9999     
2749.8     -9999      -9999      82         93.95      -9999      -9999      -9999     
2750       -9999      -9999      77         90.25      -9999      -9999      -9999     
2750.2     -9999      -9999      82         94.16      -9999      -9999      -9999     
2750.4     -9999      -9999      77         90.25      -9999      -9999      -9999     
