~Version
 VERS              .         2.0                           : CWLS LOG ASCII STANDARD - VERSION 2.0
 WRAP              .         NO                            : ONE LINE PER DEPTH STEP
 DLM               .         SPACE                         : DELIMITING CHARACTER(SPACE TAB OR COMMA)
~Well Information
#_______________________________________________________________________________
#
#PARAMETER_NAME    .UNIT     VALUE                         : DESCRIPTION
#_______________________________________________________________________________
STRT               .M        44.8                          : First reference value
STOP               .M        2755.2                        : Last reference value
STEP               .M        0.2                           : Step increment
NULL               .         -9999                         : Missing value
COMP               .                                       : Company
WELL               .         616                           : Well name
FLD                .                                       : Field
LOC                .                                       : Location
CNTY               .                                       : County
STAT               .                                       : State
CTRY               .                                       : Country
SRVC               .                                       : Service Company
DATE               .                                       : Date
API                .                                       : API number
PROJECT_UPGRADE_TIME .         2021-03-18T21_24_50           : 
group              .         Good                          : 
~Parameter Information Block
#_______________________________________________________________________________
#
#PARAMETER_NAME    .UNIT     VALUE                         : DESCRIPTION
#_______________________________________________________________________________
SET                .         D4390_D_2                     : 
COMM               .                                       : 
OTHER              .         Запись производится в присутствии: 
OTHER_10           .         Максимальная температура      : 
OTHER_100          .         GK.FLT = 0.1*GR.UR/H[-1] + (1-0.1)*GR.UR/H[0]: 
OTHER_11           .         Тип промывочной жидкости      : 
OTHER_12           .         Сопротивление ПЖ (Ом*м) при 20°C: 
OTHER_13           .         Плотность ПЖ(г/см3)           : 
OTHER_14           .         Вязкость ПЖ(с)                : 
OTHER_15           .         Водоотдача ПЖ(см3/30мин)      : 
OTHER_16           .         Уровень ПЖ                    : 
OTHER_17           .         Нефть ПЖ (%)                  : 
OTHER_18           .         Барит ПЖ (%)                  : 
OTHER_19           .         Гематит ПЖ (%)                : 
OTHER_2            .         Заказчик ННСН  ЦДНГ-1         : 
OTHER_20           .         КМЦ ПЖ (%)                    : 
OTHER_21           .         Разгазирование ПЖ (да,нет)    : 
OTHER_22           .         Подъемник                     : 
OTHER_23           .         Лаборатория                   : 
OTHER_24           .         Тип кабеля                    : 
OTHER_25           .         Длина кабеля (м)              : 
OTHER_26           .         Цена последней метки          : 
OTHER_27           .         Цена контрольной метки        : 
OTHER_28           .         Диаметр долота (мм)           : 
OTHER_29           .         Глубина бурения (м)           : 
OTHER_3            .         Площадь                       : 
OTHER_30           .         Искусственный забой (м)       : 
OTHER_31           .         Диаметр колонны (мм)          : 
OTHER_32           .         Толщина колонны (мм)          : 
OTHER_33           .         Башмак колонны (м)            : 
OTHER_34           .         Диаметр НКТ (мм)              : 
OTHER_35           .         Толщина НКТ (мм)              : 
OTHER_36           .         Воронка НКТ (м)               : 
OTHER_37           .         Дата цементожа                : 
OTHER_38           .         Тип, количество(т) и плотность цемента: 
OTHER_39           .         Интервалы перфорации (м)      : 
OTHER_4            .         Категория                     : 
OTHER_40           .         Направление, диаметр (мм)     : 
OTHER_41           .         Направление, глубина (м)      : 
OTHER_42           .         Кондуктор, диаметр (мм)       : 
OTHER_43           .         Кондуктор, глубина (м)        : 
OTHER_44           .         Техническая колонна, диаметр (мм): 
OTHER_45           .         Техническая колонна, глубина (м): 
OTHER_46           .         Эксплуатационная колонна, диаметр (мм): 
OTHER_47           .         Эксплуатационная колонна, глубина (м): 
OTHER_48           .         Программа Кедр-02 версия 3.4  : 
OTHER_49           .         Операционная система Windows NT 5.1 build 2600 Service Pack 2: 
OTHER_5            .         Назначение исследований       : 
OTHER_50           .         Программное обеспечение станции MONITOR-386EX 25/12/99 15_08_10   BGF V54 20/09/05 15_32_17   3.3__BGF_9030071: 
OTHER_51           .         Kedr.exe версия 3.4.2.74      : 
OTHER_52           .         KedrData.dll версия 3.4.2.29  : 
OTHER_53           .         Мнемоники версия 3.18 S       : 
OTHER_54           .         Драйвер версия 2.1.1.4        : 
OTHER_55           .         LasInf.dll 4.3.0.35           : 
OTHER_56           .         Прибор_ КСА-Т4                : 
OTHER_57           .         Номер прибора_ 160            : 
OTHER_58           .         Режим_ КСА-Т4                 : 
OTHER_59           .         Форма_ С.А.Б.                 : 
OTHER_6            .         Альтитуда стола ротора        : 
OTHER_60           .         Тарировки_                    : 
OTHER_61           .         <_techsia_sc_> Дата тарировки температуры 25.05.2010: 
OTHER_62           .         Ручной ввод коэффициентов     : 
OTHER_63           .         TM.DEGC = 0.00402*RTM.E.ACP + -0.994: 
OTHER_64           .         <_techsia_sc_> Дата тарировки давления 25.05.2010: 
OTHER_65           .         Ручной ввод коэффициентов     : 
OTHER_66           .         MN.ATM = (2.27521e-006*TM.DEGC + 0.02078)*(RMN.E.ACP + 6.2*TM.DEGC + -1688): 
OTHER_67           .         <_techsia_sc_> Дата тарировки ГК 25.05.2010: 
OTHER_68           .         Ручной ввод коэффициентов     : 
OTHER_69           .         GR.UR/H = RGR.IMP/MIN / 45.5144: 
OTHER_7            .         Вид исследований 3  6         : 
OTHER_70           .         GK.FLT = 0.1*GR.UR/H[-1] + (1-0.1)*GR.UR/H[0]: 
OTHER_71           .         <_techsia_sc_> Дата тарировки температуры 25.05.2010: 
OTHER_72           .         Ручной ввод коэффициентов     : 
OTHER_73           .         TM.DEGC = 0.00402*RTM.E.ACP + -0.994: 
OTHER_74           .         <_techsia_sc_> Дата тарировки давления 25.05.2010: 
OTHER_75           .         Ручной ввод коэффициентов     : 
OTHER_76           .         MN.ATM = (2.27521e-006*TM.DEGC + 0.02078)*(RMN.E.ACP + 6.2*TM.DEGC + -1688): 
OTHER_77           .         <_techsia_sc_> Дата тарировки ГК 25.05.2010: 
OTHER_78           .         Ручной ввод коэффициентов     : 
OTHER_79           .         GR.UR/H = RGR.IMP/MIN / 45.5144: 
OTHER_8            .         Начало бурения интервала каротажа: 
OTHER_80           .         GK.FLT = 0.1*GR.UR/H[-1] + (1-0.1)*GR.UR/H[0]: 
OTHER_81           .         <_techsia_sc_> Дата тарировки температуры 25.05.2010: 
OTHER_82           .         Ручной ввод коэффициентов     : 
OTHER_83           .         TM.DEGC = 0.00402*RTM.E.ACP + -0.994: 
OTHER_84           .         <_techsia_sc_> Дата тарировки давления 25.05.2010: 
OTHER_85           .         Ручной ввод коэффициентов     : 
OTHER_86           .         MN.ATM = (2.27521e-006*TM.DEGC + 0.02078)*(RMN.E.ACP + 6.2*TM.DEGC + -1688): 
OTHER_87           .         <_techsia_sc_> Дата тарировки ГК 25.05.2010: 
OTHER_88           .         Ручной ввод коэффициентов     : 
OTHER_89           .         GR.UR/H = RGR.IMP/MIN / 45.5144: 
OTHER_9            .         Окончание бурения интервала каротажа: 
OTHER_90           .         GK.FLT = 0.1*GR.UR/H[-1] + (1-0.1)*GR.UR/H[0]: 
OTHER_91           .         <_techsia_sc_> Дата тарировки температуры 25.05.2010: 
OTHER_92           .         Ручной ввод коэффициентов     : 
OTHER_93           .         TM.DEGC = 0.00402*RTM.E.ACP + -0.994: 
OTHER_94           .         <_techsia_sc_> Дата тарировки давления 25.05.2010: 
OTHER_95           .         Ручной ввод коэффициентов     : 
OTHER_96           .         MN.ATM = (2.27521e-006*TM.DEGC + 0.02078)*(RMN.E.ACP + 6.2*TM.DEGC + -1688): 
OTHER_97           .         <_techsia_sc_> Дата тарировки ГК 25.05.2010: 
OTHER_98           .         Ручной ввод коэффициентов     : 
OTHER_99           .         GR.UR/H = RGR.IMP/MIN / 45.5144: 
PROJECT_UPGRADE_TIME .         2021-03-18T21_24_50           : 
PRTY               .         ПП-601-1                      : N партии
SRVC               .         Барковский                    : Начальник партии
TLFamily_DEPT      .         Measured Depth                : 
TLFamily_LM        .         Casing Collar locator         : 
TLFamily_METKA     .                                       : 
TLFamily_MN        .                                       : 
TLFamily_TM        .         Temperature                   : 
group              .         second                        : 
~Curve Information
#_______________________________________________________________________________
#
#LOGNAME           .UNIT     LOG_ID                        : DESCRIPTION
#_______________________________________________________________________________
DEPT               .M                                      : Depth curve 
LM                 .е.ацп                                  : Локатор муфт,е.ацп 
METKA              .е.ацп                                  : Магнитные метки,е.ацп 
MN                 .атм                                    : 12 Давление, атм. -  160.0 см 
TM                 .град.C                                 : Термограмма по стволу скважины,град.C 
~Ascii
# ...
2001.2     428.006    0          177.125    51.887    
2001.4     466.986    0          177.11     51.892    
2001.6     364.996    0          177.137    51.893    
2001.8     334.996    0          177.163    51.898    
2002       307.008    0          177.17     51.902    
2002.2     362.993    0          177.194    51.907    
2002.4     312.996    0          177.228    51.912    
2002.6     284.006    0          177.226    51.917    
2002.8     324.001    0          177.236    51.922    
2003       333.995    0          177.259    51.927    
2003.2     302.005    0          177.284    51.929    
2003.4     338.002    0          177.309    51.933    
2003.6     354.015    0          177.321    51.937    
2003.8     460.995    0          177.342    51.94     
2004       424.998    0          177.364    51.945    
2004.2     407.986    0          177.373    51.948    
2004.4     312.004    0          177.398    51.953    
2004.6     339.005    0          177.408    51.954    
2004.8     374.032    2          177.429    51.961    
2005       596.661    0          177.451    51.964    
2005.2     5241.746   0          177.47     51.969    
2005.4     3457.848   0          177.494    51.974    
2005.6     2389.898   0          177.494    51.978    
2005.8     1674.903   0          177.521    51.98     
2006       995.975    0          177.558    51.985    
2006.2     820.992    0          177.57     51.989    
2006.4     763.981    0          177.58     51.994    
2006.6     631        0          177.598    51.995    
2006.8     627.984    0          177.605    52        
2007       519.002    0          177.624    52.004    
2007.2     534.99     0          177.634    52.009    
2007.4     464.007    0          177.675    52.01     
2007.6     515.006    0          177.688    52.018    
2007.8     556.989    0          177.697    52.02     
2008       477.996    0          177.732    52.025    
2008.2     449.999    0          177.732    52.03     
2008.4     440.019    0          177.75     52.035    
2008.6     574.004    0          177.775    52.038    
2008.8     599.99     0          177.77     52.043    
2009       531.003    0          177.827    52.046    
2009.2     551.003    0          177.84     52.05     
2009.4     571.993    0          177.841    52.055    
2009.6     525.006    0          177.865    52.06     
2009.8     568.008    0          177.891    52.062    
2010       621.992    0          177.917    52.066    
2010.2     564.992    0          177.927    52.071    
2010.4     507.996    0          177.927    52.076    
2010.6     479.998    0          177.975    52.081    
2010.8     463.012    0          177.991    52.085    
2011       544.995    0          177.992    52.09     
2011.2     512.993    0          178.011    52.091    
2011.4     464.016    0          178.035    52.098    
2011.6     573.987    0          178.048    52.105    
2011.8     480.992    0          178.078    52.106    
2012       422.01     0          178.094    52.111    
2012.2     490.991    0          178.101    52.116    
2012.4     431.009    0          178.143    52.121    
2012.6     496.014    0          178.151    52.125    
2012.8     591.042    0          178.165    52.126    
2013       888.007    0          178.184    52.131    
2013.2     938.969    0          178.189    52.134    
2013.4     719.014    0          178.213    52.137    
2013.6     815.021    0          178.24     52.142    
2013.8     963.011    0          178.251    52.147    
2014       1041.014   0          178.252    52.152    
2014.2     1141.978   0          178.276    52.157    
2014.4     987.991    0          178.296    52.164    
2014.6     924.967    0          178.321    52.171    
2014.8     694.65     2          178.356    52.175    
2015       5241.742   0          178.362    52.18     
2015.2     3438.833   0          178.383    52.185    
2015.4     2272.891   0          178.372    52.19     
2015.6     1508.898   0          178.406    52.191    
2015.8     796.969    0          178.444    52.196    
2016       582.989    0          178.466    52.201    
2016.2     508.986    0          178.461    52.205    
2016.4     413.987    0          178.491    52.21     
2016.6     325.993    0          178.52     52.217    
2016.8     277.006    0          178.548    52.219    
2017       321        0          178.534    52.223    
2017.2     321.997    0          178.552    52.227    
2017.4     299.007    0          178.618    52.229    
2017.6     348.999    0          178.604    52.233    
2017.8     339.001    0          178.629    52.238    
2018       349.006    0          178.655    52.243    
2018.2     392.002    0          178.663    52.244    
2018.4     405.014    0          178.687    52.249    
2018.6     505.993    0          178.713    52.251    
2018.8     459.005    0          178.739    52.255    
2019       491.008    0          178.748    52.259    
2019.2     546.975    0          178.75     52.261    
2019.4     371.003    0          178.776    52.266    
2019.6     394.998    0          178.792    52.271    
2019.8     381.015    0          178.805    52.271    
2020       482.986    0          178.832    52.276    
2020.2     385.002    0          178.84     52.279    
2020.4     395.99     0          178.878    52.282    
2020.6     328.014    0          178.89     52.287    
2020.8     423.998    0          178.915    52.291    
2021       412.992    0          178.901    52.293    
2021.2     354.999    0          178.943    52.298    
2021.4     347.011    0          178.953    52.303    
2021.6     421.995    0          178.979    52.307    
2021.8     386.996    0          179.006    52.308    
2022       356.99     0          179.029    52.313    
2022.2     289.002    0          179.035    52.318    
2022.4     302.004    0          179.05     52.319    
2022.6     330.022    0          179.067    52.324    
2022.8     481.003    0          179.092    52.329    
2023       504.999    0          179.102    52.331    
2023.2     498.994    0          179.145    52.335    
2023.4     454.008    0          179.158    52.34     
2023.6     511.988    0          179.176    52.344    
2023.8     428.998    0          179.181    52.347    
2024       411.993    0          179.201    52.35     
2024.2     363        0          179.212    52.355    
2024.4     365.595    0          179.239    52.359    
2024.6     4508.804   0          179.245    52.361    
2024.8     3143.855   2          179.287    52.366    
2025       2131.906   0          179.287    52.367    
2025.2     1476.976   0          179.314    52.371    
2025.4     1312.967   0          179.331    52.376    
2025.6     1080.974   0          179.333    52.38     
2025.8     898.993    0          179.379    52.38     
2026       848.979    0          179.383    52.383    
2026.2     703.013    0          179.387    52.384    
2026.4     791.969    0          179.425    52.388    
2026.6     575.01     0          179.437    52.389    
2026.8     643.992    0          179.458    52.394    
2027       585.021    0          179.469    52.396    
2027.2     733.989    0          179.501    52.399    
2027.4     660        0          179.486    52.404    
2027.6     659.982    0          179.544    52.405    
2027.8     538.005    0          179.545    52.41     
2028       574.987    0          179.545    52.415    
2028.2     486.007    0          179.584    52.42     
2028.4     531.991    0          179.609    52.425    
2028.6     467.017    0          179.594    52.43     
2028.8     584.993    0          179.644    52.432    
2029       534.001    0          179.662    52.436    
2029.2     543.001    0          179.669    52.441    
2029.4     551.004    0          179.695    52.445    
2029.6     580.998    0          179.718    52.45     
2029.8     567.989    0          179.728    52.455    
2030       491.017    0          179.753    52.46     
2030.2     610.007    0          179.761    52.464    
