~Version
 VERS              .         2.0                           : CWLS LOG ASCII STANDARD - VERSION 2.0
 WRAP              .         NO                            : ONE LINE PER DEPTH STEP
 DLM               .         SPACE                         : DELIMITING CHARACTER(SPACE TAB OR COMMA)
~Well Information
#_______________________________________________________________________________
#
#PARAMETER_NAME    .UNIT     VALUE                         : DESCRIPTION
#_______________________________________________________________________________
STRT               .M        2667.4                        : First reference value
STOP               .M        2776                          : Last reference value
STEP               .M        0.2000002                     : Step increment
NULL               .         -9999                         : Missing value
COMP               .                                       : Company
WELL               .         616                           : Well name
FLD                .                                       : Field
LOC                .                                       : Location
CNTY               .                                       : County
STAT               .                                       : State
CTRY               .                                       : Country
SRVC               .                                       : Service Company
DATE               .                                       : Date
API                .                                       : API number
PROJECT_UPGRADE_TIME .         2021-03-18T21_24_50           : 
group              .         Good                          : 
~Parameter Information Block
#_______________________________________________________________________________
#
#PARAMETER_NAME    .UNIT     VALUE                         : DESCRIPTION
#_______________________________________________________________________________
SET                .         D1800_D                       : 
OTHER              .         Программное обеспечение станции MONITOR-386EX 25/12/99 15_08_10   BGF V52 22/08/01 16_56_30   3.1_SNGF___BGF_N_092049: 
OTHER_10           .         Тарировки_                    : 
OTHER_11           .         TM.GRD = 0.00403*TM$.UE + -1.07: 
OTHER_12           .         MN.ATM = (9.34907e-006*TM.GRD + 0.02171)*(MN$.UE + -7.93*TM.GRD + -1787): 
OTHER_13           .         GK.MKR/H = LM. / 42.4676      : 
OTHER_14           .         GK.FLT = 0.1*GK.MKR/H[-1] + (1-0.1)*GK.MKR/H[0]: 
OTHER_2            .         Kedr.exe версия 3.4.2.51      : 
OTHER_3            .         KedrData.dll версия 3.4.2.24  : 
OTHER_4            .         Драйвер версия 2.1.1.3        : 
OTHER_5            .         Мнемоники версия 3.3 S        : 
OTHER_6            .         Прибор_ КСА-Т4                : 
OTHER_7            .         Номер прибора_ 03             : 
OTHER_8            .         Режим_ КСА-Т4                 : 
OTHER_9            .         Форма_ КВА.                   : 
PROJECT_UPGRADE_TIME .         2021-03-18T21_24_49           : 
TLFamily_DEPT      .         Measured Depth                : 
TLFamily_GK        .         Gamma Ray                     : 
TLFamily_GK$       .                                       : 
TLFamily_GK_2      .         Gamma Ray                     : 
TLFamily_LM        .         Casing Collar locator         : 
TLFamily_METKA     .                                       : 
TLFamily_MN        .                                       : 
TLFamily_MN$       .                                       : 
TLFamily_RCOR      .                                       : 
TLFamily_SPID      .         Spontaneous Potential         : 
TLFamily_TENS      .         Cable Tension                 : 
TLFamily_TIME      .         Time                          : 
TLFamily_TM        .         Temperature                   : 
TLFamily_TM$       .         Temperature                   : 
group              .         prim                          : 
~Curve Information
#_______________________________________________________________________________
#
#LOGNAME           .UNIT     LOG_ID                        : DESCRIPTION
#_______________________________________________________________________________
DEPT               .M                                      : 1 Глубина, м -    0.0 см 
GK                 .MKR/H                                  : 13 Гамма-активность, мкр./ч -  110.0 см 
GK$                .UE                                     : 10 Гамма-активность, усл.ед. -  110.0 см 
GK_2               .FLT                                    : 14 Гамма-активность фильтрованная, мкр./ч -  110.0 см 
LM                 .                                       : 9 Локатор муфт,  -   20.0 см 
METKA              .                                       : 3 Метки,  -    0.0 см 
MN                 .ATM                                    : 12 Давление, атм. -  160.0 см 
MN$                .UE                                     : 8 Давление, усл.ед. -  160.0 см 
RCOR               .CM/KM                                  : 5 Коррекция по ролику, см/км -    0.0 см 
SPID               .M/H                                    : 2 Скорость, м/час -    0.0 см 
TENS               .T                                      : 6 Натяжение кабеля, т -    0.0 см 
TIME               .S                                      : 4 Время, сек -    0.0 см 
TM                 .GRD                                    : 11 Температура, °C -  170.0 см 
TM$                .UE                                     : 7 Температура, усл.ед. -  170.0 см 
~Ascii
# ...
2719.4     10.67      453        10.68      174        0          249.175    13403      -638       -229       0.17       6903.51    45.082     11452     
2719.6     11.73      498        11.73      124        0          249.212    13405      -638       -229       0.17       6900.46    45.079     11451     
2719.8     11.89      505        11.59      109        0          249.212    13405      -638       -239       0.17       6897.3     45.078     11451     
2720       10.08      428        10.08      102        2          249.234    13406      -630       -231       0.17       6892.83    45.078     11451     
2720.2     10.5       446        10.5       89         0          249.256    13407      -630       -236       0.17       6889.84    45.078     11451     
2720.4     10.67      453        10.66      70         0          249.267    13407      -630       -242       0.17       6886.73    45.078     11451     
2720.6     10.55      448        10.49      79         0          249.3      13409      -630       -239       0.17       6883.62    45.073     11450     
2720.8     10.5       446        10.57      60         0          249.322    13410      -630       -231       0.17       6880.52    45.078     11451     
2721       10.31      438        10.3       74         0          249.301    13409      -630       -235       0.17       6877.53    45.078     11451     
2721.2     8.83       375        8.83       104        0          249.367    13412      -630       -233       0.17       6874.38    45.078     11451     
2721.4     9.51       404        9.53       78         0          249.367    13412      -630       -227       0.17       6871.08    45.078     11451     
2721.6     10.71      455        10.75      87         0          249.411    13414      -630       -232       0.17       6868.03    45.078     11451     
2721.8     11.66      495        11.71      86         0          249.433    13415      -630       -228       0.17       6864.86    45.073     11450     
2722       11.07      470        11.07      109        0          249.456    13416      -630       -228       0.17       6861.76    45.069     11449     
2722.2     10.36      440        10.36      105        0          249.471    13417      -630       -239       0.17       6858.72    45.069     11449     
2722.4     10.31      438        10.32      139        0          249.478    13417      -630       -232       0.17       6855.73    45.069     11449     
2722.6     10.93      464        11.07      111        0          249.5      13418      -630       -227       0.17       6852.56    45.069     11449     
2722.8     11.14      473        11.08      141        0          249.522    13419      -630       -231       0.17       6849.45    45.069     11449     
2723       11.59      492        11.58      129        0          249.545    13420      -630       -233       0.17       6846.22    45.065     11448     
2723.2     11.47      487        11.42      130        0          249.567    13421      -630       -239       0.17       6843.13    45.065     11448     
2723.4     9.77       415        9.65       117        0          249.589    13422      -630       -230       0.17       6840.02    45.065     11448     
2723.6     7.83       333        7.71       128        0          249.611    13423      -630       -232       0.17       6836.9     45.061     11447     
2723.8     7.11       302        7.11       82         0          249.633    13424      -630       -230       0.17       6833.92    45.061     11447     
2724       6.81       289        6.81       92         0          249.644    13424      -630       -232       0.17       6830.75    45.059     11447     
2724.2     6.83       290        6.83       132        0          249.678    13426      -630       -237       0.17       6827.71    45.06      11447     
2724.4     6.97       296        7.01       217        0          249.7      13427      -630       -231       0.17       6824.61    45.057     11446     
2724.6     6.78       288        6.78       131        0          249.722    13428      -630       -235       0.17       6821.37    45.057     11446     
2724.8     6.1        259        6.1        258        0          249.745    13429      -630       -235       0.17       6818.14    45.057     11446     
2725       6.22       264        6.26       1065       0          249.767    13430      -630       -225       0.17       6815.09    45.055     11445     
2725.2     7.62       324        7.73       189        0          249.789    13431      -630       -229       0.17       6812.11    45.057     11446     
2725.4     8.52       362        8.52       89         0          249.811    13432      -630       -233       0.17       6809.06    45.057     11446     
2725.6     8.05       342        8.05       132        0          249.833    13433      -630       -229       0.17       6805.83    45.057     11446     
2725.8     8.01       340        8.06       180        0          249.833    13433      -630       -224       0.17       6802.8     45.061     11447     
2726       8.37       355        8.34       135        0          249.855    13434      -630       -226       0.17       6799.75    45.061     11447     
2726.2     8.38       356        8.38       98         0          249.891    13436      -630       -231       0.17       6796.45    45.065     11448     
2726.4     7.79       331        7.79       92         0          249.906    13436      -630       -234       0.17       6793.28    45.069     11449     
2726.6     7.56       321        7.54       121        0          249.921    13437      -630       -239       0.17       6790.29    45.067     11448     
2726.8     7.23       307        7.16       167        0          249.943    13438      -630       -225       0.17       6787.2     45.069     11449     
2727       7.91       336        7.91       110        0          249.965    13439      -630       -230       0.17       6784.09    45.065     11448     
2727.2     7.49       318        7.48       109        0          250.002    13441      -630       -231       0.17       6780.98    45.049     11444     
2727.4     7.13       303        7.18       104        0          250.01     13441      -630       -226       0.17       6778       45.061     11447     
2727.6     7.59       322        8.06       125        0          250.032    13442      -630       -234       0.17       6774.82    45.057     11446     
2727.8     10.5       446        10.5       126        0          250.054    13443      -630       -236       0.17       6771.55    45.065     11448     
2728       10.76      457        10.77      185        0          250.075    13444      -630       -237       0.17       6768.5     45.053     11445     
2728.2     11.28      479        11.31      204        0          250.096    13445      -630       -244       0.17       6765.45    45.094     11455     
2728.4     11.82      502        11.76      318        0          250.119    13446      -630       -239       0.17       6762.34    45.09      11454     
2728.6     10.46      444        10.46      111        0          250.141    13447      -630       -236       0.17       6759.17    45.082     11452     
2728.8     10.64      452        10.64      322        0          250.163    13448      -630       -234       0.17       6756.2     45.082     11452     
2729       9.87       419        9.7        113        0          250.186    13449      -630       -228       0.17       6753.03    45.073     11450     
2729.2     8.12       345        7.91       319        0          250.207    13450      -630       -229       0.17       6749.67    45.069     11449     
2729.4     6.97       296        6.97       178        0          250.21     13450      -630       -236       0.17       6746.69    45.13      11464     
2729.6     6.4        272        6.4        136        0          250.257    13453      -630       -238       0.17       6743.58    45.158     11471     
