~Version
 VERS              .         2.0                           : CWLS LOG ASCII STANDARD - VERSION 2.0
 WRAP              .         NO                            : ONE LINE PER DEPTH STEP
 DLM               .         SPACE                         : DELIMITING CHARACTER(SPACE TAB OR COMMA)
~Well Information
#_______________________________________________________________________________
#
#PARAMETER_NAME    .UNIT     VALUE                         : DESCRIPTION
#_______________________________________________________________________________
STRT               .M        10.2                          : First reference value
STOP               .M        2753.6                        : Last reference value
STEP               .M        0.2                           : Step increment
NULL               .         -9999                         : Missing value
COMP               .                                       : Company
WELL               .         616                           : Well name
FLD                .                                       : Field
LOC                .                                       : Location
CNTY               .                                       : County
STAT               .                                       : State
CTRY               .                                       : Country
SRVC               .                                       : Service Company
DATE               .                                       : Date
API                .                                       : API number
PROJECT_UPGRADE_TIME .         2021-03-18T21_24_50           : 
group              .         Good                          : 
~Parameter Information Block
#_______________________________________________________________________________
#
#PARAMETER_NAME    .UNIT     VALUE                         : DESCRIPTION
#_______________________________________________________________________________
SET                .         D7028_D                       : 
OTHER              .         Kedr.exe версия 2.1.2.32      : 
OTHER_10           .         TM.GRD = 0.00404*TM$.UE + 0.07: 
OTHER_11           .         MN.ATM = (6.33279e-006*TM.GRD + 0.02401)*(MN$.UE + 2.72*TM.GRD + -2018): 
OTHER_12           .         GK.MKR/H = GK$.UE / 43.5489 + 0: 
OTHER_13           .         RES.SM = 0.00476*CRES.UE - 1.51709: 
OTHER_14           .         PL.GSM3 = 0 + 0 * (PL.UE / 1) +  0 * (PL.UE / 1)^2: 
OTHER_15           .         Постоянная времени ГГП = 6 сек: 
OTHER_16           .         Постоянная времени ГК = 6 сек : 
OTHER_2            .         KedrData.dll версия 3.2.2.14  : 
OTHER_3            .         LasInf.dll версия 3.2.0.13    : 
OTHER_4            .         Драйвер версия 1.2.0.5        : 
OTHER_5            .         Прибор_ КСА-M1                : 
OTHER_6            .         Номер прибора_ 155+р204       : 
OTHER_7            .         Режим_ КСА-М1 + ГГП + Резистивиметр: 
OTHER_8            .         Форма_ 223\2                  : 
OTHER_9            .         Тарировки_                    : 
PROJECT_UPGRADE_TIME .         2021-03-18T21_24_50           : 
TLFamily_CRES      .                                       : 
TLFamily_DEPT      .         Measured Depth                : 
TLFamily_GK        .         Gamma Ray                     : 
TLFamily_GK$       .                                       : 
TLFamily_LM        .         Casing Collar locator         : 
TLFamily_METKA     .                                       : 
TLFamily_MN        .                                       : 
TLFamily_MN$       .                                       : 
TLFamily_PL        .                                       : 
TLFamily_PL_2      .                                       : 
TLFamily_RCOR      .                                       : 
TLFamily_RES       .         Mud Resistivity               : 
TLFamily_SPID      .         Spontaneous Potential         : 
TLFamily_STD       .                                       : 
TLFamily_TIME      .         Time                          : 
TLFamily_TM        .         Temperature                   : 
TLFamily_TM$       .         Temperature                   : 
TLFamily_VGD       .         Gas Volume                    : 
group              .         prim                          : 
~Curve Information
#_______________________________________________________________________________
#
#LOGNAME           .UNIT     LOG_ID                        : DESCRIPTION
#_______________________________________________________________________________
DEPT               .M                                      : 1 Глубина, м -    0.0 см 
CRES               .UE                                     : 9 Проводимость, усл.ед. -  222.0 см 
GK                 .MKR/H                                  : 16 Гамма-активность, мкр./ч -  106.0 см 
GK$                .UE                                     : 13 Гамма-активность, усл.ед. -  106.0 см 
LM                 .                                       : 11 Локатор муфт,  -   16.0 см 
METKA              .                                       : 3 Метки,  -    0.0 см 
MN                 .ATM                                    : 15 Давление, атм. -  160.0 см 
MN$                .UE                                     : 7 Давление, усл.ед. -  160.0 см 
PL                 .UE                                     : 10 Плотность, усл.ед. -  270.0 см 
PL_2               .GSM3                                   : 18 Плотность, г./см3 -  270.0 см 
RCOR               .CM/KM                                  : 5 Коррекция по ролику, см/км -    0.0 см 
RES                .SM                                     : 17 Проводимость,  -  222.0 см 
SPID               .M/H                                    : 2 Скорость, м/час -    0.0 см 
STD                .                                       : 12 Приток,  -  170.0 см 
TIME               .S                                      : 4 Время, сек -    0.0 см 
TM                 .GRD                                    : 14 Температура, °C -  180.0 см 
TM$                .UE                                     : 6 Температура, усл.ед. -  180.0 см 
VGD                .                                       : 8 Влагомер,  -  170.0 см 
~Ascii
# ...
1469.8     1126       9.29       392        1116       1          131.098    7292       13         0          0          3.8427     -1860      8791       21262.04   44.958     11111      6577      
1470       1127       9.35       392        698        0          131.123    7293       14         0          0          3.8462     -1860      8791       21261.62   44.955     11110      6574      
1470.2     1126       9.44       409        820        0          131.126    7293       14         0          0          3.8437     -1819      8791       21261.04   44.962     11112      6581      
1470.4     1126       9.45       418        1027       0          131.148    7294       13         0          0          3.8427     -1790      8792       21260.65   44.962     11112      6582      
1470.6     1126       9.41       418        801        0          131.174    7295       13         0          0          3.8427     -1830      8794       21260.27   44.966     11113      6574      
1470.8     1128       9.37       418        757        0          131.177    7295       13         0          0          3.8503     -1860      8795       21259.88   44.974     11115      6580      
1471       1130       9.31       418        756        0          131.201    7296       13         0          0          3.8598     -1860      8795       21259.48   44.982     11117      6593      
1471.2     1133       9.2        412        836        0          131.225    7297       14         0          0          3.8777     -1860      8795       21259.08   44.983     11117      6600      
1471.4     1134       9.15       396        907        0          131.226    7297       14         0          0          3.8807     -1813      8797       21258.69   44.99      11119      6603      
1471.6     1136       9.16       396        1110       0          131.251    7298       13         0          0          3.8893     -1790      8797       21258.3    44.995     11120      6600      
1471.8     1137       9.17       396        1126       0          131.28     7299       14         0          0          3.8944     -1790      8797       21257.9    44.999     11121      6601      
1472       1137       9.19       396        1176       0          131.286    7299       14         0          0          3.895      -1839      8798       21257.51   45.004     11122      6595      
1472.2     1137       9.21       396        817        0          131.29     7300       14         0          0          3.895      -1806      8800       21257.1    45.009     11124      6612      
1472.4     1137       9.24       396        817        0          131.315    7301       14         0          0          3.8928     -1790      8800       21256.71   45.011     11124      6612      
1472.6     1127       9.28       402        828        0          131.341    7302       13         0          0          3.8498     -1790      8802       21256.3    45.013     11125      6611      
1472.8     1119       9.29       411        664        0          131.35     7302       14         0          0          3.8071     -1790      8802       21255.91   45.018     11126      6607      
1473       1118       9.25       411        622        0          131.367    7303       14         0          0          3.8023     -1790      8803       21255.52   45.014     11125      6599      
1473.2     1117       9.21       411        717        0          131.393    7304       14         0          0          3.7998     -1853      8804       21255.12   45.024     11127      6605      
1473.4     1116       9.16       411        845        0          131.4      7304       14         0          0          3.7971     -1860      8805       21254.73   45.034     11130      6610      
1473.6     1113       9.09       411        637        0          131.418    7305       14         0          0          3.7815     -1860      8807       21254.31   45.035     11130      6602      
1473.8     1111       9          404        653        0          131.445    7306       14         0          0          3.7713     -1790      8809       21253.93   45.041     11131      6606      
1474       1109       8.94       399        722        0          131.451    7306       14         0          0          3.7598     -1860      8809       21253.53   45.046     11133      6605      
1474.2     1097       8.88       399        798        0          131.471    7307       14         0          0          3.7065     -1860      8809       21253.15   45.05      11134      6594      
1474.4     1091       8.82       399        735        0          131.476    7307       14         0          0          3.6761     -1860      8812       21252.75   45.051     11134      6593      
1474.6     1087       8.73       399        914        0          131.498    7308       14         0          0          3.657      -1860      8812       21252.35   45.058     11136      6595      
1474.8     1084       8.63       399        944        0          131.522    7309       14         0          0          3.6441     -1860      8813       21251.97   45.063     11137      6597      
1475       1085       8.5        399        692        0          131.547    7310       14         0          0          3.6463     -1860      8813       21251.57   45.063     11137      6595      
1475.2     1084       8.35       377        723        0          131.575    7311       14         0          0          3.6438     -1853      8814       21251.19   45.071     11139      6594      
1475.4     1085       8.28       368        718        0          131.575    7311       14         0          0          3.6466     -1790      8814       21250.81   45.076     11140      6595      
1475.6     1085       8.24       368        676        0          131.599    7312       14         0          0          3.6475     -1801      8815       21250.39   45.076     11140      6594      
1475.8     1084       8.19       368        611        0          131.6      7312       14         0          0          3.6433     -1849      8817       21250.01   45.08      11141      6593      
1476       1085       8.12       368        668        0          131.626    7313       14         0          0          3.647      -1790      8818       21249.63   45.084     11142      6596      
1476.2     1085       8.05       368        688        0          131.649    7314       14         0          0          3.6475     -1801      8818       21249.22   45.088     11143      6598      
1476.4     1085       7.96       353        752        0          131.651    7314       14         0          0          3.6475     -1860      8819       21248.82   45.092     11144      6597      
1476.6     1085       7.92       348        797        0          131.677    7315       14         0          0          3.6475     -1860      8820       21248.43   45.096     11145      6598      
1476.8     1085       7.91       348        604        0          131.699    7316       14         0          0          3.6475     -1842      8821       21248.04   45.104     11147      6598      
1477       1085       7.89       348        595        0          131.701    7316       13         0          0          3.6475     -1808      8822       21247.64   45.108     11148      6598      
1477.2     1085       7.87       348        683        0          131.724    7317       14         0          0          3.6475     -1860      8822       21247.24   45.112     11149      6597      
1477.4     1085       7.84       348        677        0          131.729    7317       13         0          0          3.6475     -1860      8822       21246.85   45.117     11150      6597      
1477.6     1086       7.8        348        676        0          131.753    7318       14         0          0          3.652      -1837      8823       21246.47   45.121     11151      6597      
1477.8     1086       7.75       330        820        0          131.778    7319       14         0          0          3.652      -1790      8824       21246.07   45.125     11152      6596      
