~Version
 VERS              .         2.0                           : CWLS LOG ASCII STANDARD - VERSION 2.0
 WRAP              .         NO                            : ONE LINE PER DEPTH STEP
 DLM               .         SPACE                         : DELIMITING CHARACTER(SPACE TAB OR COMMA)
~Well Information
#_______________________________________________________________________________
#
#PARAMETER_NAME    .UNIT     VALUE                         : DESCRIPTION
#_______________________________________________________________________________
STRT               .M        44                            : First reference value
STOP               .M        2769.2                        : Last reference value
STEP               .M        0.2                           : Step increment
NULL               .         -9999                         : Missing value
COMP               .                                       : Company
WELL               .         616                           : Well name
FLD                .                                       : Field
LOC                .                                       : Location
CNTY               .                                       : County
STAT               .                                       : State
CTRY               .                                       : Country
SRVC               .                                       : Service Company
DATE               .                                       : Date
API                .                                       : API number
PROJECT_UPGRADE_TIME .         2021-03-18T21_24_50           : 
group              .         Good                          : 
~Parameter Information Block
#_______________________________________________________________________________
#
#PARAMETER_NAME    .UNIT     VALUE                         : DESCRIPTION
#_______________________________________________________________________________
SET                .         D1160_D                       : 
OTHER              .         Программное обеспечение станции MONITOR-386EX 25/12/99 15_08_10   BGF V52 22/08/01 16_56_30   3.2_BGF_N_3070031: 
OTHER_10           .         Тарировки_                    : 
OTHER_11           .         TM.GRD = 0.00403*TM$.UE + -1.19: 
OTHER_12           .         MN.ATM = (7.1e-006*TM.GRD + 0.02017)*(MN$.UE + -3.03*TM.GRD + -1833): 
OTHER_13           .         Id error                      : 
OTHER_2            .         Kedr.exe версия 3.4.2.51      : 
OTHER_3            .         KedrData.dll версия 3.4.2.24  : 
OTHER_4            .         Драйвер версия 2.1.1.8        : 
OTHER_5            .         Мнемоники версия 3.3 S        : 
OTHER_6            .         Прибор_ КСА-М1                : 
OTHER_7            .         Номер прибора_ 265            : 
OTHER_8            .         Режим_ КСА-М1                 : 
OTHER_9            .         Форма_ ТЕРМОМЕТР              : 
PROJECT_UPGRADE_TIME .         2021-03-18T21_24_49           : 
TLFamily_DEPT      .         Measured Depth                : 
TLFamily_GK        .         Gamma Ray                     : 
TLFamily_GK$       .                                       : 
TLFamily_LM        .         Casing Collar locator         : 
TLFamily_METKA     .                                       : 
TLFamily_MN        .                                       : 
TLFamily_MN$       .                                       : 
TLFamily_RCOR      .                                       : 
TLFamily_SPID      .         Spontaneous Potential         : 
TLFamily_STD       .                                       : 
TLFamily_TENS      .         Cable Tension                 : 
TLFamily_TIME      .         Time                          : 
TLFamily_TM        .         Temperature                   : 
TLFamily_TM$       .         Temperature                   : 
TLFamily_VGD       .         Gas Volume                    : 
group              .         prim                          : 
~Curve Information
#_______________________________________________________________________________
#
#LOGNAME           .UNIT     LOG_ID                        : DESCRIPTION
#_______________________________________________________________________________
DEPT               .M                                      : 1 Глубина, м -    0.0 см 
GK                 .MKR/H                                  : 15 Гамма-активность, мкр./ч -  110.0 см 
GK$                .UE                                     : 12 Гамма-активность, усл.ед. -  110.0 см 
LM                 .                                       : 10 Локатор муфт,  -   20.0 см 
METKA              .                                       : 3 Метки,  -    0.0 см 
MN                 .ATM                                    : 14 Давление, атм. -  160.0 см 
MN$                .UE                                     : 8 Давление, усл.ед. -  160.0 см 
RCOR               .CM/KM                                  : 5 Коррекция по ролику, см/км -    0.0 см 
SPID               .M/H                                    : 2 Скорость, м/час -    0.0 см 
STD                .                                       : 11 Приток,  -  170.0 см 
TENS               .T                                      : 6 Натяжение кабеля, т -    0.0 см 
TIME               .S                                      : 4 Время, сек -    0.0 см 
TM                 .GRD                                    : 13 Температура, °C -  180.0 см 
TM$                .UE                                     : 7 Температура, усл.ед. -  180.0 см 
VGD                .                                       : 9 Влагомер,  -  170.0 см 
~Ascii
# ...
1857       8.24       352        1          0          168.617    10202      -1400      1913       21376      0          13865.8    61.505     15557      6452      
1857.2     8.24       352        1          0          168.667    10204      -1400      1913       21379      0          13866.19   61.513     15559      6450      
1857.4     8.19       347        1          0          168.686    10205      -1400      1914       21382      0          13866.6    61.52      15561      6451      
1857.6     8.15       344        1          0          168.705    10206      -1400      1910       21384      0          13866.96   61.526     15562      6451      
1857.8     8.12       344        1          0          168.724    10207      -1400      1909       21387      0          13867.33   61.53      15563      6452      
1858       8.09       344        1          0          168.743    10208      -1400      1910       21390      0          13867.71   61.534     15564      6453      
1858.2     8.08       344        1          0          168.761    10209      -1400      1911       21392      0          13868.09   61.538     15565      6452      
1858.4     8.07       344        1          0          168.782    10210      -1400      1912       21395      0          13868.47   61.545     15567      6451      
1858.6     8          337        1          0          168.8      10211      -1400      1913       21399      0          13868.83   61.553     15569      6451      
1858.8     7.81       316        1          0          168.836    10213      -1400      1912       21401      0          13869.19   61.553     15569      6452      
1859       7.67       316        1          0          168.843    10213      -1400      1907       21402      0          13869.59   61.56      15571      6452      
1859.2     7.58       316        1          0          168.872    10214      -1400      1903       21406      0          13869.95   61.568     15573      6449      
1859.4     7.52       316        1          0          168.885    10215      -1400      1905       21409      0          13870.33   61.575     15574      6450      
1859.6     7.48       316        1          0          168.896    10216      -1400      1901       21409      0          13870.71   61.58      15576      6452      
1859.8     7.45       316        1          0          168.925    10217      -1400      1897       21414      0          13871.09   61.586     15577      6452      
1860       7.48       322        1          2          168.946    10218      -1400      1904       21417      0          13871.53   61.593     15579      6451      
1860.2     7.52       325        1          0          168.959    10219      -1400      1911       21417      0          13871.91   61.599     15580      6451      
1860.4     7.55       325        1          0          168.992    10220      -1400      1908       21421      0          13872.28   61.604     15582      6451      
1860.6     7.56       325        1          0          169.012    10221      -1400      1904       21423      0          13872.65   61.61      15583      6451      
1860.8     7.58       325        1          0          169.03     10222      -1400      1903       21425      0          13873.03   61.615     15584      6450      
1861       7.59       325        1          0          169.049    10223      -1400      1901       21428      0          13873.42   61.622     15586      6451      
1861.2     7.61       328        1          0          169.068    10224      -1400      1903       21431      0          13873.79   61.626     15587      6451      
1861.4     7.66       332        1          0          169.088    10225      -1400      1910       21433      0          13874.15   61.633     15589      6451      
1861.6     7.69       332        1          0          169.11     10226      -1400      1913       21437      0          13874.53   61.641     15591      6451      
1861.8     7.72       332        1          0          169.147    10228      -1400      1910       21443      0          13874.91   61.646     15592      6451      
1862       7.73       332        1          0          169.168    10229      -1400      1911       21445      0          13875.29   61.649     15593      6452      
1862.2     7.74       332        1          0          169.187    10230      -1400      1911       21447      0          13875.65   61.653     15594      6452      
1862.4     7.75       332        1          0          169.193    10230      -1400      1912       21450      0          13876.05   61.662     15596      6450      
1862.6     7.58       310        1          0          169.205    10231      -1400      1907       21452      0          13876.44   61.668     15598      6450      
1862.8     7.45       306        1          0          169.224    10231      -1400      1913       21452      0          13876.79   61.675     15599      6450      
1863       7.35       306        237        0          169.235    10232      -1400      1920       21457      0          13877.19   61.68      15600      6450      
1863.2     7.29       306        177        0          169.248    10233      -1400      1917       21457      0          13877.54   61.685     15602      6450      
1863.4     7.25       306        125        0          169.281    10234      -1400      1915       21459      0          13877.91   61.691     15603      6452      
1863.6     7.22       306        77         0          169.3      10235      -1400      1912       21463      0          13878.31   61.696     15604      6453      
1863.8     7.25       312        34         0          169.318    10236      -1400      1907       21463      0          13878.69   61.704     15606      6452      
1864       7.32       320        1          0          169.338    10237      -1400      1905       21464      0          13879.06   61.711     15608      6453      
1864.2     7.38       320        1          0          169.358    10238      -1400      1909       21467      0          13879.43   61.719     15610      6452      
1864.4     7.41       320        1          0          169.394    10240      -1400      1915       21469      0          13879.8    61.726     15612      6452      
1864.6     7.43       320        1          0          169.417    10241      -1400      1919       21470      0          13880.19   61.733     15614      6453      
1864.8     7.45       320        1          0          169.42     10241      -1400      1914       21472      0          13880.55   61.741     15616      6451      
1865       7.46       320        1          0          169.445    10242      -1400      1915       21476      0          13880.93   61.745     15617      6452      
1865.2     7.47       320        1          0          169.473    10244      -1400      1909       21476      0          13881.32   61.751     15618      6453      
1865.4     7.69       347        761        0          169.492    10245      -1400      1905       21478      0          13881.69   61.757     15620      6452      
1865.6     7.88       354        1496       0          169.52     10246      -1400      1906       21482      0          13882.07   61.763     15621      6452      
1865.8     8.01       354        932        0          169.55     10247      -1400      1907       21482      0          13882.46   61.77      15623      6451      
1866       8.09       354        579        0          169.564    10248      -1400      1908       21486      0          13882.83   61.776     15624      6452      
1866.2     8.15       354        357        0          169.573    10248      -1400      1909       21492      0          13883.18   61.781     15626      6452      
1866.4     8.2        354        208        0          169.605    10250      -1400      1910       21494      0          13883.57   61.788     15627      6453      
1866.6     8.17       347        110        0          169.606    10250      -1400      1908       21496      0          13883.96   61.792     15628      6452      
