~Version
 VERS              .         2.0                           : CWLS LOG ASCII STANDARD - VERSION 2.0
 WRAP              .         NO                            : ONE LINE PER DEPTH STEP
 DLM               .         SPACE                         : DELIMITING CHARACTER(SPACE TAB OR COMMA)
~Well Information
#_______________________________________________________________________________
#
#PARAMETER_NAME    .UNIT     VALUE                         : DESCRIPTION
#_______________________________________________________________________________
STRT               .M        2647.6                        : First reference value
STOP               .M        2755.199839                   : Last reference value
STEP               .M        0.1999997                     : Step increment
NULL               .         -9999                         : Missing value
COMP               .                                       : Company
WELL               .         616                           : Well name
FLD                .                                       : Field
LOC                .                                       : Location
CNTY               .                                       : County
STAT               .                                       : State
CTRY               .                                       : Country
SRVC               .                                       : Service Company
DATE               .                                       : Date
API                .                                       : API number
PROJECT_UPGRADE_TIME .         2021-03-18T21_24_50           : 
group              .         Good                          : 
~Parameter Information Block
#_______________________________________________________________________________
#
#PARAMETER_NAME    .UNIT     VALUE                         : DESCRIPTION
#_______________________________________________________________________________
SET                .         D7024_D                       : 
OTHER              .         Kedr.exe версия 2.1.2.32      : 
OTHER_10           .         TM.GRD = 0.00404*TM$.UE + 0.07: 
OTHER_11           .         MN.ATM = (6.33279e-006*TM.GRD + 0.02401)*(MN$.UE + 2.72*TM.GRD + -2018): 
OTHER_12           .         GK.MKR/H = GK$.UE / 43.5489 + 0: 
OTHER_13           .         RES.SM = 0.00476*CRES.UE - 1.51709: 
OTHER_14           .         PL.GSM3 = 0 + 0 * (PL.UE / 1) +  0 * (PL.UE / 1)^2: 
OTHER_15           .         Постоянная времени ГГП = 6 сек: 
OTHER_16           .         Постоянная времени ГК = 6 сек : 
OTHER_2            .         KedrData.dll версия 3.2.2.14  : 
OTHER_3            .         LasInf.dll версия 3.2.0.13    : 
OTHER_4            .         Драйвер версия 1.2.0.5        : 
OTHER_5            .         Прибор_ КСА-M1                : 
OTHER_6            .         Номер прибора_ 155+р204       : 
OTHER_7            .         Режим_ КСА-М1 + ГГП + Резистивиметр: 
OTHER_8            .         Форма_ 223\2                  : 
OTHER_9            .         Тарировки_                    : 
PROJECT_UPGRADE_TIME .         2021-03-18T21_24_50           : 
TLFamily_CRES      .                                       : 
TLFamily_DEPT      .         Measured Depth                : 
TLFamily_GK        .         Gamma Ray                     : 
TLFamily_GK$       .                                       : 
TLFamily_LM        .         Casing Collar locator         : 
TLFamily_METKA     .                                       : 
TLFamily_MN        .                                       : 
TLFamily_MN$       .                                       : 
TLFamily_PL        .                                       : 
TLFamily_PL_2      .                                       : 
TLFamily_RCOR      .                                       : 
TLFamily_RES       .         Mud Resistivity               : 
TLFamily_SPID      .         Spontaneous Potential         : 
TLFamily_STD       .                                       : 
TLFamily_TIME      .         Time                          : 
TLFamily_TM        .         Temperature                   : 
TLFamily_TM$       .         Temperature                   : 
TLFamily_VGD       .         Gas Volume                    : 
group              .         prim                          : 
~Curve Information
#_______________________________________________________________________________
#
#LOGNAME           .UNIT     LOG_ID                        : DESCRIPTION
#_______________________________________________________________________________
DEPT               .M                                      : 1 Глубина, м -    0.0 см 
CRES               .UE                                     : 9 Проводимость, усл.ед. -  222.0 см 
GK                 .MKR/H                                  : 16 Гамма-активность, мкр./ч -  106.0 см 
GK$                .UE                                     : 13 Гамма-активность, усл.ед. -  106.0 см 
LM                 .                                       : 11 Локатор муфт,  -   16.0 см 
METKA              .                                       : 3 Метки,  -    0.0 см 
MN                 .ATM                                    : 15 Давление, атм. -  160.0 см 
MN$                .UE                                     : 7 Давление, усл.ед. -  160.0 см 
PL                 .UE                                     : 10 Плотность, усл.ед. -  270.0 см 
PL_2               .GSM3                                   : 18 Плотность, г./см3 -  270.0 см 
RCOR               .CM/KM                                  : 5 Коррекция по ролику, см/км -    0.0 см 
RES                .SM                                     : 17 Проводимость,  -  222.0 см 
SPID               .M/H                                    : 2 Скорость, м/час -    0.0 см 
STD                .                                       : 12 Приток,  -  170.0 см 
TIME               .S                                      : 4 Время, сек -    0.0 см 
TM                 .GRD                                    : 14 Температура, °C -  180.0 см 
TM$                .UE                                     : 6 Температура, усл.ед. -  180.0 см 
VGD                .                                       : 8 Влагомер,  -  170.0 см 
~Ascii
# ...
2672.199963 1247       9.48       404        103        0          370.13     17054      14         0          0          4.4186     580        11078      15992.63   56.492     13966      6700      
2672.399963 1250       9.38       404        117        0          370.997    17089      14         0          0          4.4329     580        11074      15993.91   56.485     13964      6697      
2672.599962 1251       9.16       379        118        0          371.276    17101      14         0          0          4.4392     580        11072      15995.23   56.478     13962      6698      
2672.799962 1249       8.93       379        116        0          370.921    17086      14         0          0          4.4282     580        11071      15996.5    56.476     13962      6701      
2672.999962 1250       8.9        395        95         0          370.021    17049      14         0          0          4.4313     510        11069      15997.83   56.472     13961      6701      
2673.199962 1247       8.98       395        86         0          369.246    17018      14         0          0          4.417      557        11067      15999.1    56.471     13961      6701      
2673.399961 1247       8.97       387        107        0          368.848    17001      14         0          0          4.4186     510        11064      16000.44   56.462     13958      6703      
2673.599961 1247       8.93       387        119        0          369.243    17018      14         0          0          4.4186     580        11062      16001.71   56.46      13958      6700      
2673.799961 1248       8.91       387        125        0          368.192    16974      14         0          0          4.4234     540        11063      16003.01   56.456     13957      6700      
2673.99996 1247       8.9        387        128        0          367.727    16955      14         0          0          4.417      533        11064      16004.31   56.452     13956      6700      
2674.19996 1247       9.21       419        101        0          367.748    16956      14         0          0          4.4186     580        11066      16005.58   56.448     13955      6700      
2674.39996 1245       9.41       419        101        0          367.897    16962      14         0          0          4.4107     522        11066      16006.91   56.444     13954      6701      
2674.599959 1247       9.45       413        81         0          369.708    17037      14         0          0          4.4166     534        11066      16008.18   56.436     13952      6700      
2674.799959 1249       9.47       413        73         0          369.874    17044      14         0          0          4.4282     533        11066      16009.52   56.434     13952      6700      
2674.999959 1249       9.34       399        70         0          371.49     17110      14         0          0          4.4274     580        11066      16010.79   56.429     13950      6701      
2675.199959 1250       9.25       399        82         0          370.959    17088      14         0          0          4.4345     522        11065      16012.12   56.428     13950      6701      
2675.399958 1249       9.3        407        100        0          371.553    17113      14         0          0          4.4266     580        11064      16013.39   56.423     13949      6701      
2675.599958 1246       9.35       413        141        0          370.637    17075      14         0          0          4.4122     580        11062      16014.66   56.416     13947      6702      
2675.799958 1244       9.52       422        136        0          371.62     17115      14         0          0          4.4027     580        11061      16015.95   56.409     13945      6701      
2675.999957 1245       9.56       413        86         0          370.982    17089      14         0          0          4.4098     580        11060      16017.24   56.404     13944      6702      
2676.199957 1249       9.53       413        162        0          370.677    17077      14         0          0          4.4266     580        11060      16018.53   56.396     13942      6703      
2676.399957 1248       9.49       410        218        0          369.34     17022      14         0          0          4.4234     580        11061      16019.78   56.392     13941      6702      
2676.599956 1247       9.42       407        104        0          368.695    16995      14         0          0          4.4186     533        11061      16021.12   56.388     13940      6703      
2676.799956 1247       9.41       413        98         0          368.685    16995      14         0          0          4.4186     580        11061      16022.41   56.384     13939      6703      
2676.999956 1245       9.46       414        103        0          369.496    17028      14         0          0          4.4107     580        11061      16023.67   56.38      13938      6701      
2677.199956 1245       9.5        417        163        0          368.531    16989      14         0          0          4.4112     580        11059      16024.94   56.374     13937      6700      
2677.399955 1246       9.53       417        141        0          368.249    16977      14         0          0          4.4139     545        11056      16026.28   56.363     13934      6701      
2677.599955 1247       9.55       416        125        0          367.856    16961      14         0          0          4.4186     521        11054      16027.61   56.355     13932      6701      
2677.799955 1248       9.55       416        83         0          368.293    16979      14         0          0          4.4242     520        11053      16028.93   56.355     13932      6705      
2677.999954 1247       9.6        428        102        0          369.493    17029      14         0          0          4.4166     557        11052      16030.21   56.347     13930      6705      
2678.199954 1249       9.71       428        91         0          370.08     17053      14         0          0          4.4272     580        11051      16031.48   56.334     13927      6704      
2678.399954 1246       9.76       426        96         0          371.247    17101      14         0          0          4.4147     568        11047      16032.8    56.327     13925      6705      
2678.599954 1248       9.77       426        126        0          371.325    17104      14         0          0          4.4233     520        11043      16034.12   56.319     13923      6703      
2678.799953 1245       9.88       438        116        0          371.666    17118      14         0          0          4.4107     557        11038      16035.4    56.307     13920      6702      
2678.999953 1248       9.96       438        85         0          370.96     17089      14         0          0          4.4213     580        11034      16036.74   56.303     13919      6704      
2679.199953 1248       10.37      476        79         0          371.763    17122      14         0          0          4.4218     580        11029      16038      56.301     13918      6703      
2679.399952 1249       10.65      476        94         0          370.896    17086      14         0          0          4.4282     580        11027      16039.34   56.295     13917      6702      
2679.599952 1245       10.81      478        166        0          370.903    17087      14         0          0          4.4091     580        11030      16040.68   56.291     13916      6704      
2679.799952 1245       10.89      478        156        0          370.22     17059      14         0          0          4.4115     450        11032      16042.01   56.287     13915      6704      
2679.999951 1243       10.76      460        100        0          369.368    17024      14         0          0          4.3996     580        11033      16043.28   56.287     13915      6704      
2680.199951 1243       10.66      460        59         1          368.705    16997      14         0          0          4.3996     510        11034      16045.2    56.283     13914      6704      
