~Version
 VERS              .         2.0                           : CWLS LOG ASCII STANDARD - VERSION 2.0
 WRAP              .         NO                            : ONE LINE PER DEPTH STEP
 DLM               .         SPACE                         : DELIMITING CHARACTER(SPACE TAB OR COMMA)
~Well Information
#_______________________________________________________________________________
#
#PARAMETER_NAME    .UNIT     VALUE                         : DESCRIPTION
#_______________________________________________________________________________
STRT               .M        19.65                         : First reference value
STOP               .M        2766.85                       : Last reference value
STEP               .M        0.2                           : Step increment
NULL               .         -9999                         : Missing value
COMP               .                                       : Company
WELL               .         616                           : Well name
FLD                .                                       : Field
LOC                .                                       : Location
CNTY               .                                       : County
STAT               .                                       : State
CTRY               .                                       : Country
SRVC               .                                       : Service Company
DATE               .                                       : Date
API                .                                       : API number
PROJECT_UPGRADE_TIME .         2021-03-18T21_24_50           : 
group              .         Good                          : 
~Parameter Information Block
#_______________________________________________________________________________
#
#PARAMETER_NAME    .UNIT     VALUE                         : DESCRIPTION
#_______________________________________________________________________________
SET                .         D7016_D_2                     : 
NPR                .         155                           : Номер прибора
OTHER              .         Kedr.exe версия 2.1.2.32      : 
OTHER_10           .         TM.GRD = 0.00404*TM$.UE + 0.07: 
OTHER_11           .         MN.ATM = (6.33279e-006*TM.GRD + 0.02401)*(MN$.UE + 2.72*TM.GRD + -2018): 
OTHER_12           .         GK.MKR/H = GK$.UE / 43.5489 + 0: 
OTHER_13           .         RES.SM = 0.00476*CRES.UE - 1.51709: 
OTHER_14           .         PL.GSM3 = 0 + 0 * (PL.UE / 1) +  0 * (PL.UE / 1)^2: 
OTHER_15           .         Постоянная времени ГГП = 6 сек: 
OTHER_16           .         Постоянная времени ГК = 6 сек : 
OTHER_2            .         KedrData.dll версия 3.2.2.14  : 
OTHER_3            .         LasInf.dll версия 3.2.0.13    : 
OTHER_4            .         Драйвер версия 1.2.0.5        : 
OTHER_5            .         Прибор_ КСА-M1                : 
OTHER_6            .         Номер прибора_ 155+р204       : 
OTHER_7            .         Режим_ КСА-М1 + ГГП + Резистивиметр: 
OTHER_8            .         Форма_ 223\2                  : 
OTHER_9            .         Тарировки_                    : 
PR                 .         КСА-Т7 М1                     : Тип прибора
PROJECT_UPGRADE_TIME .         2021-03-18T21_24_50           : 
PRTY               .         ПП-223_2                      : Номер партии
SRV                .         ЦКРС                          : Заказчик
SRVC               .         Лузин  А.Б.                   : Начальник партии
TLFamily_DEPT      .         Measured Depth                : 
TLFamily_LM        .         Casing Collar locator         : 
TLFamily_MN        .                                       : 
TLFamily_SPID      .         Spontaneous Potential         : 
TLFamily_TM        .         Temperature                   : 
group              .         second                        : 
~Curve Information
#_______________________________________________________________________________
#
#LOGNAME           .UNIT     LOG_ID                        : DESCRIPTION
#_______________________________________________________________________________
DEPT               .M                                      : Depth curve 
LM                 .е.ацп                                  : Локация муфт 
MN                 .атм                                    : Манометрия, атм 
SPID               .м/ч                                    : Скорость записи,м/час 
TM                 .град.С                                 : Термометрия,град.С 
~Ascii
# ...
370.05     693.995    34.16      1642       21.61     
370.25     498.996    34.19      1660       21.61     
370.45     339.997    34.19      1660       21.62     
370.65     220.999    34.22      1660       21.63     
370.85     186.001    34.24      1660       21.63     
371.05     233.002    34.26      1660       21.64     
371.25     328.998    34.27      1660.001   21.64     
371.45     243.999    34.3       1714       21.65     
371.65     191.999    34.31      1729.998   21.66     
371.85     154.001    34.33      1660       21.66     
372.05     205        34.36      1660       21.67     
372.25     215        34.37      1660.001   21.68     
372.45     233        34.39      1701.001   21.68     
372.65     253.034    34.41      1729.998   21.69     
372.85     1663.979   34.43      1668       21.69     
373.05     794.995    34.44      1660       21.7      
373.25     598        34.46      1660       21.7      
373.45     615.996    34.48      1660       21.7      
373.65     444.997    34.49      1660       21.71     
373.85     321.999    34.52      1660       21.72     
374.05     275.999    34.53      1660       21.72     
374.25     216        34.55      1660       21.73     
374.45     198        34.58      1660       21.73     
374.65     211        34.59      1660       21.74     
374.85     209        34.61      1660.001   21.75     
375.05     199        34.62      1704.001   21.75     
375.25     217.999    34.65      1729.998   21.76     
375.45     192.999    34.68      1660       21.77     
375.65     163        34.68      1660       21.78     
375.85     172        34.71      1660.001   21.78     
376.05     155.001    34.73      1691.001   21.79     
376.25     184        34.74      1729.999   21.8      
376.45     186.001    34.76      1677       21.8      
376.65     221.001    34.77      1660       21.81     
376.85     259.003    34.8       1660       21.81     
377.05     392.999    34.81      1660       21.82     
377.25     368.001    34.84      1660       21.83     
377.45     390.001    34.86      1659.999   21.83     
377.65     421.11     34.88      1615       21.84     
377.85     4865.955   34.9       1600       21.85     
378.05     3068.977   34.91      1607.001   21.85     
378.25     2154.985   34.93      1660       21.85     
378.45     1566.99    34.95      1660       21.86     
378.65     1156.995   34.96      1660       21.86     
378.85     966.999    34.99      1660       21.88     
379.05     939.003    35         1660       21.88     
379.25     1056.998   35.02      1660       21.89     
379.45     969.997    35.03      1660       21.9      
379.65     840.999    35.06      1660       21.91     
379.85     796.008    35.09      1660       21.91     
380.05     1100.993   35.1       1660       21.92     
380.25     827.995    35.12      1660.001   21.93     
380.45     625.995    35.13      1695       21.94     
380.65     411.997    35.15      1684.999   21.94     
380.85     291.002    35.18      1659.998   21.95     
381.05     373.997    35.19      1600.002   21.95     
381.25     239        35.22      1660       21.96     
381.45     222.001    35.23      1659.999   21.96     
381.65     245        35.26      1627.999   21.97     
381.85     249.999    35.28      1600.001   21.97     
382.05     225        35.3       1653       21.97     
382.25     235.002    35.32      1660       21.98     
382.45     295.034    35.35      1660       21.99     
382.65     1667.986   35.35      1660       21.99     
382.85     1119.99    35.38      1660       22        
383.05     725.994    35.38      1660       22.01     
383.25     477.994    35.41      1660       22.01     
383.45     242.999    35.43      1660       22.02     
383.65     196.999    35.45      1660       22.02     
383.85     171        35.45      1660.001   22.02     
384.05     179        35.48      1695.001   22.03     
384.25     174        35.51      1729.999   22.03     
384.45     173.999    35.52      1676       22.04     
384.65     142        35.54      1660       22.05     
384.85     136.001    35.57      1660       22.05     
385.05     160.001    35.57      1660       22.06     
385.25     189.999    35.6       1660       22.06     
385.45     152.999    35.62      1660       22.07     
385.65     122        35.63      1660       22.07     
385.85     118.002    35.65      1660.002   22.08     
386.05     187.001    35.67      1730       22.08     
386.25     207        35.7       1729.999   22.09     
386.45     198.999    35.7       1708.999   22.1      
386.65     158        35.73      1660       22.1      
386.85     151        35.76      1660       22.11     
387.05     134.002    35.77      1659.998   22.11     
387.25     219.005    35.79      1600       22.12     
387.45     410        35.82      1614.001   22.12     
387.65     411.002    35.82      1660       22.13     
387.85     486.001    35.85      1660       22.13     
388.05     506.001    35.87      1659.999   22.14     
388.25     558.997    35.83      1607       22.15     
388.45     445.003    35.88      1607.001   22.15     
388.65     547.999    35.92      1660       22.15     
388.85     517.159    35.94      1659.999   22.16     
389.05     6744.94    35.95      1627.001   22.17     
389.25     4384.966   35.98      1648       22.17     
389.45     3041.963   35.99      1660       22.17     
389.65     1604.986   36.01      1660       22.18     
389.85     1052.991   36.04      1659.997   22.19     
390.05     692.991    36.05      1547.003   22.19     
390.25     357.998    36.07      1660       22.2      
390.45     299        36.09      1660       22.2      
390.65     292.999    36.11      1660       22.21     
390.85     248        36.14      1660       22.22     
391.05     228.999    36.14      1660.002   22.22     
391.25     201        36.18      1726       22.23     
391.45     198.001    36.19      1725.998   22.24     
391.65     227        36.21      1660       22.24     
391.85     242.002    36.22      1659.999   22.24     
392.05     309.017    36.25      1625.002   22.25     
392.25     967.01     36.26      1699.001   22.25     
392.45     1372.98    36.28      1729.997   22.26     
392.65     581.996    36.31      1604.001   22.26     
392.85     409.999    36.31      1660       22.27     
393.05     356.998    36.34      1660       22.27     
393.25     277.999    36.36      1660       22.28     
393.45     255.001    36.37      1659.998   22.28     
393.65     308.998    36.4       1600       22.29     
393.85     216        36.41      1613.001   22.29     
394.05     203.001    36.43      1639.999   22.3      
394.25     230.999    36.44      1600.001   22.3      
394.45     209.999    36.47      1642       22.31     
394.65     174        36.49      1660       22.31     
394.85     174        36.5       1660       22.32     
395.05     156        36.53      1660       22.32     
395.25     148        36.54      1660       22.33     
395.45     166        36.57      1659.999   22.33     
395.65     160        36.58      1618       22.34     
395.85     169        36.6       1600.001   22.34     
396.05     166        36.63      1652.999   22.35     
396.25     176.999    36.63      1600.001   22.36     
396.45     149        36.66      1630.001   22.36     
396.65     141.001    36.68      1660       22.37     
396.85     161        36.69      1660       22.38     
397.05     153        36.71      1660       22.38     
397.25     161.999    36.73      1660       22.39     
397.45     139.001    36.75      1660       22.39     
397.65     162.001    36.76      1660       22.4      
397.85     186        36.79      1660       22.4      
398.05     175        36.81      1660       22.4      
398.25     174        36.82      1660       22.41     
398.45     167        36.85      1660       22.42     
398.65     180        36.86      1660       22.43     
398.85     197        36.88      1659.999   22.43     
399.05     208.999    36.89      1621.001   22.44     
