~Version
 VERS              .         2.0                           : CWLS LOG ASCII STANDARD - VERSION 2.0
 WRAP              .         NO                            : ONE LINE PER DEPTH STEP
 DLM               .         SPACE                         : DELIMITING CHARACTER(SPACE TAB OR COMMA)
~Well Information
#_______________________________________________________________________________
#
#PARAMETER_NAME    .UNIT     VALUE                         : DESCRIPTION
#_______________________________________________________________________________
STRT               .M        21.55                         : First reference value
STOP               .M        2764.75                       : Last reference value
STEP               .M        0.2                           : Step increment
NULL               .         -9999                         : Missing value
COMP               .                                       : Company
WELL               .         616                           : Well name
FLD                .                                       : Field
LOC                .                                       : Location
CNTY               .                                       : County
STAT               .                                       : State
CTRY               .                                       : Country
SRVC               .                                       : Service Company
DATE               .                                       : Date
API                .                                       : API number
PROJECT_UPGRADE_TIME .         2021-03-18T21_24_50           : 
group              .         Good                          : 
~Parameter Information Block
#_______________________________________________________________________________
#
#PARAMETER_NAME    .UNIT     VALUE                         : DESCRIPTION
#_______________________________________________________________________________
SET                .         D7028_D_2                     : 
NPR                .         155                           : Номер прибора
OTHER              .         Kedr.exe версия 2.1.2.32      : 
OTHER_10           .         TM.GRD = 0.00404*TM$.UE + 0.07: 
OTHER_11           .         MN.ATM = (6.33279e-006*TM.GRD + 0.02401)*(MN$.UE + 2.72*TM.GRD + -2018): 
OTHER_12           .         GK.MKR/H = GK$.UE / 43.5489 + 0: 
OTHER_13           .         RES.SM = 0.00476*CRES.UE - 1.51709: 
OTHER_14           .         PL.GSM3 = 0 + 0 * (PL.UE / 1) +  0 * (PL.UE / 1)^2: 
OTHER_15           .         Постоянная времени ГГП = 6 сек: 
OTHER_16           .         Постоянная времени ГК = 6 сек : 
OTHER_2            .         KedrData.dll версия 3.2.2.14  : 
OTHER_3            .         LasInf.dll версия 3.2.0.13    : 
OTHER_4            .         Драйвер версия 1.2.0.5        : 
OTHER_5            .         Прибор_ КСА-M1                : 
OTHER_6            .         Номер прибора_ 155+р204       : 
OTHER_7            .         Режим_ КСА-М1 + ГГП + Резистивиметр: 
OTHER_8            .         Форма_ 223\2                  : 
OTHER_9            .         Тарировки_                    : 
PR                 .         КСА-Т7 М1                     : Тип прибора
PROJECT_UPGRADE_TIME .         2021-03-18T21_24_50           : 
PRTY               .         ПП-223_2                      : Номер партии
SRV                .         ЦКРС                          : Заказчик
SRVC               .         Лузин  А.Б.                   : Начальник партии
TLFamily_DEPT      .         Measured Depth                : 
TLFamily_LM        .         Casing Collar locator         : 
TLFamily_MN        .                                       : 
TLFamily_SPID      .         Spontaneous Potential         : 
TLFamily_TM        .         Temperature                   : 
group              .         second                        : 
~Curve Information
#_______________________________________________________________________________
#
#LOGNAME           .UNIT     LOG_ID                        : DESCRIPTION
#_______________________________________________________________________________
DEPT               .M                                      : Depth curve 
LM                 .е.ацп                                  : Локация муфт 
MN                 .атм                                    : Манометрия, атм 
SPID               .м/ч                                    : Скорость записи,м/час 
TM                 .град.С                                 : Термометрия,град.С 
~Ascii
# ...
1101.95    1848.011   99.19      -1790.003  37.21     
1102.15    1993.998   99.19      -1832.999  37.21     
1102.35    1967.017   99.22      -1816.998  37.21     
1102.55    2188.989   99.24      -1790      37.21     
1102.75    2049.056   99.24      -1790      37.22     
1102.95    2777.934   99.28      -1790      37.23     
1103.15    1920.028   99.29      -1790.004  37.24     
1103.35    2282.004   99.31      -1845.001  37.24     
1103.55    2336.974   99.33      -1860      37.24     
1103.75    2002.003   99.36      -1860      37.24     
1103.95    2044.972   99.37      -1860      37.25     
1104.15    1687.043   99.38      -1860      37.25     
1104.35    2241.073   99.39      -1859.995  37.25     
1104.55    3190.124   99.41      -1799.999  37.26     
1104.75    4809.181   99.42      -1790.005  37.26     
1104.95    7162.592   99.46      -1856      37.27     
1105.15    1857.021   99.47      -1859.995  37.27     
1105.35    2136.034   99.47      -1790.005  37.28     
1105.55    2582.948   99.51      -1860      37.28     
1105.75    1911.039   99.52      -1855.995  37.28     
1105.95    2423.992   99.52      -1790      37.29     
1106.15    2316.968   99.54      -1790.001  37.29     
1106.35    1905.999   99.56      -1801.003  37.3      
1106.55    1888.032   99.57      -1845.996  37.3      
1106.75    2299.972   99.61      -1790.001  37.31     
1106.95    1939.004   99.64      -1808.004  37.31     
1107.15    1990.024   99.64      -1860      37.32     
1107.35    2303.989   99.64      -1859.998  37.32     
1107.55    2160.005   99.69      -1837.996  37.33     
1107.75    2229.982   99.69      -1790.002  37.33     
1107.95    2002.983   99.72      -1814.004  37.34     
1108.15    1778.994   99.72      -1859.998  37.34     
1108.35    1705.021   99.74      -1831.999  37.35     
1108.55    1978.009   99.75      -1819.003  37.35     
1108.75    2096.004   99.77      -1859.997  37.35     
1108.95    2147.992   99.79      -1824.997  37.36     
1109.15    2049.988   99.81      -1790      37.36     
1109.35    1900.007   99.84      -1790      37.37     
1109.55    1988.989   99.84      -1790.003  37.37     
1109.75    1849.007   99.86      -1834.002  37.38     
1109.95    1938.007   99.9       -1859.996  37.38     
1110.15    2031.991   99.9       -1810.998  37.38     
1110.35    1912.992   99.91      -1790      37.39     
1110.55    1804.016   99.95      -1790.004  37.39     
1110.75    2010.001   99.96      -1846.001  37.4      
1110.95    2025.992   99.96      -1860      37.4      
1111.15    1926.995   99.98      -1859.998  37.41     
1111.35    1858.001   99.99      -1830.997  37.41     
1111.55    1866.009   100.02     -1790      37.41     
1111.75    1980.002   100.04     -1790.003  37.41     
1111.95    2011.984   100.04     -1825.003  37.42     
1112.15    1802.996   100.06     -1860      37.42     
1112.35    1753.006   100.1      -1859.997  37.43     
1112.55    1827.015   100.09     -1821.001  37.43     
1112.75    2024.006   100.13     -1832.002  37.44     
1112.95    2097.033   100.12     -1859.997  37.44     
1113.15    2516.973   100.15     -1815.998  37.45     
1113.35    2165.967   100.17     -1790      37.45     
1113.55    1742.008   100.18     -1790.004  37.45     
1113.75    1846.992   100.19     -1840.002  37.46     
1113.95    1741.045   100.21     -1860      37.46     
1114.15    2324       100.23     -1860      37.47     
1114.35    2323.969   100.25     -1859.992  37.48     
1114.55    1926.985   100.26     -1756.998  37.48     
1114.75    1728.99    100.29     -1730.004  37.48     
1114.95    1600.035   100.29     -1786      37.49     
1115.15    2050.988   100.32     -1790.005  37.49     
1115.35    1902.068   100.34     -1856      37.49     
1115.55    2774.042   100.34     -1859.995  37.5      
1115.75    3311.13    100.36     -1794.005  37.5      
1115.95    4983.215   100.36     -1859.999  37.51     
1116.15    7754.569   100.4      -1852.995  37.51     
1116.35    2210.976   100.41     -1790      37.51     
1116.55    1906.01    100.41     -1790      37.52     
1116.75    2038.994   100.44     -1790.001  37.53     
1116.95    1958.02    100.46     -1807.004  37.53     
1117.15    2211.005   100.51     -1860      37.53     
1117.35    2273.972   100.49     -1859.998  37.53     
1117.55    1918.035   100.54     -1838.996  37.54     
1117.75    2363.99    100.56     -1790.002  37.55     
1117.95    2231.998   100.54     -1814.002  37.55     
1118.15    2211.978   100.58     -1833.997  37.55     
1118.35    1933.992   100.57     -1790      37.56     
1118.55    1829.014   100.62     -1790.002  37.56     
1118.75    2007.005   100.63     -1822.003  37.57     
1118.95    2072.012   100.62     -1860      37.57     
1119.15    2226.988   100.64     -1860      37.58     
1119.35    2077.025   100.67     -1860      37.58     
1119.55    2393.936   100.7      -1860      37.59     
1119.75    1579.023   100.72     -1859.997  37.59     
1119.95    1879.994   100.72     -1822.997  37.6      
1120.15    1798.043   100.74     -1790      37.6      
1120.35    2353.054   100.77     -1790.003  37.6      
1120.55    3042.946   100.79     -1834.002  37.61     
1120.75    2351.954   100.8      -1860      37.61     
1120.95    1765.002   100.81     -1859.996  37.62     
1121.15    1787.063   100.85     -1807.999  37.62     
1121.35    2589.01    100.86     -1790.002  37.62     
1121.55    2716.953   100.87     -1811.002  37.63     
1121.75    2114.981   100.9      -1836.996  37.63     
1121.95    1876.991   100.89     -1790      37.64     
1122.15    1762.006   100.9      -1790      37.64     
1122.35    1832.977   100.92     -1790.003  37.65     
1122.55    1537.003   100.95     -1823.003  37.65     
1122.75    1572       100.98     -1859.997  37.65     
1122.95    1576.029   100.98     -1825      37.66     
1123.15    1946.017   100.99     -1829.002  37.66     
1123.35    2167.003   101.02     -1860      37.67     
1123.55    2211.081   101.03     -1859.997  37.67     
1123.75    3240.925   101.05     -1815.998  37.68     
1123.95    2286.967   101.08     -1790.004  37.68     
1124.15    1871.001   101.09     -1837.998  37.68     
1124.35    1890.008   101.11     -1810.998  37.68     
1124.55    1998.041   101.13     -1790.004  37.69     
1124.75    2520.943   101.14     -1843.001  37.69     
1124.95    1797.023   101.15     -1860      37.69     
1125.15    2088.003   101.16     -1859.996  37.7      
1125.35    2122.983   101.19     -1803.999  37.7      
1125.55    1905.006   101.2      -1790      37.7      
1125.75    1976.019   101.22     -1790.005  37.71     
1125.95    2221.995   101.23     -1849.001  37.71     
1126.15    2152.017   101.25     -1860      37.72     
1126.35    2365.96    101.27     -1859.995  37.73     
1126.55    1857.056   101.3      -1794.005  37.73     
1126.75    2573.1     101.32     -1859.995  37.73     
1126.95    3849.166   101.31     -1790      37.74     
1127.15    5961.27    101.33     -1790.005  37.74     
1127.35    9396.466   101.35     -1855.995  37.74     
1127.55    2594.942   101.4      -1790.001  37.74     
1127.75    1863.007   101.4      -1797.004  37.75     
1127.95    1947.04    101.4      -1848.995  37.76     
1128.15    2457.981   101.43     -1790.001  37.76     
1128.35    2209.94    101.45     -1801.004  37.76     
1128.55    1447.026   101.45     -1845.996  37.76     
1128.75    1781.023   101.48     -1790.001  37.77     
1128.95    2072.015   101.48     -1808.003  37.77     
1129.15    2258.991   101.5      -1841.996  37.78     
1129.35    2141.064   101.53     -1790.002  37.78     
1129.55    2953.932   101.53     -1813.002  37.79     
1129.75    2094.993   101.56     -1836.996  37.79     
1129.95    2006.033   101.58     -1790      37.8      
1130.15    2427.071   101.6      -1790.002  37.8      
1130.35    3322.128   101.61     -1820.001  37.8      
1130.55    4948.824   101.63     -1828.997  37.81     
1130.75    2714.993   101.66     -1790.003  37.81     
1130.95    2624.006   101.68     -1829.002  37.82     
