~Version
 VERS              .         2.0                           : CWLS LOG ASCII STANDARD - VERSION 2.0
 WRAP              .         NO                            : ONE LINE PER DEPTH STEP
 DLM               .         SPACE                         : DELIMITING CHARACTER(SPACE TAB OR COMMA)
~Well Information
#_______________________________________________________________________________
#
#PARAMETER_NAME    .UNIT     VALUE                         : DESCRIPTION
#_______________________________________________________________________________
STRT               .M        2669.6                        : First reference value
STOP               .M        2776.19984                    : Last reference value
STEP               .M        0.1999997                     : Step increment
NULL               .         -9999                         : Missing value
COMP               .                                       : Company
WELL               .         616                           : Well name
FLD                .                                       : Field
LOC                .                                       : Location
CNTY               .                                       : County
STAT               .                                       : State
CTRY               .                                       : Country
SRVC               .                                       : Service Company
DATE               .                                       : Date
API                .                                       : API number
PROJECT_UPGRADE_TIME .         2021-03-18T21_24_50           : 
group              .         Good                          : 
~Parameter Information Block
#_______________________________________________________________________________
#
#PARAMETER_NAME    .UNIT     VALUE                         : DESCRIPTION
#_______________________________________________________________________________
SET                .         D1805_D                       : 
OTHER              .         Программное обеспечение станции MONITOR-386EX 25/12/99 15_08_10   BGF V52 22/08/01 16_56_30   3.1_SNGF___BGF_N_092049: 
OTHER_10           .         Тарировки_                    : 
OTHER_11           .         TM.GRD = 0.00403*TM$.UE + -1.07: 
OTHER_12           .         MN.ATM = (9.34907e-006*TM.GRD + 0.02171)*(MN$.UE + -7.93*TM.GRD + -1787): 
OTHER_13           .         GK.MKR/H = LM. / 42.4676      : 
OTHER_14           .         GK.FLT = 0.1*GK.MKR/H[-1] + (1-0.1)*GK.MKR/H[0]: 
OTHER_2            .         Kedr.exe версия 3.4.2.51      : 
OTHER_3            .         KedrData.dll версия 3.4.2.24  : 
OTHER_4            .         Драйвер версия 2.1.1.3        : 
OTHER_5            .         Мнемоники версия 3.3 S        : 
OTHER_6            .         Прибор_ КСА-Т4                : 
OTHER_7            .         Номер прибора_ 03             : 
OTHER_8            .         Режим_ КСА-Т4                 : 
OTHER_9            .         Форма_ КВА.                   : 
PROJECT_UPGRADE_TIME .         2021-03-18T21_24_49           : 
TLFamily_DEPT      .         Measured Depth                : 
TLFamily_GK        .         Gamma Ray                     : 
TLFamily_GK$       .                                       : 
TLFamily_GK_2      .         Gamma Ray                     : 
TLFamily_LM        .         Casing Collar locator         : 
TLFamily_METKA     .                                       : 
TLFamily_MN        .                                       : 
TLFamily_MN$       .                                       : 
TLFamily_RCOR      .                                       : 
TLFamily_SPID      .         Spontaneous Potential         : 
TLFamily_TENS      .         Cable Tension                 : 
TLFamily_TIME      .         Time                          : 
TLFamily_TM        .         Temperature                   : 
TLFamily_TM$       .         Temperature                   : 
group              .         prim                          : 
~Curve Information
#_______________________________________________________________________________
#
#LOGNAME           .UNIT     LOG_ID                        : DESCRIPTION
#_______________________________________________________________________________
DEPT               .M                                      : 1 Глубина, м -    0.0 см 
GK                 .MKR/H                                  : 13 Гамма-активность, мкр./ч -  110.0 см 
GK$                .UE                                     : 10 Гамма-активность, усл.ед. -  110.0 см 
GK_2               .FLT                                    : 14 Гамма-активность фильтрованная, мкр./ч -  110.0 см 
LM                 .                                       : 9 Локатор муфт,  -   20.0 см 
METKA              .                                       : 3 Метки,  -    0.0 см 
MN                 .ATM                                    : 12 Давление, атм. -  160.0 см 
MN$                .UE                                     : 8 Давление, усл.ед. -  160.0 см 
RCOR               .CM/KM                                  : 5 Коррекция по ролику, см/км -    0.0 см 
SPID               .M/H                                    : 2 Скорость, м/час -    0.0 см 
TENS               .T                                      : 6 Натяжение кабеля, т -    0.0 см 
TIME               .S                                      : 4 Время, сек -    0.0 см 
TM                 .GRD                                    : 11 Температура, °C -  170.0 см 
TM$                .UE                                     : 7 Температура, усл.ед. -  170.0 см 
~Ascii
# ...
2763.19986 9.02       383        9.02       181        0          336.576    17377      -682       554        0.03       3849.11    60.519     15283     
2763.399859 8.81       374        8.81       170        0          336.22     17361      -682       549        0.01       3850.51    60.662     15318     
2763.599859 8.81       374        8.81       200        0          336.179    17359      -682       548        0.01       3851.8     60.785     15349     
2763.799859 9.21       391        9.19       220        0          335.48     17328      -682       552        0.02       3853.13    60.891     15375     
2763.999858 9.07       385        9.12       172        0          336.297    17365      -682       542        0.03       3854.47    60.984     15398     
2764.199858 9.04       384        9.04       230        0          335.796    17342      -682       551        0.02       3855.75    61.056     15416     
2764.399858 8.44       359        8.66       213        0          336.452    17372      -682       544        0.01       3857.09    61.161     15442     
2764.599857 8.15       346        8.16       196        0          336.942    17394      -682       546        0.01       3858.44    61.277     15471     
2764.799857 8.19       348        8.19       206        0          335.134    17313      -682       537        0.01       3859.77    61.372     15494     
2764.999857 8.19       348        8.19       170        0          336.152    17359      -682       529        0.01       3861.11    61.468     15518     
2765.199857 8.57       364        8.49       201        0          335.429    17327      -682       535        0.01       3862.45    61.57      15543     
2765.399856 8.57       364        8.57       211        0          336.625    17380      -682       534        0.01       3863.74    61.622     15556     
2765.599856 8.95       380        8.92       246        0          337.19     17406      -682       539        0.01       3865.08    61.697     15575     
2765.799856 8.95       380        8.95       241        0          336.217    17362      -682       543        0.01       3866.42    61.778     15595     
2765.999855 9          382        8.99       209        0          336.254    17364      -682       542        0.01       3867.73    61.871     15618     
2766.199855 9          382        9          213        0          335.52     17331      -682       534        0.01       3869.03    61.945     15636     
2766.399855 9.02       383        9.02       230        0          336.483    17375      -682       538        0.01       3870.45    61.983     15646     
2766.599854 9.02       383        9.02       235        0          336.589    17380      -682       537        0.01       3871.8     62.087     15672     
2766.799854 9.16       389        9.16       214        0          336.991    17398      -682       539        -0         3873.13    62.174     15693     
2766.999854 8.28       351        8.6        224        0          336.495    17376      -682       537        0.01       3874.41    62.259     15715     
2767.199854 8.1        344        8.12       228        0          335.29     17322      -682       534        0.01       3875.78    62.33      15732     
2767.399853 7.68       326        7.83       212        0          336.146    17360      -682       540        0.01       3877.08    62.352     15738     
2767.599853 7.68       326        7.68       261        0          336.239    17364      -682       537        0.01       3878.39    62.397     15749     
2767.799853 7.84       333        7.82       217        0          336.988    17398      -682       534        -0.01      3879.77    62.412     15752     
2767.999852 7.84       333        7.84       221        0          337.154    17405      -682       536        0          3881.11    62.455     15763     
2768.199852 6.92       294        7.08       217        0          335.855    17347      -682       537        0.01       3882.45    62.513     15778     
2768.399852 6.92       294        6.93       214        0          336.91     17395      -682       532        0.01       3883.75    62.544     15785     
2768.599852 7.09       301        7.08       235        0          335.534    17333      -682       541        0.01       3885.08    62.573     15792     
2768.799851 7.09       301        7.09       191        0          336.848    17392      -682       540        -0         3886.41    62.602     15800     
2768.999851 7.21       306        7.2        208        0          337.669    17429      -682       547        0.01       3887.74    62.656     15813     
2769.199851 7.21       306        7.21       213        0          336.476    17375      -682       535        0.01       3889.09    62.682     15819     
2769.39985 7.28       309        7.27       228        0          336.514    17377      -682       530        0.01       3890.42    62.711     15827     
2769.59985 7.44       316        7.38       218        0          335.684    17340      -682       539        0.02       3891.78    62.763     15840     
2769.79985 8.27       351        8.23       200        0          336.884    17394      -682       534        0.01       3893.12    62.826     15855     
2769.999849 8.27       351        8.26       220        2          336.692    17385      -682       545        0.01       3894.46    62.92      15878     
2770.199849 8.43       358        8.42       2819       0          337.329    17414      -688       538        0          3896.14    62.975     15892     
2770.399849 7.49       318        7.83       1555       0          336.962    17398      -688       536        0.01       3897.49    63.063     15914     
2770.599849 7.49       318        7.5        440        0          335.543    17334      -688       540        0.01       3898.88    63.168     15940     
2770.799848 8.03       341        7.83       259        0          336.603    17382      -688       532        0.01       3900.16    63.253     15961     
2770.999848 8.03       341        8.02       247        0          336.266    17367      -688       542        0.01       3901.5     63.333     15981     
2771.199848 9.58       407        9.51       212        0          337.293    17413      -688       535        0.01       3902.85    63.423     16003     
2771.399847 9.58       407        9.58       242        0          337.51     17423      -688       536        0.01       3904.13    63.499     16022     
2771.599847 9.23       392        9.25       237        0          336.754    17389      -688       538        0.01       3905.47    63.571     16040     
2771.799847 8.7        369        8.9        209        0          337.471    17422      -688       536        0.01       3906.81    63.724     16078     
2771.999846 8.17       347        8.2        228        0          337.352    17417      -688       534        0.01       3908.14    63.825     16103     
2772.199846 7.98       339        8.05       245        0          337.392    17419      -688       527        0.01       3909.49    63.905     16123     
2772.399846 7.61       323        7.62       232        0          335.966    17355      -688       535        0.01       3910.83    64.019     16151     
2772.599845 7.65       325        7.64       218        0          337.084    17405      -688       533        0.01       3912.11    64.11      16174     
2772.799845 7.65       325        7.65       253        0          337.896    17442      -688       544        0.01       3913.45    64.221     16201     
2772.999845 8.29       352        8.08       253        0          336.959    17400      -688       537        0.01       3914.79    64.309     16223     
2773.199845 8.29       352        8.28       265        0          337.056    17404      -688       545        0.01       3916.06    64.383     16241     
2773.399844 9.21       391        9.1        310        0          335.998    17357      -688       548        0.01       3917.41    64.494     16269     
