~Version
 VERS              .         2.0                           : CWLS LOG ASCII STANDARD - VERSION 2.0
 WRAP              .         NO                            : ONE LINE PER DEPTH STEP
 DLM               .         SPACE                         : DELIMITING CHARACTER(SPACE TAB OR COMMA)
~Well Information
#_______________________________________________________________________________
#
#PARAMETER_NAME    .UNIT     VALUE                         : DESCRIPTION
#_______________________________________________________________________________
STRT               .M        2338.9                        : First reference value
STOP               .M        2799.2                        : Last reference value
STEP               .M        0.1                           : Step increment
NULL               .         -9999                         : Missing value
COMP               .                                       : Company
WELL               .         616                           : Well name
FLD                .                                       : Field
LOC                .                                       : Location
CNTY               .                                       : County
STAT               .                                       : State
CTRY               .                                       : Country
SRVC               .                                       : Service Company
DATE               .                                       : Date
API                .                                       : API number
PROJECT_UPGRADE_TIME .         2021-03-18T21_24_50           : 
group              .         Good                          : 
~Parameter Information Block
#_______________________________________________________________________________
#
#PARAMETER_NAME    .UNIT     VALUE                         : DESCRIPTION
#_______________________________________________________________________________
SET                .         D2662_D                       : 
OTHER              .         Программное обеспечение станции MONITOR-386EX 25/12/99 15_08_10   BGF V50 26/12/00 07_26_01   3.1_SNGF___BGF_N_092085: 
OTHER_10           .         Тарировки_                    : 
OTHER_11           .         IK1.GRD = IK1$.UE - -5.96     : 
OTHER_12           .         IK5.GRD = IK5$.UE - -0.74     : 
OTHER_13           .         IK4.GRD = IK4$.UE - -0.9      : 
OTHER_14           .         IK3.GRD = IK3$.UE - -1.28     : 
OTHER_15           .         IK2.GRD = IK2$.UE - -3.55     : 
OTHER_2            .         Kedr.exe версия 3.3.2.32      : 
OTHER_3            .         KedrData.dll версия 3.3.2.17  : 
OTHER_4            .         Драйвер версия 2.1.0.4        : 
OTHER_5            .         Мнемоники версия 3.3 S        : 
OTHER_6            .         Прибор_ Викиз                 : 
OTHER_7            .         Номер прибора_ 0006012        : 
OTHER_8            .         Режим_ Викиз                  : 
OTHER_9            .         Форма_ ВИКИЗ                  : 
PROJECT_UPGRADE_TIME .         2021-03-18T21_24_49           : 
TLFamily_DEPT      .         Measured Depth                : 
TLFamily_IK1       .         Extra Shallow Resistivity     : 
TLFamily_IK1$      .         Extra Shallow Resistivity     : 
TLFamily_IK2       .         Shallow Resistivity           : 
TLFamily_IK2$      .         Shallow Resistivity           : 
TLFamily_IK3       .         Medium Resistivity            : 
TLFamily_IK3$      .         Medium Resistivity            : 
TLFamily_IK4       .         Deep Resistivity              : 
TLFamily_IK4$      .         Deep Resistivity              : 
TLFamily_IK5       .         Resistivity 20                : 
TLFamily_IK5$      .         Resistivity 20                : 
TLFamily_METKA     .                                       : 
TLFamily_PS        .         Spontaneous Potential         : 
TLFamily_RCOR      .                                       : 
TLFamily_SPID      .         Spontaneous Potential         : 
TLFamily_TENS      .         Cable Tension                 : 
TLFamily_TIME      .         Time                          : 
group              .         prim                          : 
~Curve Information
#_______________________________________________________________________________
#
#LOGNAME           .UNIT     LOG_ID                        : DESCRIPTION
#_______________________________________________________________________________
DEPT               .M                                      : 1 Глубина, м -    0.0 см 
IK1                .GRD                                    : 13 3Ф0.5, град. -  226.0 см 
IK1$               .UE                                     : 7 3Ф0.5, усл.ед. -  226.0 см 
IK2                .GRD                                    : 17 3Ф0.7, град. -  240.0 см 
IK2$               .UE                                     : 11 3Ф0.7, усл.ед. -  240.0 см 
IK3                .GRD                                    : 16 3Ф1.0, град. -  260.0 см 
IK3$               .UE                                     : 10 3Ф1.0, усл.ед. -  260.0 см 
IK4                .GRD                                    : 15 3Ф1.4, град. -  288.0 см 
IK4$               .UE                                     : 9 3Ф1.4, усл.ед. -  288.0 см 
IK5                .GRD                                    : 14 3Ф2.0, град. -  328.0 см 
IK5$               .UE                                     : 8 3Ф2.0, усл.ед. -  328.0 см 
METKA              .                                       : 3 Метки,  -    0.0 см 
PS                 .mV                                     : 12 ПС, мВ -  372.0 см 
RCOR               .CM/KM                                  : 5 Коррекция по ролику, см/км -    0.0 см 
SPID               .M/H                                    : 2 Скорость, м/час -    0.0 см 
TENS               .T                                      : 6 Натяжение кабеля, т -    0.0 см 
TIME               .S                                      : 4 Время, сек -    0.0 см 
~Ascii
# ...
2704.4     17.08      11.12      16.27      12.72      15.93      14.65      15.43      14.53      15.29      14.55      0          326.42     -285       -1797      0          34768.64  
2704.5     16.95      10.99      16.16      12.61      15.88      14.6       15.37      14.47      15.25      14.51      0          326.32     -285       -1799      0          34768.46  
2704.6     16.85      10.89      16.1       12.55      15.86      14.58      15.36      14.46      15.23      14.49      0          326.51     -285       -1801      0          34768.27  
2704.7     16.84      10.88      16.1       12.55      15.88      14.6       15.38      14.48      15.24      14.5       0          326.83     -285       -1804      0          34768.06  
2704.8     16.9       10.94      16.17      12.62      15.93      14.65      15.44      14.54      15.28      14.54      0          327.04     -285       -1807      0          34767.86  
2704.9     16.99      11.03      16.23      12.68      15.99      14.71      15.52      14.62      15.33      14.59      0          327.33     -285       -1812      0          34767.68  
2705       17.07      11.11      16.29      12.74      16.04      14.76      15.58      14.68      15.4       14.66      0          327.37     -285       -1801      0          34767.46  
2705.1     17.14      11.18      16.34      12.79      16.08      14.8       15.63      14.73      15.46      14.72      0          327.61     -285       -1785      0          34767.27  
2705.2     17.29      11.33      16.44      12.89      16.14      14.86      15.69      14.79      15.52      14.78      0          327.63     -285       -1770      0          34767.07  
2705.3     17.4       11.44      16.51      12.96      16.2       14.92      15.74      14.84      15.58      14.84      0          327.66     -285       -1780      0          34766.88  
2705.4     17.45      11.49      16.56      13.01      16.24      14.96      15.77      14.87      15.65      14.91      0          327.91     -285       -1794      0          34766.67  
2705.5     17.51      11.55      16.62      13.07      16.3       15.02      15.81      14.91      15.7       14.96      0          327.9      -285       -1805      0          34766.48  
2705.6     17.55      11.59      16.69      13.14      16.38      15.1       15.87      14.97      15.77      15.03      0          328.14     -285       -1809      0          34766.28  
2705.7     17.7       11.74      16.8       13.25      16.48      15.2       15.96      15.06      15.84      15.1       0          328.17     -285       -1815      0          34766.07  
2705.8     17.83      11.87      16.93      13.38      16.59      15.31      16.03      15.13      15.91      15.17      0          328.36     -285       -1821      0          34765.87  
2705.9     17.9       11.94      16.98      13.43      16.64      15.36      16.09      15.19      15.97      15.23      0          328.46     -285       -1828      0          34765.67  
2706       17.97      12.01      17.01      13.46      16.69      15.41      16.15      15.25      16.02      15.28      0          328.33     -285       -1838      0          34765.48  
2706.1     17.99      12.03      17.04      13.49      16.74      15.46      16.2       15.3       16.07      15.33      0          328.33     -285       -1838      0          34765.26  
2706.2     18.02      12.06      17.07      13.52      16.8       15.52      16.28      15.38      16.13      15.39      0          328.48     -285       -1833      0          34765.07  
2706.3     18.11      12.15      17.16      13.61      16.92      15.64      16.39      15.49      16.22      15.48      0          328.65     -285       -1826      0          34764.89  
2706.4     18.32      12.36      17.36      13.81      17.07      15.79      16.51      15.61      16.3       15.56      0          328.6      -285       -1817      0          34764.68  
2706.5     18.5       12.54      17.52      13.97      17.21      15.93      16.64      15.74      16.38      15.64      0          328.59     -285       -1808      0          34764.5   
2706.6     18.63      12.67      17.6       14.05      17.31      16.03      16.74      15.84      16.46      15.72      0          328.32     -285       -1795      0          34764.3   
2706.7     18.69      12.73      17.63      14.08      17.36      16.08      16.79      15.89      16.53      15.79      0          328.12     -285       -1795      0          34764.09  
2706.8     18.75      12.79      17.68      14.13      17.4       16.12      16.82      15.92      16.56      15.82      0          327.96     -285       -1796      0          34763.9   
2706.9     18.81      12.85      17.71      14.16      17.43      16.15      16.84      15.94      16.6       15.86      0          327.82     -285       -1798      0          34763.71  
2707       18.87      12.91      17.74      14.19      17.45      16.17      16.86      15.96      16.62      15.88      0          327.63     -285       -1800      0          34763.52  
2707.1     18.86      12.9       17.74      14.19      17.44      16.16      16.85      15.95      16.63      15.89      0          327.47     -285       -1803      0          34763.3   
2707.2     18.82      12.86      17.7       14.15      17.42      16.14      16.84      15.94      16.63      15.89      0          327.18     -285       -1805      0          34763.11  
2707.3     18.81      12.85      17.69      14.14      17.41      16.13      16.83      15.93      16.64      15.9       0          326.97     -285       -1809      0          34762.93  
2707.4     18.81      12.85      17.67      14.12      17.42      16.14      16.83      15.93      16.66      15.92      0          326.98     -285       -1814      0          34762.73  
2707.5     18.79      12.83      17.64      14.09      17.42      16.14      16.85      15.95      16.69      15.95      0          326.88     -285       -1820      0          34762.53  
2707.6     18.76      12.8       17.61      14.06      17.42      16.14      16.86      15.96      16.73      15.99      0          326.87     -285       -1827      0          34762.33  
2707.7     18.74      12.78      17.61      14.06      17.45      16.17      16.9       16         16.78      16.04      0          326.76     -285       -1836      0          34762.15  
2707.8     18.79      12.83      17.68      14.13      17.51      16.23      16.97      16.07      16.84      16.1       0          326.67     -285       -1829      0          34761.92  
2707.9     18.87      12.91      17.75      14.2       17.57      16.29      17.05      16.15      16.91      16.17      0          326.47     -285       -1822      0          34761.73  
2708       19.02      13.06      17.86      14.31      17.67      16.39      17.13      16.23      17         16.26      0          326.26     -285       -1813      0          34761.54  
2708.1     19.1       13.14      17.92      14.37      17.72      16.44      17.17      16.27      17.05      16.31      0          325.94     -285       -1800      0          34761.32  
2708.2     19.08      13.12      17.91      14.36      17.73      16.45      17.19      16.29      17.09      16.35      1          325.75     -285       -1786      0          34761.13  
2708.3     19.08      13.12      17.91      14.36      17.74      16.46      17.2       16.3       17.12      16.38      0          325.41     -285       -1774      0          34760.95  
2708.4     19.1       13.14      17.93      14.38      17.77      16.49      17.21      16.31      17.14      16.4       0          325.31     -285       -1770      0          34760.73  
2708.5     19.13      13.17      17.98      14.43      17.8       16.52      17.24      16.34      17.16      16.42      0          325.14     -285       -1765      0          34760.54  
2708.6     19.15      13.19      18.01      14.46      17.84      16.56      17.26      16.36      17.16      16.42      0          324.81     -285       -1767      0          34760.36  
