~Version
 VERS              .         2.0                           : CWLS LOG ASCII STANDARD - VERSION 2.0
 WRAP              .         NO                            : ONE LINE PER DEPTH STEP
 DLM               .         SPACE                         : DELIMITING CHARACTER(SPACE TAB OR COMMA)
~Well Information
#_______________________________________________________________________________
#
#PARAMETER_NAME    .UNIT     VALUE                         : DESCRIPTION
#_______________________________________________________________________________
STRT               .M        11                            : First reference value
STOP               .M        2775.8                        : Last reference value
STEP               .M        0.2                           : Step increment
NULL               .         -9999                         : Missing value
COMP               .                                       : Company
WELL               .         616                           : Well name
FLD                .                                       : Field
LOC                .                                       : Location
CNTY               .                                       : County
STAT               .                                       : State
CTRY               .                                       : Country
SRVC               .                                       : Service Company
DATE               .                                       : Date
API                .                                       : API number
PROJECT_UPGRADE_TIME .         2021-03-18T21_24_50           : 
group              .         Good                          : 
~Parameter Information Block
#_______________________________________________________________________________
#
#PARAMETER_NAME    .UNIT     VALUE                         : DESCRIPTION
#_______________________________________________________________________________
SET                .         D1813_D                       : 
OTHER              .         Программное обеспечение станции MONITOR-386EX 25/12/99 15_08_10   BGF V52 22/08/01 16_56_30   3.1_SNGF___BGF_N_092049: 
OTHER_10           .         Тарировки_                    : 
OTHER_11           .         TM.GRD = 0.00403*TM$.UE + -1.07: 
OTHER_12           .         MN.ATM = (9.34907e-006*TM.GRD + 0.02171)*(MN$.UE + -7.93*TM.GRD + -1787): 
OTHER_13           .         GK.MKR/H = LM. / 42.4676      : 
OTHER_14           .         GK.FLT = 0.1*GK.MKR/H[-1] + (1-0.1)*GK.MKR/H[0]: 
OTHER_2            .         Kedr.exe версия 3.4.2.51      : 
OTHER_3            .         KedrData.dll версия 3.4.2.24  : 
OTHER_4            .         Драйвер версия 2.1.1.3        : 
OTHER_5            .         Мнемоники версия 3.3 S        : 
OTHER_6            .         Прибор_ КСА-Т4                : 
OTHER_7            .         Номер прибора_ 03             : 
OTHER_8            .         Режим_ КСА-Т4                 : 
OTHER_9            .         Форма_ КВА.                   : 
PROJECT_UPGRADE_TIME .         2021-03-18T21_24_49           : 
TLFamily_DEPT      .         Measured Depth                : 
TLFamily_GK        .         Gamma Ray                     : 
TLFamily_GK$       .                                       : 
TLFamily_GK_2      .         Gamma Ray                     : 
TLFamily_LM        .         Casing Collar locator         : 
TLFamily_METKA     .                                       : 
TLFamily_MN        .                                       : 
TLFamily_MN$       .                                       : 
TLFamily_RCOR      .                                       : 
TLFamily_SPID      .         Spontaneous Potential         : 
TLFamily_TENS      .         Cable Tension                 : 
TLFamily_TIME      .         Time                          : 
TLFamily_TM        .         Temperature                   : 
TLFamily_TM$       .         Temperature                   : 
group              .         prim                          : 
~Curve Information
#_______________________________________________________________________________
#
#LOGNAME           .UNIT     LOG_ID                        : DESCRIPTION
#_______________________________________________________________________________
DEPT               .M                                      : 1 Глубина, м -    0.0 см 
GK                 .MKR/H                                  : 13 Гамма-активность, мкр./ч -  110.0 см 
GK$                .UE                                     : 10 Гамма-активность, усл.ед. -  110.0 см 
GK_2               .FLT                                    : 14 Гамма-активность фильтрованная, мкр./ч -  110.0 см 
LM                 .                                       : 9 Локатор муфт,  -   20.0 см 
METKA              .                                       : 3 Метки,  -    0.0 см 
MN                 .ATM                                    : 12 Давление, атм. -  160.0 см 
MN$                .UE                                     : 8 Давление, усл.ед. -  160.0 см 
RCOR               .CM/KM                                  : 5 Коррекция по ролику, см/км -    0.0 см 
SPID               .M/H                                    : 2 Скорость, м/час -    0.0 см 
TENS               .T                                      : 6 Натяжение кабеля, т -    0.0 см 
TIME               .S                                      : 4 Время, сек -    0.0 см 
TM                 .GRD                                    : 11 Температура, °C -  170.0 см 
TM$                .UE                                     : 7 Температура, усл.ед. -  170.0 см 
~Ascii
# ...
1477.4     10.13      430        10.1       1705       0          131.555    8087       -1228      -2454      0.01       9822.02    44.749     11370     
1477.6     10.13      430        10.06      1293       0          131.578    8088       -1228      -2450      0.01       9821.72    44.764     11373     
1477.8     10.05      427        9.98       1409       0          131.605    8089       -1228      -2450      0.01       9821.43    44.767     11374     
1478       9.87       419        9.87       1675       0          131.622    8090       -1228      -2452      0.01       9821.13    44.77      11375     
1478.2     9.87       419        9.87       1675       0          131.639    8091       -1228      -2454      0.01       9820.83    44.773     11375     
1478.4     9.87       419        9.86       1247       0          131.656    8092       -1228      -2456      0.01       9820.55    44.776     11376     
1478.6     9.87       419        9.86       1353       0          131.673    8092       -1228      -2452      0.01       9820.26    44.78      11377     
1478.8     9.87       419        9.86       1409       0          131.69     8093       -1228      -2448      0.01       9819.96    44.786     11379     
1479       9.87       419        9.85       1409       0          131.707    8094       -1228      -2449      0.01       9819.67    44.79      11380     
1479.2     9.87       419        9.82       1505       0          131.724    8095       -1228      -2453      0.01       9819.37    44.793     11380     
1479.4     9.87       419        9.75       1556       0          131.741    8096       -1228      -2449      0.01       9819.05    44.796     11381     
1479.6     9.7        412        9.61       1725       0          131.758    8096       -1228      -2445      0.01       9818.78    44.799     11382     
1479.8     9.44       401        9.44       1344       0          131.775    8097       -1228      -2444      0.01       9818.5     44.803     11383     
1480       9.44       401        9.44       1344       2          131.793    8098       -1227      -2446      0.01       9818.19    44.806     11384     
1480.2     9.44       401        9.44       1284       0          131.809    8099       -1226      -2447      0.01       9817.87    44.811     11385     
1480.4     9.44       401        9.44       1334       0          131.826    8100       -1226      -2448      0.01       9817.59    44.816     11386     
1480.6     9.44       401        9.43       1187       0          131.844    8100       -1226      -2450      0.01       9817.29    44.816     11386     
1480.8     9.44       401        9.42       1164       0          131.861    8101       -1226      -2447      0.01       9816.99    44.822     11388     
1481       9.44       401        9.4        1349       0          131.879    8102       -1226      -2443      0.01       9816.71    44.826     11389     
1481.2     9.35       397        9.34       1349       0          131.895    8103       -1226      -2440      0.01       9816.42    44.831     11390     
1481.4     9.32       396        9.32       1187       0          131.911    8104       -1226      -2446      0.01       9816.12    44.836     11391     
1481.6     9.32       396        9.32       1288       0          131.93     8104       -1226      -2442      0.01       9815.83    44.836     11391     
1481.8     9.32       396        9.32       1314       0          131.948    8105       -1226      -2437      0.01       9815.54    44.842     11393     
1482       9.32       396        9.31       1314       0          131.964    8106       -1226      -2432      0.01       9815.24    44.846     11394     
1482.2     9.32       396        9.29       1247       0          131.981    8107       -1226      -2427      0.01       9814.95    44.849     11394     
1482.4     9.32       396        9.25       1377       0          131.999    8108       -1226      -2432      0.01       9814.66    44.853     11395     
1482.6     9.32       396        9.16       1380       0          132.016    8108       -1226      -2438      0.01       9814.38    44.86      11397     
1482.8     9.23       392        8.98       1123       0          132.032    8109       -1226      -2437      0.01       9814.08    44.863     11398     
1483       8.61       366        8.59       1123       0          132.05     8110       -1226      -2433      0.01       9813.78    44.866     11399     
1483.2     8.55       363        8.55       1218       0          132.051    8110       -1226      -2434      0.01       9813.5     44.869     11399     
1483.4     8.55       363        8.55       1226       0          132.062    8111       -1226      -2434      0.01       9813.17    44.872     11400     
1483.6     8.55       363        8.55       1197       0          132.086    8112       -1226      -2434      0.01       9812.89    44.876     11401     
1483.8     8.55       363        8.55       1225       0          132.116    8113       -1226      -2435      0.01       9812.61    44.879     11402     
1484       8.55       363        8.55       1225       0          132.115    8113       -1226      -2435      0.01       9812.31    44.884     11403     
1484.2     8.55       363        8.56       1259       0          132.129    8114       -1226      -2435      0.01       9812       44.889     11404     
1484.4     8.55       363        8.57       1209       0          132.157    8115       -1226      -2430      0.01       9811.73    44.892     11405     
1484.6     8.58       364        8.6        1222       0          132.186    8116       -1226      -2432      0.01       9811.43    44.896     11406     
1484.8     8.64       367        8.64       1203       0          132.202    8117       -1226      -2438      0.01       9811.13    44.899     11407     
1485       8.64       367        8.64       1203       0          132.202    8117       -1226      -2441      0.01       9810.84    44.902     11407     
1485.2     8.64       367        8.64       1316       0          132.231    8118       -1226      -2436      0.01       9810.56    44.905     11408     
1485.4     8.64       367        8.64       1512       0          132.245    8119       -1226      -2436      0.01       9810.27    44.908     11409     
1485.6     8.64       367        8.64       1723       0          132.25     8119       -1226      -2437      0.01       9809.98    44.912     11410     
1485.8     8.64       367        8.63       1723       0          132.27     8120       -1226      -2437      0.01       9809.67    44.915     11411     
1486       8.64       367        8.62       1761       0          132.302    8122       -1226      -2438      0.01       9809.37    44.92      11412     
1486.2     8.64       367        8.58       2223       0          132.31     8122       -1226      -2438      0.01       9809.09    44.924     11413     
1486.4     8.57       364        8.52       2970       0          132.328    8123       -1226      -2439      0.02       9808.8     44.924     11413     
1486.6     8.43       358        8.43       3167       0          132.353    8124       -1226      -2436      0.03       9808.49    44.931     11415     
1486.8     8.43       358        8.43       2583       0          132.353    8124       -1226      -2435      0.02       9808.19    44.935     11416     
1487       8.43       358        8.43       2583       0          132.369    8125       -1226      -2440      0.01       9807.92    44.938     11416     
1487.2     8.43       358        8.42       2591       0          132.386    8126       -1226      -2447      0.01       9807.62    44.941     11417     
1487.4     8.43       358        8.41       3362       0          132.404    8126       -1226      -2443      0.01       9807.31    44.944     11418     
1487.6     8.43       358        8.39       4163       0          132.421    8127       -1226      -2442      0.01       9807.02    44.948     11419     
