~Version
 VERS              .         2.0                           : CWLS LOG ASCII STANDARD - VERSION 2.0
 WRAP              .         NO                            : ONE LINE PER DEPTH STEP
 DLM               .         SPACE                         : DELIMITING CHARACTER(SPACE TAB OR COMMA)
~Well Information
#_______________________________________________________________________________
#
#PARAMETER_NAME    .UNIT     VALUE                         : DESCRIPTION
#_______________________________________________________________________________
STRT               .M        46                            : First reference value
STOP               .M        2756.6                        : Last reference value
STEP               .M        0.2                           : Step increment
NULL               .         -9999                         : Missing value
COMP               .                                       : Company
WELL               .         616                           : Well name
FLD                .                                       : Field
LOC                .                                       : Location
CNTY               .                                       : County
STAT               .                                       : State
CTRY               .                                       : Country
SRVC               .                                       : Service Company
DATE               .                                       : Date
API                .                                       : API number
PROJECT_UPGRADE_TIME .         2021-03-18T21_24_50           : 
group              .         Good                          : 
~Parameter Information Block
#_______________________________________________________________________________
#
#PARAMETER_NAME    .UNIT     VALUE                         : DESCRIPTION
#_______________________________________________________________________________
SET                .         D4390_D                       : 
OTHER              .         Запись производится в присутствии: 
OTHER_10           .         Максимальная температура      : 
OTHER_100          .         GK.FLT = 0.1*GR.UR/H[-1] + (1-0.1)*GR.UR/H[0]: 
OTHER_11           .         Тип промывочной жидкости      : 
OTHER_12           .         Сопротивление ПЖ (Ом*м) при 20°C: 
OTHER_13           .         Плотность ПЖ(г/см3)           : 
OTHER_14           .         Вязкость ПЖ(с)                : 
OTHER_15           .         Водоотдача ПЖ(см3/30мин)      : 
OTHER_16           .         Уровень ПЖ                    : 
OTHER_17           .         Нефть ПЖ (%)                  : 
OTHER_18           .         Барит ПЖ (%)                  : 
OTHER_19           .         Гематит ПЖ (%)                : 
OTHER_2            .         Заказчик ННСН  ЦДНГ-1         : 
OTHER_20           .         КМЦ ПЖ (%)                    : 
OTHER_21           .         Разгазирование ПЖ (да,нет)    : 
OTHER_22           .         Подъемник                     : 
OTHER_23           .         Лаборатория                   : 
OTHER_24           .         Тип кабеля                    : 
OTHER_25           .         Длина кабеля (м)              : 
OTHER_26           .         Цена последней метки          : 
OTHER_27           .         Цена контрольной метки        : 
OTHER_28           .         Диаметр долота (мм)           : 
OTHER_29           .         Глубина бурения (м)           : 
OTHER_3            .         Площадь                       : 
OTHER_30           .         Искусственный забой (м)       : 
OTHER_31           .         Диаметр колонны (мм)          : 
OTHER_32           .         Толщина колонны (мм)          : 
OTHER_33           .         Башмак колонны (м)            : 
OTHER_34           .         Диаметр НКТ (мм)              : 
OTHER_35           .         Толщина НКТ (мм)              : 
OTHER_36           .         Воронка НКТ (м)               : 
OTHER_37           .         Дата цементожа                : 
OTHER_38           .         Тип, количество(т) и плотность цемента: 
OTHER_39           .         Интервалы перфорации (м)      : 
OTHER_4            .         Категория                     : 
OTHER_40           .         Направление, диаметр (мм)     : 
OTHER_41           .         Направление, глубина (м)      : 
OTHER_42           .         Кондуктор, диаметр (мм)       : 
OTHER_43           .         Кондуктор, глубина (м)        : 
OTHER_44           .         Техническая колонна, диаметр (мм): 
OTHER_45           .         Техническая колонна, глубина (м): 
OTHER_46           .         Эксплуатационная колонна, диаметр (мм): 
OTHER_47           .         Эксплуатационная колонна, глубина (м): 
OTHER_48           .         Программа Кедр-02 версия 3.4  : 
OTHER_49           .         Операционная система Windows NT 5.1 build 2600 Service Pack 2: 
OTHER_5            .         Назначение исследований       : 
OTHER_50           .         Программное обеспечение станции MONITOR-386EX 25/12/99 15_08_10   BGF V54 20/09/05 15_32_17   3.3__BGF_9030071: 
OTHER_51           .         Kedr.exe версия 3.4.2.74      : 
OTHER_52           .         KedrData.dll версия 3.4.2.29  : 
OTHER_53           .         Мнемоники версия 3.18 S       : 
OTHER_54           .         Драйвер версия 2.1.1.4        : 
OTHER_55           .         LasInf.dll 4.3.0.35           : 
OTHER_56           .         Прибор_ КСА-Т4                : 
OTHER_57           .         Номер прибора_ 160            : 
OTHER_58           .         Режим_ КСА-Т4                 : 
OTHER_59           .         Форма_ С.А.Б.                 : 
OTHER_6            .         Альтитуда стола ротора        : 
OTHER_60           .         Тарировки_                    : 
OTHER_61           .         <_techsia_sc_> Дата тарировки температуры 25.05.2010: 
OTHER_62           .         Ручной ввод коэффициентов     : 
OTHER_63           .         TM.DEGC = 0.00402*RTM.E.ACP + -0.994: 
OTHER_64           .         <_techsia_sc_> Дата тарировки давления 25.05.2010: 
OTHER_65           .         Ручной ввод коэффициентов     : 
OTHER_66           .         MN.ATM = (2.27521e-006*TM.DEGC + 0.02078)*(RMN.E.ACP + 6.2*TM.DEGC + -1688): 
OTHER_67           .         <_techsia_sc_> Дата тарировки ГК 25.05.2010: 
OTHER_68           .         Ручной ввод коэффициентов     : 
OTHER_69           .         GR.UR/H = RGR.IMP/MIN / 45.5144: 
OTHER_7            .         Вид исследований 3  6         : 
OTHER_70           .         GK.FLT = 0.1*GR.UR/H[-1] + (1-0.1)*GR.UR/H[0]: 
OTHER_71           .         <_techsia_sc_> Дата тарировки температуры 25.05.2010: 
OTHER_72           .         Ручной ввод коэффициентов     : 
OTHER_73           .         TM.DEGC = 0.00402*RTM.E.ACP + -0.994: 
OTHER_74           .         <_techsia_sc_> Дата тарировки давления 25.05.2010: 
OTHER_75           .         Ручной ввод коэффициентов     : 
OTHER_76           .         MN.ATM = (2.27521e-006*TM.DEGC + 0.02078)*(RMN.E.ACP + 6.2*TM.DEGC + -1688): 
OTHER_77           .         <_techsia_sc_> Дата тарировки ГК 25.05.2010: 
OTHER_78           .         Ручной ввод коэффициентов     : 
OTHER_79           .         GR.UR/H = RGR.IMP/MIN / 45.5144: 
OTHER_8            .         Начало бурения интервала каротажа: 
OTHER_80           .         GK.FLT = 0.1*GR.UR/H[-1] + (1-0.1)*GR.UR/H[0]: 
OTHER_81           .         <_techsia_sc_> Дата тарировки температуры 25.05.2010: 
OTHER_82           .         Ручной ввод коэффициентов     : 
OTHER_83           .         TM.DEGC = 0.00402*RTM.E.ACP + -0.994: 
OTHER_84           .         <_techsia_sc_> Дата тарировки давления 25.05.2010: 
OTHER_85           .         Ручной ввод коэффициентов     : 
OTHER_86           .         MN.ATM = (2.27521e-006*TM.DEGC + 0.02078)*(RMN.E.ACP + 6.2*TM.DEGC + -1688): 
OTHER_87           .         <_techsia_sc_> Дата тарировки ГК 25.05.2010: 
OTHER_88           .         Ручной ввод коэффициентов     : 
OTHER_89           .         GR.UR/H = RGR.IMP/MIN / 45.5144: 
OTHER_9            .         Окончание бурения интервала каротажа: 
OTHER_90           .         GK.FLT = 0.1*GR.UR/H[-1] + (1-0.1)*GR.UR/H[0]: 
OTHER_91           .         <_techsia_sc_> Дата тарировки температуры 25.05.2010: 
OTHER_92           .         Ручной ввод коэффициентов     : 
OTHER_93           .         TM.DEGC = 0.00402*RTM.E.ACP + -0.994: 
OTHER_94           .         <_techsia_sc_> Дата тарировки давления 25.05.2010: 
OTHER_95           .         Ручной ввод коэффициентов     : 
OTHER_96           .         MN.ATM = (2.27521e-006*TM.DEGC + 0.02078)*(RMN.E.ACP + 6.2*TM.DEGC + -1688): 
OTHER_97           .         <_techsia_sc_> Дата тарировки ГК 25.05.2010: 
OTHER_98           .         Ручной ввод коэффициентов     : 
OTHER_99           .         GR.UR/H = RGR.IMP/MIN / 45.5144: 
PROJECT_UPGRADE_TIME .         2021-03-18T21_24_50           : 
TLFamily_CCLC      .                                       : 
TLFamily_DEPT      .         Measured Depth                : 
TLFamily_GK        .         Gamma Ray                     : 
TLFamily_GR        .         Gamma Ray                     : 
TLFamily_METKA     .                                       : 
TLFamily_MN        .                                       : 
TLFamily_RCOR      .                                       : 
TLFamily_RGR       .                                       : 
TLFamily_RMN       .                                       : 
TLFamily_RTEN      .                                       : 
TLFamily_RTM       .                                       : 
TLFamily_SPEE      .         Cable Speed                   : 
TLFamily_TIME      .         Time                          : 
TLFamily_TM        .         Temperature                   : 
group              .         prim                          : 
~Curve Information
#_______________________________________________________________________________
#
#LOGNAME           .UNIT     LOG_ID                        : DESCRIPTION
#_______________________________________________________________________________
DEPT               .M                                      : 1 Глубина, м -    0.0 см 
CCLC               .E.ACP                                  : 9 Локатор муфт,  -   20.0 см 
GK                 .FLT                                    : 14 Гамма-активность фильтрованная, мкр./ч -  110.0 см 
GR                 .UR/H                                   : 13 Гамма-активность, мкр./ч -  110.0 см 
METKA              .CU                                     : 3 Метки,  -    0.0 см 
MN                 .ATM                                    : 12 Давление, атм. -  160.0 см 
RCOR               .CM/KM                                  : 5 Коррекция по ролику, см/км -    0.0 см 
RGR                .IMP/MIN                                : 10 Гамма-активность, усл.ед. -  110.0 см 
RMN                .E.ACP                                  : 8 Давление, усл.ед. -  160.0 см 
RTEN               .T                                      : 6 Натяжение кабеля, т -    0.0 см 
RTM                .E.ACP                                  : 7 Температура, усл.ед. -  170.0 см 
SPEE               .M/H                                    : 2 Скорость, м/час -    0.0 см 
TIME               .S                                      : 4 Время, сек -    0.0 см 
TM                 .DEGC                                   : 11 Температура, °C -  170.0 см 
~Ascii
# ...
2573.2     360        5.78       5.78       0          231.116    -1030      263        12309      0.18       17058      1573       5604.82    67.578    
2573.4     354        5.78       5.78       0          231.13     -1030      263        12310      0.18       17058      1575       5605.24    67.579    
2573.6     352        5.78       5.78       0          231.146    -1030      263        12311      0.18       17059      1574       5605.71    67.584    
2573.8     409        5.78       5.78       0          231.173    -1030      263        12312      0.18       17060      1574       5606.17    67.587    
2574       385        5.81       5.81       0          231.194    -1030      264        12313      0.18       17060      1574       5606.62    67.587    
2574.2     364        5.91       5.91       0          231.203    -1030      269        12313      0.18       17061      1574       5607.11    67.591    
2574.4     400        5.91       5.91       0          231.228    -1030      269        12315      0.18       17061      1573       5607.55    67.591    
2574.6     384        5.91       5.91       0          231.237    -1030      269        12315      0.18       17062      1574       5608.02    67.595    
2574.8     464        5.91       5.91       0          231.26     -1030      269        12316      0.18       17062      1575       5608.45    67.597    
2575       520        5.91       5.91       0          231.284    -1030      269        12317      0.18       17063      1578       5608.94    67.599    
2575.2     713        5.83       5.83       0          231.301    -1030      265        12318      0.18       17064      1580       5609.39    67.603    
2575.4     573        5.73       5.73       0          231.329    -1030      261        12319      0.18       17064      1576       5609.84    67.604    
2575.6     468        5.73       5.73       0          231.343    -1030      261        12320      0.18       17065      1575       5610.31    67.607    
2575.8     632        5.73       5.73       0          231.346    -1030      261        12320      0.18       17065      1577       5610.77    67.607    
2576       524        5.73       5.73       2          231.371    -1030      261        12321      0.18       17066      1577       5611.25    67.61     
2576.2     676        5.68       5.68       0          231.386    -1038      258        12322      0.18       17067      1577       5611.87    67.615    
2576.4     643        5.62       5.62       0          231.401    -1038      256        12323      0.18       17067      1577       5612.32    67.616    
2576.6     627        5.62       5.62       0          231.427    -1038      256        12324      0.18       17068      1579       5612.79    67.619    
2576.8     782        5.62       5.62       0          231.45     -1038      256        12325      0.18       17069      1580       5613.25    67.621    
2577       1074       5.62       5.62       0          231.457    -1038      256        12325      0.18       17069      1579       5613.73    67.623    
2577.2     917        5.63       5.63       0          231.483    -1038      256        12327      0.18       17070      1578       5614.17    67.627    
2577.4     691        6.5        6.5        0          231.493    -1038      296        12327      0.18       17070      1578       5614.6     67.628    
2577.6     575        6.5        6.5        0          231.515    -1038      296        12328      0.18       17071      1579       5615.08    67.633    
2577.8     600        6.5        6.5        0          231.549    -1038      296        12330      0.18       17072      1580       5615.53    67.635    
2578       713        6.5        6.5        0          231.557    -1038      296        12330      0.18       17073      1580       5616       67.639    
2578.2     861        6.5        6.5        0          231.58     -1038      296        12331      0.18       17073      1579       5616.45    67.641    
2578.4     769        6.49       6.49       0          231.606    -1038      296        12332      0.18       17075      1579       5616.91    67.646    
2578.6     654        6.46       6.46       0          231.632    -1038      294        12334      0.18       17075      1578       5617.37    67.647    
2578.8     568        6.46       6.46       0          231.643    -1038      294        12334      0.18       17076      1578       5617.84    67.652    
2579       489        6.46       6.46       0          231.661    -1038      294        12335      0.18       17077      1580       5618.3     67.656    
2579.2     602        6.46       6.46       0          231.668    -1038      294        12335      0.18       17077      1580       5618.73    67.657    
2579.4     1005       6.26       6.26       0          231.707    -1038      285        12337      0.18       17078      1580       5619.2     67.66     
2579.6     5368       5.65       5.65       0          231.718    -1038      257        12337      0.18       17079      1582       5619.66    67.663    
2579.8     3479       5.65       5.65       0          231.744    -1038      257        12339      0.18       17080      1583       5620.12    67.668    
2580       2300       5.65       5.65       0          231.77     -1038      257        12340      0.18       17081      1581       5620.59    67.673    
2580.2     1535       5.65       5.65       0          231.774    -1038      257        12340      0.18       17082      1581       5621.03    67.678    
2580.4     727        5.65       5.65       0          231.801    -1038      257        12341      0.18       17083      1583       5621.5     67.68     
2580.6     583        5.84       5.84       0          231.827    -1038      266        12343      0.18       17085      1585       5621.92    67.687    
2580.8     513        6.06       6.06       0          231.837    -1038      276        12343      0.18       17085      1584       5622.41    67.688    
2581       447        6.06       6.06       0          231.857    -1038      276        12344      0.18       17086      1583       5622.87    67.693    
2581.2     441        6.06       6.06       0          231.882    -1038      276        12345      0.18       17087      1584       5623.34    67.698    
2581.4     401        6.06       6.06       0          231.903    -1038      276        12346      0.18       17089      1584       5623.77    67.702    
2581.6     358        6.41       6.41       0          231.903    -1038      292        12346      0.18       17090      1583       5624.2     67.708    
2581.8     326        6.83       6.83       0          231.931    -1038      311        12347      0.18       17091      1584       5624.7     67.712    
2582       296        6.83       6.83       0          231.964    -1038      311        12349      0.18       17091      1585       5625.14    67.713    
2582.2     338        6.83       6.83       0          231.968    -1038      311        12349      0.18       17092      1584       5625.59    67.718    
2582.4     405        6.83       6.83       0          231.989    -1038      311        12350      0.18       17094      1585       5626.04    67.722    
2582.6     487        6.83       6.83       0          232        -1038      311        12350      0.18       17095      1586       5626.54    67.727    
2582.8     445        7.18       7.18       0          232.026    -1038      327        12352      0.18       17096      1584       5626.99    67.732    
2583       385        7.36       7.36       0          232.051    -1038      335        12353      0.18       17097      1583       5627.45    67.737    
2583.2     369        7.36       7.36       0          232.076    -1038      335        12354      0.18       17098      1582       5627.89    67.742    
2583.4     332        7.36       7.36       0          232.083    -1038      335        12354      0.18       17100      1583       5628.36    67.747    
