~Version
 VERS              .         2.0                           : CWLS LOG ASCII STANDARD - VERSION 2.0
 WRAP              .         NO                            : ONE LINE PER DEPTH STEP
 DLM               .         SPACE                         : DELIMITING CHARACTER(SPACE TAB OR COMMA)
~Well Information
#_______________________________________________________________________________
#
#PARAMETER_NAME    .UNIT     VALUE                         : DESCRIPTION
#_______________________________________________________________________________
STRT               .M        2667.8                        : First reference value
STOP               .M        2773.4                        : Last reference value
STEP               .M        0.1999997                     : Step increment
NULL               .         -9999                         : Missing value
COMP               .                                       : Company
WELL               .         616                           : Well name
FLD                .                                       : Field
LOC                .                                       : Location
CNTY               .                                       : County
STAT               .                                       : State
CTRY               .                                       : Country
SRVC               .                                       : Service Company
DATE               .                                       : Date
API                .                                       : API number
PROJECT_UPGRADE_TIME .         2021-03-18T21_24_50           : 
group              .         Good                          : 
~Parameter Information Block
#_______________________________________________________________________________
#
#PARAMETER_NAME    .UNIT     VALUE                         : DESCRIPTION
#_______________________________________________________________________________
SET                .         D0401_D                       : 
OTHER              .         Kedr.exe версия 2.1.2.32      : 
OTHER_10           .         TM.GRD = 0.00379*TM$.UE + 7.11: 
OTHER_11           .         MN.ATM = (8e-006*TM.GRD + 0.02)*(MN$.UE + -8*TM.GRD + -1800): 
OTHER_12           .         GK.MKR/H = GK$.UE / 57.17 + 0 : 
OTHER_2            .         KedrData.dll версия 3.2.2.14  : 
OTHER_3            .         LasInf.dll версия 3.2.0.13    : 
OTHER_4            .         Драйвер версия 1.2.0.4        : 
OTHER_5            .         Прибор_ АКП4_90               : 
OTHER_6            .         Номер прибора_ 56             : 
OTHER_7            .         Режим_ АКП4_90 - все каналы   : 
OTHER_8            .         Форма_ Г-1                    : 
OTHER_9            .         Тарировки_                    : 
PROJECT_UPGRADE_TIME .         2021-03-18T21_24_49           : 
TLFamily_DEPT      .         Measured Depth                : 
TLFamily_GK        .         Gamma Ray                     : 
TLFamily_GK$       .                                       : 
TLFamily_LM        .         Casing Collar locator         : 
TLFamily_METKA     .                                       : 
TLFamily_METKA_1   .                                       : 
TLFamily_MN        .                                       : 
TLFamily_MN$       .                                       : 
TLFamily_RCOR      .                                       : 
TLFamily_SPID      .         Spontaneous Potential         : 
TLFamily_TIME      .         Time                          : 
TLFamily_TM        .         Temperature                   : 
TLFamily_TM$       .         Temperature                   : 
group              .         second                        : 
~Curve Information
#_______________________________________________________________________________
#
#LOGNAME           .UNIT     LOG_ID                        : DESCRIPTION
#_______________________________________________________________________________
DEPT               .M                                      : 1 Глубина, м -    0.0 см 
GK                 .MKR/H                                  : 12 Гамма-активность, мкр./ч -   65.0 см 
GK$                .UE                                     : 9 Гамма-активность, усл.ед. -   65.0 см 
LM                 .                                       : 8 Локатор муфт,  -   30.0 см 
METKA              .                                       : 3 Метки,  -    0.0 см 
METKA_1            .                                       : 13 Маркеры - 65 см 
MN                 .ATM                                    : 11 Давление, атм. -  140.0 см 
MN$                .UE                                     : 7 Давление, усл.ед. -  140.0 см 
RCOR               .CM/KM                                  : 5 Коррекция по ролику, см/км -    0.0 см 
SPID               .M/H                                    : 2 Скорость, м/час -    0.0 см 
TIME               .S                                      : 4 Время, сек -    0.0 см 
TM                 .GRD                                    : 10 Температура, °C -  145.0 см 
TM$                .UE                                     : 6 Температура, усл.ед. -  145.0 см 
~Ascii
# ...
2723.8     5.2        301        489        0          0          264.444    15266      0          -260       5832.51    84.537     20429     
2724       5.13       298        419        0          0          264.382    15263      0          -320       5829.68    84.54      20430     
2724.2     5.04       296        457        0          0          264.429    15265      0          -260       5826.94    84.543     20431     
2724.4     4.92       288        934        0          0          264.505    15269      0          -260       5824.27    84.547     20432     
2724.6     4.99       266        508        0          0          264.484    15268      0          -260       5821.37    84.551     20433     
2724.8     5.06       297        469        0          0          264.484    15268      0          -213       5818.61    84.551     20433     
2725       5.01       289        520        0          1          264.566    15272      0          -320       5815.78    84.561     20435     
2725.2     5.1        288        482        0          0          264.538    15271      0          -260       5812.94    84.57      20438     
2725.4     5.1        283        410        0          0          264.545    15271      0          -260       5810.18    84.57      20438     
2725.6     5.24       292        503        0          0          264.663    15277      0          -260       5807.29    84.586     20442     
2725.8     5.33       306        489        0          0          264.626    15275      0          -190       5804.58    84.589     20443     
2726       5.24       316        442        0          0          264.595    15274      0          -260       5801.62    84.593     20444     
2726.2     5.08       298        1289       0          0          264.688    15278      0          -260       5798.8     84.593     20444     
2726.4     5.12       279        435        0          0          264.709    15279      0          -190       5795.97    84.597     20445     
2726.6     5.3        287        444        0          0          264.653    15276      0          -320       5793.19    84.604     20447     
2726.8     5.37       303        541        0          0          264.74     15281      0          -260       5790.31    84.609     20448     
2727       5.44       304        429        0          0          264.79     15283      0          -260       5787.61    84.612     20449     
2727.2     5.53       321        381        0          0          264.708    15279      0          -260       5784.77    84.618     20451     
2727.4     5.41       327        549        0          0          264.804    15284      0          -260       5781.94    84.623     20452     
2727.6     5.22       303        483        0          0          264.872    15287      0          -260       5779.12    84.623     20452     
2727.8     5.25       288        469        0          0          264.79     15283      0          -260       5776.28    84.624     20452     
2728       5.35       300        446        0          0          264.862    15287      0          -260       5773.52    84.632     20454     
2728.2     5.44       302        446        0          0          264.913    15289      0          -260       5770.75    84.634     20455     
2728.4     5.53       317        337        0          0          264.851    15286      0          -260       5768.04    84.642     20457     
2728.6     5.19       320        398        0          0          264.913    15289      0          -260       5765.22    84.646     20458     
2728.8     4.77       291        423        0          0          264.974    15292      0          -260       5762.38    84.648     20459     
2729       4.53       264        425        0          0          264.912    15289      0          -280       5759.55    84.65      20459     
2729.2     4.52       243        440        0          0          264.981    15292      0          -260       5756.86    84.651     20459     
2729.4     4.7        259        439        0          0          265.046    15296      0          -260       5754.03    84.653     20460     
2729.6     4.86       263        1157       0          0          264.987    15293      0          -260       5751.17    84.657     20461     
2729.8     5.04       272        6197       1          0          265.008    15294      0          -260       5748.34    84.665     20463     
2730       5.17       284        430        0          0          265.138    15300      0          -260       5744.61    84.669     20464     
2730.2     5.42       304        413        0          0          265.09     15298      0          -260       5741.78    84.674     20465     
2730.4     5.5        328        445        0          0          265.048    15296      0          -260       5738.94    84.682     20468     
2730.6     5.29       315        1880       0          0          265.165    15301      0          -190       5736.1     84.688     20469     
2730.8     5.21       286        3134       0          0          265.198    15303      0          -260       5733.4     84.695     20471     
2731       5.45       287        385        0          0          265.095    15298      0          -260       5730.57    84.705     20474     
2731.2     5.52       318        413        0          0          265.211    15304      0          -260       5727.74    84.71      20475     
2731.4     5.48       314        348        0          0          265.142    15300      0          -260       5724.91    84.714     20476     
2731.6     5.43       323        340        0          0          265.259    15306      0          -260       5722.15    84.729     20480     
2731.8     5.22       315        518        0          0          265.32     15309      0          -260       5719.37    84.741     20483     
2732       5.1        285        394        0          0          265.216    15304      0          -260       5716.55    84.742     20483     
2732.2     5.17       293        357        0          0          265.278    15307      0          -277       5713.73    84.748     20485     
2732.4     5.28       287        372        0          0          265.409    15313      0          -260       5710.95    84.752     20486     
2732.6     5.61       293        373        0          0          265.319    15309      0          -260       5708.18    84.756     20487     
2732.8     5.94       321        286        0          0          265.305    15308      0          -260       5705.36    84.763     20489     
2733       6.24       367        406        0          0          265.453    15316      0          -300       5702.53    84.771     20491     
2733.2     6.05       365        426        0          0          265.463    15316      0          -260       5699.83    84.775     20492     
2733.4     5.79       336        502        0          0          265.338    15310      0          -260       5697       84.782     20494     
2733.6     5.75       328        380        0          0          265.455    15316      0          -260       5694.15    84.788     20496     
2733.8     5.7        337        482        0          0          265.554    15320      0          -260       5691.33    84.794     20497     
2734       5.56       330        527        0          0          265.474    15317      0          -260       5688.51    84.797     20498     
2734.2     5.44       316        374        0          0          265.419    15314      0          -260       5685.81    84.801     20499     
2734.4     5.47       301        417        0          0          265.605    15323      0          -260       5682.97    84.809     20501     
2734.6     5.8        316        515        0          0          265.639    15325      0          -260       5680.14    84.809     20501     
2734.8     6.05       346        510        0          0          265.508    15318      0          -190       5677.32    84.813     20502     
