~Version
 VERS              .         2.0                           : CWLS LOG ASCII STANDARD - VERSION 2.0
 WRAP              .         NO                            : ONE LINE PER DEPTH STEP
 DLM               .         SPACE                         : DELIMITING CHARACTER(SPACE TAB OR COMMA)
~Well Information
#_______________________________________________________________________________
#
#PARAMETER_NAME    .UNIT     VALUE                         : DESCRIPTION
#_______________________________________________________________________________
STRT               .M        827.6                         : First reference value
STOP               .M        1707.2                        : Last reference value
STEP               .M        0.2                           : Step increment
NULL               .         -9999                         : Missing value
COMP               .                                       : Company
WELL               .         616                           : Well name
FLD                .                                       : Field
LOC                .                                       : Location
CNTY               .                                       : County
STAT               .                                       : State
CTRY               .                                       : Country
SRVC               .                                       : Service Company
DATE               .                                       : Date
API                .                                       : API number
PROJECT_UPGRADE_TIME .         2021-03-18T21_24_50           : 
group              .         Good                          : 
~Parameter Information Block
#_______________________________________________________________________________
#
#PARAMETER_NAME    .UNIT     VALUE                         : DESCRIPTION
#_______________________________________________________________________________
SET                .         616_8                         : 
CONF               .         00                            : 
END                .         0                             : 
ERR                .         0                             : 
GS00               .M        1705.33                       : 
GS01               .M        0825.11                       : 
MM00               .M        0210.00                       : 
NOKG               .         0                             : 
NPR                .         980615                        : 
PART               .         Бутенко                       : 
PROJECT_UPGRADE_TIME .         2021-03-18T21_24_49           : 
PRZK               .         Шакиров                       : 
TLFamily_AZIMUTH   .         True Dip Azimuth              : 
TLFamily_DEPTH     .         Measured Depth                : 
TLFamily_METKA     .                                       : 
TLFamily_ROLL      .                                       : 
TLFamily_SPEED     .         Spontaneous Potential         : 
TLFamily_ZENIT     .                                       : 
VPRG               .         310                           : 
WAY                .         UP                            : 
group              .         prim                          : 
~Curve Information
#_______________________________________________________________________________
#
#LOGNAME           .UNIT     LOG_ID                        : DESCRIPTION
#_______________________________________________________________________________
DEPTH              .M                                      :  
AZIMUTH            .DEG                                    :  
METKA              .                                       :  
ROLL               .DEG                                    :  
SPEED              .M/H                                    :  
ZENIT              .DEG                                    :  
~Ascii
# ...
876.4      253.37     0          155.04     648        31.41     
876.6      249.14     0          155.01     648        30.48     
876.8      253.72     0          154.71     648        31.53     
877        250.64     0          154.47     684        30.77     
877.2      252.4      0          154.47     648        31.12     
877.4      252.12     0          154.64     648        30.91     
877.6      251.88     0          154.62     684        30.66     
877.8      255.87     0          154.29     684        31.13     
878        256.93     0          153.55     648        30.74     
878.2      275.71     0          153.48     648        31.36     
878.4      314.62     0          153.93     648        31.72     
878.6      190.93     0          153.51     648        30.71     
878.8      116.93     0          153.11     684        31.56     
879        346.47     0          153.86     648        30.84     
879.2      299.52     0          155.47     648        31.44     
879.4      264.19     0          156.7      648        31.48     
879.6      255.49     0          156.82     684        31.22     
879.8      255.45     0          156.52     648        31.54     
880        251.07     0          156.19     684        30.69     
880.2      252.13     0          155.47     648        31.04     
880.4      251.43     0          155.43     648        30.83     
880.6      248.79     0          155.41     648        30.13     
880.8      253.19     0          155.15     648        31.24     
881        249.95     0          155.23     684        30.51     
881.2      252.65     0          155.56     648        31.14     
881.4      250.63     0          156.11     648        30.66     
881.6      250.89     0          156.29     648        30.73     
881.8      251.84     0          155.88     684        30.82     
882        249.87     0          155.24     684        30.33     
882.2      252.85     1          154.75     648        31.08     
882.4      248.92     0          154.85     720        30.24     
882.6      249.52     0          154.82     648        30.75     
882.8      255.14     0          155.33     612        31.67     
883        248.41     0          155.5      648        30.4      
883.2      249.36     0          155.39     684        30.85     
883.4      251.27     0          155.3      648        30.77     
883.6      250.61     0          155.34     648        30.74     
883.8      253.32     0          155.53     648        31.35     
884        250.1      0          155.6      648        30.62     
884.2      251.78     0          155.52     684        30.97     
884.4      250.97     0          155.24     648        30.76     
884.6      248.29     0          153.44     648        30.13     
884.8      252.31     0          152.8      648        31.31     
885        251.15     0          155        612        30.95     
885.2      252.07     0          155.94     648        31.1      
885.4      252.51     0          155.46     648        31.09     
885.6      249.23     0          155.37     684        30.35     
885.8      252.07     0          155.5      648        31.03     
886        249.42     0          155.74     648        30.34     
886.2      251.66     0          155.63     684        30.94     
886.4      252.13     0          155.21     648        31        
886.6      248.96     0          155.08     684        30.34     
886.8      251.78     0          155.32     648        31.02     
887        248.82     0          155.67     684        30.33     
887.2      249.4      0          155.73     612        30.45     
887.4      251.98     0          155.67     648        30.96     
887.6      250.34     0          155.79     648        30.65     
887.8      254.07     0          155.99     684        31.42     
888        250.21     0          156.14     648        30.58     
888.2      252.42     0          156.36     648        31.17     
888.4      250.84     0          156.44     684        30.89     
888.6      247.87     0          156.37     648        30.2      
888.8      253.27     0          156.32     648        31.29     
889        251.58     0          156.15     684        30.82     
889.2      250.94     0          156.17     648        30.69     
889.4      252.19     0          155.97     612        30.93     
889.6      249.09     0          155.86     684        30.27     
889.8      252.8      0          155.95     648        30.82     
890        252.43     0          155.28     648        30.18     
890.2      261.81     0          154.47     684        31.27     
890.4      277.95     0          154.76     648        30.82     
890.6      333.27     0          155.28     648        30.49     
890.8      206.95     0          155.64     684        31.32     
891        214.02     0          155.72     648        30.67     
891.2      340.86     0          155.78     648        30.86     
891.4      288.44     0          156.17     648        31.2      
891.6      259.27     0          156.35     648        30.82     
891.8      256.69     0          156.13     684        31.55     
892        252.59     0          155.74     648        31.03     
892.2      253.82     1          155.94     648        31.5      
892.4      249.28     0          156.65     648        30.21     
892.6      253.12     0          156.56     648        31.21     
892.8      250.97     0          156.55     648        30.64     
893        249.36     0          156.26     648        30.31     
893.2      253.15     0          155.4      648        30.93     
893.4      249.35     0          155.35     684        30.45     
893.6      251.1      0          155.61     648        30.77     
893.8      250.32     0          155.4      648        30.45     
894        251.67     0          155.1      648        30.69     
894.2      250.05     0          154.84     684        30.49     
894.4      246.37     0          154.54     648        29.5      
894.6      253.61     0          155.32     648        31.46     
894.8      248.18     0          155.97     648        30.15     
895        249.68     0          156.04     648        30.55     
895.2      251.88     0          156.33     684        31.08     
895.4      250.06     0          156.31     648        30.62     
895.6      250.8      0          156.5      648        30.91     
895.8      249.35     0          156.72     684        30.57     
896        250.01     0          156.68     612        30.6      
896.2      252.06     0          156.5      684        30.98     
896.4      247.34     0          156.18     648        29.98     
896.6      253.47     0          155.86     648        31.5      
896.8      249.73     0          155.68     684        30.45     
897        250.81     0          155.96     648        30.83     
897.2      251.99     0          156.6      648        31.03     
897.4      248.59     0          156.92     648        30.33     
897.6      250.57     0          156.61     684        30.82     
897.8      249.56     0          155.97     648        30.61     
898        249.36     0          155.84     648        30.71     
898.2      251.83     0          156.5      648        31.2      
898.4      248.66     0          157.06     648        30.28     
898.6      254.11     0          156.95     648        31.5      
898.8      248.48     0          156.81     684        30.21     
899        249.03     0          156.63     648        30.3      
899.2      252.89     0          156.35     648        31.14     
899.4      249.5      0          156.07     648        30.42     
899.6      252.15     0          155.94     684        31.03     
899.8      251.45     0          155.84     648        30.88     
900        250.88     0          156        648        30.79     
900.2      252.79     0          156.43     648        31.16     
900.4      247.04     0          156.92     648        29.86     
900.6      253.05     1          156.68     648        31.24     
