~Version
 VERS              .         2.0                           : CWLS LOG ASCII STANDARD - VERSION 2.0
 WRAP              .         NO                            : ONE LINE PER DEPTH STEP
 DLM               .         SPACE                         : DELIMITING CHARACTER(SPACE TAB OR COMMA)
~Well Information
#_______________________________________________________________________________
#
#PARAMETER_NAME    .UNIT     VALUE                         : DESCRIPTION
#_______________________________________________________________________________
STRT               .M        2657.6                        : First reference value
STOP               .M        2764.999893                   : Last reference value
STEP               .M        0.1999998                     : Step increment
NULL               .         -9999                         : Missing value
COMP               .                                       : Company
WELL               .         616                           : Well name
FLD                .                                       : Field
LOC                .                                       : Location
CNTY               .                                       : County
STAT               .                                       : State
CTRY               .                                       : Country
SRVC               .                                       : Service Company
DATE               .                                       : Date
API                .                                       : API number
PROJECT_UPGRADE_TIME .         2021-03-18T21_24_50           : 
group              .         Good                          : 
~Parameter Information Block
#_______________________________________________________________________________
#
#PARAMETER_NAME    .UNIT     VALUE                         : DESCRIPTION
#_______________________________________________________________________________
SET                .         D7024_D_2                     : 
NPR                .         155                           : Номер прибора
OTHER              .         Kedr.exe версия 2.1.2.32      : 
OTHER_10           .         TM.GRD = 0.00404*TM$.UE + 0.07: 
OTHER_11           .         MN.ATM = (6.33279e-006*TM.GRD + 0.02401)*(MN$.UE + 2.72*TM.GRD + -2018): 
OTHER_12           .         GK.MKR/H = GK$.UE / 43.5489 + 0: 
OTHER_13           .         RES.SM = 0.00476*CRES.UE - 1.51709: 
OTHER_14           .         PL.GSM3 = 0 + 0 * (PL.UE / 1) +  0 * (PL.UE / 1)^2: 
OTHER_15           .         Постоянная времени ГГП = 6 сек: 
OTHER_16           .         Постоянная времени ГК = 6 сек : 
OTHER_2            .         KedrData.dll версия 3.2.2.14  : 
OTHER_3            .         LasInf.dll версия 3.2.0.13    : 
OTHER_4            .         Драйвер версия 1.2.0.5        : 
OTHER_5            .         Прибор_ КСА-M1                : 
OTHER_6            .         Номер прибора_ 155+р204       : 
OTHER_7            .         Режим_ КСА-М1 + ГГП + Резистивиметр: 
OTHER_8            .         Форма_ 223\2                  : 
OTHER_9            .         Тарировки_                    : 
PR                 .         КСА-Т7 М1                     : Тип прибора
PROJECT_UPGRADE_TIME .         2021-03-18T21_24_50           : 
PRTY               .         ПП-223_2                      : Номер партии
SRV                .         ЦКРС                          : Заказчик
SRVC               .         Лузин  А.Б.                   : Начальник партии
TLFamily_DEPT      .         Measured Depth                : 
TLFamily_LM        .         Casing Collar locator         : 
TLFamily_MN        .                                       : 
TLFamily_SPID      .         Spontaneous Potential         : 
TLFamily_TM        .         Temperature                   : 
group              .         second                        : 
~Curve Information
#_______________________________________________________________________________
#
#LOGNAME           .UNIT     LOG_ID                        : DESCRIPTION
#_______________________________________________________________________________
DEPT               .M                                      : Depth curve 
LM                 .е.ацп                                  : Локация муфт 
MN                 .атм                                    : Манометрия, атм 
SPID               .м/ч                                    : Скорость записи,м/час 
TM                 .град.С                                 : Термометрия,град.С 
~Ascii
# ...
2686.399971 217.944    369.34     579.977    56.39     
2686.599971 103.997    368.69     533.023    56.39     
2686.799971 98.002     368.69     580        56.38     
2686.999971 103.029    369.5      580        56.38     
2687.19997 162.989    368.53     579.983    56.37     
2687.39997 140.992    368.25     544.988    56.36     
2687.59997 124.979    367.86     521        56.35     
2687.79997 83.009     368.29     520.018    56.35     
2687.99997 101.995    369.49     557.011    56.35     
2688.199969 91.002     370.08     579.994    56.33     
2688.399969 96.015     371.25     567.976    56.33     
2688.599969 125.995    371.33     520.018    56.32     
2688.799969 115.985    371.67     557.011    56.31     
2688.999969 84.997     370.96     580        56.3      
2689.199968 79.007     371.76     580        56.3      
2689.399968 94.035     370.9      580        56.29     
2689.599968 165.995    370.9      579.936    56.29     
2689.799968 155.973    370.22     450.064    56.29     
2689.999968 99.98      369.37     579.966    56.29     
2690.199967 59.004     368.71     510.034    56.28     
2690.399967 66.992     368.93     580        56.28     
2690.599967 51.005     368.65     580        56.27     
2690.799967 61         370.36     580        56.26     
2690.999967 62.006     368.83     580        56.26     
2691.199966 74.002     369.89     579.966    56.25     
2691.399966 79.385     372.1      510.017    56.25     
2691.599966 863.737    371.7      545.017    56.23     
2691.799966 328.868    368.39     580        56.23     
2691.999966 59.987     368.32     579.972    56.22     
2692.199965 34.001     369.42     522.011    56.21     
2692.399965 35.997     370.3      545.017    56.2      
2692.599965 29         370.31     579.966    56.2      
2692.799965 30.001     371.84     510.034    56.2      
2692.999965 32         371.33     579.989    56.19     
2693.199964 31.998     371.25     557.011    56.18     
2693.399964 27.001     372.44     579.971    56.18     
2693.599964 29         372.3      521        56.17     
2693.799964 27.998     371.94     522.005    56.17     
2693.999964 24.002     371.07     533.023    56.17     
2694.199963 29.003     370.63     579.966    56.17     
2694.399963 35.001     370.02     510.034    56.16     
2694.599963 37.999     369.65     580        56.15     
2694.799963 35.997     369.17     579.977    56.14     
2694.999963 28.996     369.57     532.994    56.14     
2695.199962 20.999     368.66     520.029    56.14     
2695.399962 18.011     369.48     580        56.14     
2695.599962 40.999     369.74     579.977    56.13     
2695.799962 38.991     371.1      532.989    56.12     
2695.999962 20.999     371.54     510.028    56.12     
2696.199961 18         372.56     568.006    56.12     
2696.399961 18.017     371.68     579.989    56.11     
2696.599961 51.996     372.65     556.977    56.11     
2696.799961 44.019     372.51     510.028    56.1      
2696.999961 83.025     372.45     568.006    56.09     
2697.19996 133        371.86     580        56.09     
2697.39996 131.981    370.77     580        56.08     
2697.59996 93.981     370.02     579.994    56.07     
2697.79996 55.012     370.16     568.006    56.06     
2697.99996 79.989     370        580        56.06     
2698.199959 58.005     371.12     580        56.06     
2698.399959 68.995     369.34     580        56.05     
2698.599959 58.996     369.53     580        56.04     
2698.799959 51.012     370.9      580        56.03     
2698.999959 75.983     371.65     579.99     56.03     
2699.199958 42.002     373.15     559.975    56.02     
2699.399958 45.992     372.61     510.029    56.02     
2699.599958 29.995     373.1      568.006    56.02     
2699.799958 20.001     372.46     580        56.02     
2699.999958 23.043     372.8      580        56.01     
2700.199957 110.003    372.59     579.983    56.01     
2700.399957 116.986    372.1      544.988    56        
2700.599957 88.997     371.28     520.995    55.99     
2700.799957 81.997     371.02     510.023    55.98     
2700.999957 74.998     370.25     557.011    55.98     
2701.199956 70.022     371.05     579.994    55.98     
2701.399956 114.01     370.77     567.953    55.97     
2701.599956 135.002    371.85     472.038    55.97     
2701.799956 139.002    373.03     550.015    55.96     
2701.999956 144.949    372.41     579.966    55.95     
2702.199955 4108.615   371.5      510.034    55.94     
2702.399955 5358.003   371.13     580        55.94     
2702.599955 1297.524   371.03     580        55.93     
2702.799955 328.89     370.67     579.994    55.93     
2702.999955 105.983    369.8      568.006    55.91     
2703.199954 72         370.99     580        55.89     
2703.399954 73         371.42     579.983    55.89     
2703.599954 74.006     373.25     544.989    55.88     
2703.799954 86.048     373.02     522.029    55.87     
2703.999954 183.98     374.64     579.975    55.87     
2704.199953 143.963    373.27     530.025    55.86     
2704.399953 68.987     373.68     579.977    55.86     
2704.599953 43.002     373.19     533.023    55.84     
2704.799953 48.003     373.65     579.971    55.83     
2704.999953 55         372.6      522.029    55.82     
2705.199952 56         372.41     580        55.81     
2705.399952 56.006     371.12     579.995    55.8      
2705.599952 69.013     370.78     569.005    55.8      
2705.799952 95.971     371.27     579.989    55.79     
2705.999952 37.994     372.65     557.011    55.78     
2706.199951 25.004     371.83     579.975    55.77     
2706.399951 33.997     372.76     529.99     55.77     
2706.599951 28.023     372.39     510.034    55.76     
2706.799951 74.009     373.33     579.983    55.76     
2706.999951 93.002     372.89     545.006    55.75     
2707.19995 97.994     374.7      556.977    55.74     
2707.39995 84.99      374.47     510.034    55.73     
2707.59995 64.994     374.14     579.989    55.72     
2707.79995 52.996     373.45     557.011    55.72     
2707.99995 45         373.22     580        55.71     
2708.199949 45.004     372.69     580        55.7      
2708.399949 53.005     372.72     579.966    55.7      
2708.599949 63         372.04     510.017    55.69     
2708.799949 63.001     371.87     545.017    55.69     
2708.999949 65.998     371.06     580        55.68     
2709.199948 61.997     371.83     579.971    55.66     
2709.399948 54.998     372.19     522.011    55.65     
2709.599948 50.009     372.94     545.017    55.63     
2709.799948 67.995     373.55     580        55.62     
2709.999948 57.005     374.28     579.989    55.61     
2710.199947 68.002     374.46     557.011    55.6      
2710.399947 72.006     374.18     580        55.58     
2710.599947 84.994     375.25     579.975    55.56     
2710.799947 72.997     375.41     530.025    55.55     
2710.999947 67.003     374.95     579.977    55.54     
2711.199946 73.007     373.91     533.023    55.53     
2711.399946 86.992     373.17     580        55.52     
2711.599946 71         372.56     579.98     55.5      
2711.799946 70.995     374.32     539.985    55.49     
2711.999946 60.009     375.86     510.034    55.48     
2712.199945 77.993     375.22     580        55.47     
2712.399945 63.994     374.83     580        55.45     
2712.599945 51.005     374.74     580        55.44     
2712.799945 61.996     374.27     579.994    55.44     
2712.999945 54.025     374.03     567.971    55.43     
2713.199944 106.367    373.81     510.028    55.41     
2713.399944 2881.563   373.37     565.992    55.41     
2713.599944 4023.314   372.85     550.009    55.4      
2713.799944 601.781    372.5      567.977    55.39     
2713.999944 157.95     372.03     522.011    55.39     
2714.199943 56.998     373.05     544.994    55.38     
2714.399943 52.004     373.92     533.023    55.38     
2714.599943 60.008     374.48     579.97     55.37     
2714.799943 75.998     374.34     520.018    55.36     
2714.999943 70.993     375.22     557.011    55.34     
