~Version
 VERS              .         2.0                           : CWLS LOG ASCII STANDARD - VERSION 2.0
 WRAP              .         NO                            : ONE LINE PER DEPTH STEP
 DLM               .         SPACE                         : DELIMITING CHARACTER(SPACE TAB OR COMMA)
~Well Information
#_______________________________________________________________________________
#
#PARAMETER_NAME    .UNIT     VALUE                         : DESCRIPTION
#_______________________________________________________________________________
STRT               .M        2698.8                        : First reference value
STOP               .M        2753.2                        : Last reference value
STEP               .M        0.1999996                     : Step increment
NULL               .         -9999                         : Missing value
COMP               .                                       : Company
WELL               .         616                           : Well name
FLD                .                                       : Field
LOC                .                                       : Location
CNTY               .                                       : County
STAT               .                                       : State
CTRY               .                                       : Country
SRVC               .                                       : Service Company
DATE               .                                       : Date
API                .                                       : API number
PROJECT_UPGRADE_TIME .         2021-03-18T21_24_50           : 
group              .         Good                          : 
~Parameter Information Block
#_______________________________________________________________________________
#
#PARAMETER_NAME    .UNIT     VALUE                         : DESCRIPTION
#_______________________________________________________________________________
SET                .         D1802_D                       : 
OTHER              .         Программное обеспечение станции MONITOR-386EX 25/12/99 15_08_10   BGF V52 22/08/01 16_56_30   3.1_SNGF___BGF_N_092049: 
OTHER_10           .         Тарировки_                    : 
OTHER_11           .         TM.GRD = 0.00403*TM$.UE + -1.07: 
OTHER_12           .         MN.ATM = (9.34907e-006*TM.GRD + 0.02171)*(MN$.UE + -7.93*TM.GRD + -1787): 
OTHER_13           .         GK.MKR/H = LM. / 42.4676      : 
OTHER_14           .         GK.FLT = 0.1*GK.MKR/H[-1] + (1-0.1)*GK.MKR/H[0]: 
OTHER_2            .         Kedr.exe версия 3.4.2.51      : 
OTHER_3            .         KedrData.dll версия 3.4.2.24  : 
OTHER_4            .         Драйвер версия 2.1.1.3        : 
OTHER_5            .         Мнемоники версия 3.3 S        : 
OTHER_6            .         Прибор_ КСА-Т4                : 
OTHER_7            .         Номер прибора_ 03             : 
OTHER_8            .         Режим_ КСА-Т4                 : 
OTHER_9            .         Форма_ КВА.                   : 
PROJECT_UPGRADE_TIME .         2021-03-18T21_24_49           : 
TLFamily_DEPT      .         Measured Depth                : 
TLFamily_GK        .         Gamma Ray                     : 
TLFamily_GK$       .                                       : 
TLFamily_GK_2      .         Gamma Ray                     : 
TLFamily_LM        .         Casing Collar locator         : 
TLFamily_METKA     .                                       : 
TLFamily_MN        .                                       : 
TLFamily_MN$       .                                       : 
TLFamily_RCOR      .                                       : 
TLFamily_SPID      .         Spontaneous Potential         : 
TLFamily_TENS      .         Cable Tension                 : 
TLFamily_TIME      .         Time                          : 
TLFamily_TM        .         Temperature                   : 
TLFamily_TM$       .         Temperature                   : 
group              .         prim                          : 
~Curve Information
#_______________________________________________________________________________
#
#LOGNAME           .UNIT     LOG_ID                        : DESCRIPTION
#_______________________________________________________________________________
DEPT               .M                                      : 1 Глубина, м -    0.0 см 
GK                 .MKR/H                                  : 13 Гамма-активность, мкр./ч -  110.0 см 
GK$                .UE                                     : 10 Гамма-активность, усл.ед. -  110.0 см 
GK_2               .FLT                                    : 14 Гамма-активность фильтрованная, мкр./ч -  110.0 см 
LM                 .                                       : 9 Локатор муфт,  -   20.0 см 
METKA              .                                       : 3 Метки,  -    0.0 см 
MN                 .ATM                                    : 12 Давление, атм. -  160.0 см 
MN$                .UE                                     : 8 Давление, усл.ед. -  160.0 см 
RCOR               .CM/KM                                  : 5 Коррекция по ролику, см/км -    0.0 см 
SPID               .M/H                                    : 2 Скорость, м/час -    0.0 см 
TENS               .T                                      : 6 Натяжение кабеля, т -    0.0 см 
TIME               .S                                      : 4 Время, сек -    0.0 см 
TM                 .GRD                                    : 11 Температура, °C -  170.0 см 
TM$                .UE                                     : 7 Температура, усл.ед. -  170.0 см 
~Ascii
2698.8000488 -9999      -9999      -9999      -9999      -9999      -9999      -9999      -9999      -9999      -9999      -9999      -9999      -9999     
2699       -9999      -9999      -9999      -9999      -9999      -9999      -9999      -650       -204       0.17       9414.84    -9999      -9999     
2699.2     -9999      -9999      -9999      -9999      0          -9999      -9999      -650       -197       0.17       9411.11    -9999      -9999     
2699.4     -9999      -9999      -9999      77         0          -9999      -9999      -650       -209       0.17       9407.56    -9999      -9999     
2699.6     -9999      -9999      -9999      54         0          -9999      -9999      -650       -207       0.17       9404.03    -9999      -9999     
2699.8     -9999      -9999      -9999      55         0          -9999      -9999      -650       -204       0.17       9400.61    -9999      -9999     
2700       -9999      -9999      -9999      58         2          -9999      -9999      -642       -195       0.17       9395.45    -9999      -9999     
2700.2     8.17       347        8.17       87         0          -9999      -9999      -642       -195       0.17       9391.91    -9999      -9999     
2700.4     8.64       367        8.66       98         0          -9999      -9999      -642       -194       0.17       9388.19    -9999      -9999     
2700.6     9.84       418        9.69       103        0          247.246    13317      -642       -196       0.17       9384.64    -9999      -9999     
2700.8     8.67       368        8.67       110        0          247.269    13318      -642       -205       0.17       9381.09    45.333     11514     
2701       9.02       383        9.07       159        0          247.291    13319      -642       -196       0.17       9377.56    45.327     11513     
2701.2     9.68       411        9.75       74         0          247.313    13320      -642       -203       0.15       9374.02    45.327     11513     
2701.4     9.63       409        9.63       60         0          247.314    13320      -642       -192       0.17       9370.3     45.319     11511     
2701.6     9.89       420        9.98       60         0          247.358    13322      -642       -208       0.17       9366.75    45.313     11510     
2701.8     10.34      439        10.34      61         0          247.38     13323      -642       -196       0.17       9363.2     45.317     11510     
2702       10.24      435        10.27      50         0          247.38     13323      -642       -203       0.17       9359.67    45.319     11511     
2702.2     10.83      460        10.68      117        0          247.413    13325      -642       -195       0.17       9355.94    45.327     11513     
2702.4     10.24      435        10.25      61         0          247.445    13326      -642       -201       0.17       9352.39    45.327     11513     
2702.6     10.69      454        10.4       60         0          247.446    13326      -642       -205       0.17       9348.86    45.323     11512     
2702.8     8.22       349        8.23       123        0          247.469    13327      -642       -195       0.17       9345.31    45.311     11509     
2703       10.2       433        10.28      2054       0          247.492    13328      -642       -195       0.17       9341.58    45.295     11505     
2703.2     10.05      427        10.05      112        0          247.515    13329      -642       -204       0.17       9338.05    45.287     11503     
2703.4     10.03      426        10.04      111        0          247.516    13329      -642       -207       0.17       9334.5     45.277     11501     
2703.6     10.31      438        10.33      55         0          247.56     13331      -642       -196       0.17       9330.95    45.271     11499     
2703.8     9.87       419        9.87       49         0          247.583    13332      -642       -207       0.17       9327.42    45.265     11497     
2704       10.38      441        10.41      66         0          247.585    13332      -642       -202       0.17       9323.69    45.251     11494     
2704.2     10.31      438        10.31      59         0          247.61     13333      -642       -208       0.17       9320.33    45.211     11484     
2704.4     9.68       411        9.69       85         0          247.654    13335      -642       -195       0.17       9316.61    45.202     11482     
2704.6     10.2       433        10.2       50         0          247.653    13335      -642       -202       0.17       9313.06    45.206     11483     
2704.8     10.55      448        10.58      57         0          247.676    13336      -642       -196       0.17       9309.34    45.204     11482     
2705       9.98       424        9.98       127        0          247.677    13336      -642       -204       0.17       9305.8     45.194     11480     
2705.2     10.48      445        10.5       48         0          247.722    13338      -642       -195       0.17       9302.25    45.19      11479     
2705.4     11.87      504        11.69      57         0          247.744    13339      -642       -197       0.17       9298.72    45.182     11477     
2705.6     11.09      471        11.09      87         0          247.766    13340      -642       -205       0.17       9295.17    45.178     11476     
2705.8     11.3       480        11.4       102        0          247.789    13341      -642       -196       0.17       9291.63    45.174     11475     
2706       11.44      486        11.44      78         0          247.789    13341      -642       -193       0.17       9288.09    45.174     11475     
2706.2     11.16      474        11.17      70         0          247.811    13342      -642       -200       0.17       9284.3     45.17      11474     
2706.4     10.27      436        10.27      75         0          247.833    13343      -642       -211       0.17       9280.83    45.17      11474     
2706.6     10.1       429        10.11      53         0          247.856    13344      -642       -198       0.17       9277.09    45.17      11474     
2706.8     10.22      434        10.17      75         0          247.878    13345      -642       -207       0.17       9273.55    45.168     11473     
2707       9.73       413        9.73       96         0          247.9      13346      -642       -195       0.17       9270.02    45.162     11472     
2707.2     10.81      459        10.91      62         0          247.922    13347      -642       -201       0.17       9266.47    45.162     11472     
2707.4     11         467        11         54         0          247.944    13348      -642       -194       0.17       9262.92    45.158     11471     
2707.6     11.59      492        11.55      52         0          247.944    13348      -642       -198       0.17       9259.2     45.162     11472     
2707.8     11.04      469        11.05      54         0          247.989    13350      -642       -201       0.17       9255.66    45.162     11472     
2708       12.1       514        12.1       70         0          247.99     13350      -642       -206       0.17       9251.94    45.154     11470     
2708.2     11.77      500        11.77      73         0          248.034    13352      -642       -205       0.17       9248.39    45.142     11467     
2708.4     11.09      471        11.09      82         0          248.045    13352      -642       -207       0.17       9244.84    45.138     11466     
2708.6     10.83      460        11.06      88         1          248.057    13353      -642       -195       0.15       9241.31    45.138     11466     
2708.8     12.22      519        12.22      67         0          248.079    13354      -642       -200       0.17       9237.77    45.134     11465     
2709       12.53      532        12.43      69         0          248.102    13355      -642       -191       0.17       9234.1     45.13      11464     
