~Version
 VERS              .         2.0                           : CWLS LOG ASCII STANDARD - VERSION 2.0
 WRAP              .         NO                            : ONE LINE PER DEPTH STEP
 DLM               .         SPACE                         : DELIMITING CHARACTER(SPACE TAB OR COMMA)
~Well Information
#_______________________________________________________________________________
#
#PARAMETER_NAME    .UNIT     VALUE                         : DESCRIPTION
#_______________________________________________________________________________
STRT               .M        2667.4                        : First reference value
STOP               .M        2776                          : Last reference value
STEP               .M        0.2000002                     : Step increment
NULL               .         -9999                         : Missing value
COMP               .                                       : Company
WELL               .         616                           : Well name
FLD                .                                       : Field
LOC                .                                       : Location
CNTY               .                                       : County
STAT               .                                       : State
CTRY               .                                       : Country
SRVC               .                                       : Service Company
DATE               .                                       : Date
API                .                                       : API number
PROJECT_UPGRADE_TIME .         2021-03-18T21_24_50           : 
group              .         Good                          : 
~Parameter Information Block
#_______________________________________________________________________________
#
#PARAMETER_NAME    .UNIT     VALUE                         : DESCRIPTION
#_______________________________________________________________________________
SET                .         D1800_D                       : 
OTHER              .         Программное обеспечение станции MONITOR-386EX 25/12/99 15_08_10   BGF V52 22/08/01 16_56_30   3.1_SNGF___BGF_N_092049: 
OTHER_10           .         Тарировки_                    : 
OTHER_11           .         TM.GRD = 0.00403*TM$.UE + -1.07: 
OTHER_12           .         MN.ATM = (9.34907e-006*TM.GRD + 0.02171)*(MN$.UE + -7.93*TM.GRD + -1787): 
OTHER_13           .         GK.MKR/H = LM. / 42.4676      : 
OTHER_14           .         GK.FLT = 0.1*GK.MKR/H[-1] + (1-0.1)*GK.MKR/H[0]: 
OTHER_2            .         Kedr.exe версия 3.4.2.51      : 
OTHER_3            .         KedrData.dll версия 3.4.2.24  : 
OTHER_4            .         Драйвер версия 2.1.1.3        : 
OTHER_5            .         Мнемоники версия 3.3 S        : 
OTHER_6            .         Прибор_ КСА-Т4                : 
OTHER_7            .         Номер прибора_ 03             : 
OTHER_8            .         Режим_ КСА-Т4                 : 
OTHER_9            .         Форма_ КВА.                   : 
PROJECT_UPGRADE_TIME .         2021-03-18T21_24_49           : 
TLFamily_DEPT      .         Measured Depth                : 
TLFamily_GK        .         Gamma Ray                     : 
TLFamily_GK$       .                                       : 
TLFamily_GK_2      .         Gamma Ray                     : 
TLFamily_LM        .         Casing Collar locator         : 
TLFamily_METKA     .                                       : 
TLFamily_MN        .                                       : 
TLFamily_MN$       .                                       : 
TLFamily_RCOR      .                                       : 
TLFamily_SPID      .         Spontaneous Potential         : 
TLFamily_TENS      .         Cable Tension                 : 
TLFamily_TIME      .         Time                          : 
TLFamily_TM        .         Temperature                   : 
TLFamily_TM$       .         Temperature                   : 
group              .         prim                          : 
~Curve Information
#_______________________________________________________________________________
#
#LOGNAME           .UNIT     LOG_ID                        : DESCRIPTION
#_______________________________________________________________________________
DEPT               .M                                      : 1 Глубина, м -    0.0 см 
GK                 .MKR/H                                  : 13 Гамма-активность, мкр./ч -  110.0 см 
GK$                .UE                                     : 10 Гамма-активность, усл.ед. -  110.0 см 
GK_2               .FLT                                    : 14 Гамма-активность фильтрованная, мкр./ч -  110.0 см 
LM                 .                                       : 9 Локатор муфт,  -   20.0 см 
METKA              .                                       : 3 Метки,  -    0.0 см 
MN                 .ATM                                    : 12 Давление, атм. -  160.0 см 
MN$                .UE                                     : 8 Давление, усл.ед. -  160.0 см 
RCOR               .CM/KM                                  : 5 Коррекция по ролику, см/км -    0.0 см 
SPID               .M/H                                    : 2 Скорость, м/час -    0.0 см 
TENS               .T                                      : 6 Натяжение кабеля, т -    0.0 см 
TIME               .S                                      : 4 Время, сек -    0.0 см 
TM                 .GRD                                    : 11 Температура, °C -  170.0 см 
TM$                .UE                                     : 7 Температура, усл.ед. -  170.0 см 
~Ascii
# ...
2698.6     8.03       341        8.1        86         0          247.09     13310      -653       -236       0.17       7229.68    45.356     11520     
2698.8     8.6        365        8.64       98         0          247.112    13311      -653       -227       0.17       7226.65    45.352     11519     
2699       8.5        361        9.38       51         0          247.134    13312      -653       -224       0.17       7223.61    45.352     11519     
2699.2     8.1        344        8.12       63         0          247.157    13313      -653       -228       0.17       7220.38    45.344     11517     
2699.4     8.27       351        8.21       95         0          247.168    13313      -653       -233       0.17       7217.33    45.339     11516     
2699.6     7.42       315        7.42       83         0          247.18     13314      -653       -245       0.17       7214.15    45.335     11515     
2699.8     8.31       353        8.32       81         0          247.22     13316      -653       -235       0.17       7211.17    45.331     11514     
2700       9.23       392        9.22       79         2          247.248    13317      -645       -229       0.17       7206.7     45.313     11510     
2700.2     9.07       385        9          105        0          247.248    13317      -645       -226       0.17       7203.53    45.307     11508     
2700.4     8.9        378        9          120        0          247.27     13318      -645       -229       0.17       7200.38    45.309     11508     
2700.6     9.8        416        9.79       115        0          247.293    13319      -645       -228       0.17       7197.39    45.307     11508     
2700.8     9.18       390        9.2        177        0          247.315    13320      -645       -234       0.17       7194.22    45.295     11505     
2701       9.87       419        10.28      186        0          247.337    13321      -645       -231       0.17       7191.05    45.295     11505     
2701.2     10.62      451        10.6       163        0          247.361    13322      -645       -222       0.17       7188.06    45.287     11503     
2701.4     10.1       429        10.07      158        0          247.384    13323      -645       -230       0.17       7184.84    45.267     11498     
2701.6     10.36      440        10.36      103        0          247.385    13323      -645       -236       0.17       7181.61    45.259     11496     
2701.8     10.88      462        10.88      99         0          247.408    13324      -645       -234       0.17       7178.56    45.245     11493     
2702       10.81      459        10.78      78         0          247.43     13325      -645       -231       0.17       7175.39    45.235     11490     
2702.2     9.98       424        9.91       109        0          247.452    13326      -645       -227       0.17       7172.28    45.239     11491     
2702.4     9.88       420        9.96       120        0          247.474    13327      -645       -224       0.17       7169.24    45.235     11490     
2702.6     9.7        412        9.7        90         0          247.474    13327      -645       -224       0.17       7166.08    45.239     11491     
2702.8     9.37       398        9.4        214        0          247.519    13329      -645       -227       0.17       7162.97    45.239     11491     
2703       10.05      427        10.02      2363       0          247.542    13330      -645       -229       0.17       7159.73    45.22      11486     
2703.2     9.32       396        9.32       161        0          247.565    13331      -645       -236       0.17       7156.75    45.206     11483     
2703.4     9.3        395        9.3        152        0          247.543    13330      -645       -239       0.17       7153.58    45.198     11481     
2703.6     9.73       413        9.79       116        0          247.61     13333      -645       -237       0.17       7150.4     45.196     11480     
2703.8     11.3       480        11.29      100        0          247.61     13333      -645       -237       0.17       7147.42    45.198     11481     
2704       10.38      441        10.23      94         0          247.643    13334      -645       -236       0.17       7144.26    45.198     11481     
2704.2     9.54       405        9.54       89         0          247.676    13336      -645       -225       0.17       7141.09    45.198     11481     
2704.4     9.82       417        9.82       92         0          247.676    13336      -645       -234       0.17       7137.92    45.198     11481     
2704.6     9.84       418        9.88       103        0          247.698    13337      -645       -237       0.17       7134.87    45.202     11482     
2704.8     11.16      474        11.16      115        0          247.72     13338      -645       -229       0.17       7131.77    45.202     11482     
2705       11.33      481        11.32      91         0          247.743    13339      -645       -235       0.17       7128.6     45.194     11480     
2705.2     10.97      466        10.94      93         0          247.766    13340      -645       -235       0.17       7125.56    45.188     11478     
2705.4     10.22      434        10.26      80         0          247.788    13341      -645       -230       0.17       7122.33    45.182     11477     
2705.6     11.01      468        11.18      193        0          247.799    13341      -645       -228       0.17       7119.28    45.184     11477     
2705.8     11.09      471        11.09      95         0          247.832    13343      -645       -225       0.17       7116.3     45.185     11478     
2706       11.26      478        11.25      74         0          247.832    13343      -645       -231       0.17       7113.01    45.186     11478     
2706.2     10.97      466        10.88      68         0          247.854    13344      -645       -237       0.17       7109.78    45.19      11479     
2706.4     10.71      455        10.71      97         0          247.876    13345      -645       -236       0.17       7106.8     45.194     11480     
2706.6     11.11      472        11.12      86         0          247.898    13346      -645       -233       0.17       7103.68    45.193     11480     
2706.8     11.4       484        11.39      93         0          247.92     13347      -645       -236       0.17       7100.58    45.192     11479     
2707       11.07      470        11.03      75         0          247.943    13348      -645       -225       0.17       7097.47    45.186     11478     
2707.2     10.48      445        10.43      68         0          247.965    13349      -645       -227       0.17       7094.5     45.18      11477     
2707.4     10.41      442        10.41      65         0          247.988    13350      -645       -227       0.17       7091.39    45.178     11476     
2707.6     11.35      482        11.35      51         0          247.995    13350      -645       -231       0.17       7088.15    45.174     11475     
2707.8     11.26      478        11.33      65         0          248.01     13351      -645       -227       0.17       7084.98    45.174     11475     
2708       12.36      525        12.36      66         0          248.055    13353      -645       -225       0.17       7081.94    45.17      11474     
2708.2     11.51      489        11.51      72         0          248.055    13353      -645       -229       0.17       7078.72    45.166     11473     
2708.4     10.62      451        10.63      74         0          248.069    13354      -645       -233       0.17       7075.67    45.17      11474     
2708.6     11.28      479        11.32      98         1          248.077    13354      -645       -227       0.15       7072.62    45.166     11473     
2708.8     11.56      491        11.56      76         0          248.122    13356      -645       -229       0.17       7069.52    45.162     11472     
