~Version
 VERS              .         2.0                           : CWLS LOG ASCII STANDARD - VERSION 2.0
 WRAP              .         NO                            : ONE LINE PER DEPTH STEP
 DLM               .         SPACE                         : DELIMITING CHARACTER(SPACE TAB OR COMMA)
~Well Information
#_______________________________________________________________________________
#
#PARAMETER_NAME    .UNIT     VALUE                         : DESCRIPTION
#_______________________________________________________________________________
STRT               .M        21.55                         : First reference value
STOP               .M        2764.75                       : Last reference value
STEP               .M        0.2                           : Step increment
NULL               .         -9999                         : Missing value
COMP               .                                       : Company
WELL               .         616                           : Well name
FLD                .                                       : Field
LOC                .                                       : Location
CNTY               .                                       : County
STAT               .                                       : State
CTRY               .                                       : Country
SRVC               .                                       : Service Company
DATE               .                                       : Date
API                .                                       : API number
PROJECT_UPGRADE_TIME .         2021-03-18T21_24_50           : 
group              .         Good                          : 
~Parameter Information Block
#_______________________________________________________________________________
#
#PARAMETER_NAME    .UNIT     VALUE                         : DESCRIPTION
#_______________________________________________________________________________
SET                .         D7028_D_2                     : 
NPR                .         155                           : Номер прибора
OTHER              .         Kedr.exe версия 2.1.2.32      : 
OTHER_10           .         TM.GRD = 0.00404*TM$.UE + 0.07: 
OTHER_11           .         MN.ATM = (6.33279e-006*TM.GRD + 0.02401)*(MN$.UE + 2.72*TM.GRD + -2018): 
OTHER_12           .         GK.MKR/H = GK$.UE / 43.5489 + 0: 
OTHER_13           .         RES.SM = 0.00476*CRES.UE - 1.51709: 
OTHER_14           .         PL.GSM3 = 0 + 0 * (PL.UE / 1) +  0 * (PL.UE / 1)^2: 
OTHER_15           .         Постоянная времени ГГП = 6 сек: 
OTHER_16           .         Постоянная времени ГК = 6 сек : 
OTHER_2            .         KedrData.dll версия 3.2.2.14  : 
OTHER_3            .         LasInf.dll версия 3.2.0.13    : 
OTHER_4            .         Драйвер версия 1.2.0.5        : 
OTHER_5            .         Прибор_ КСА-M1                : 
OTHER_6            .         Номер прибора_ 155+р204       : 
OTHER_7            .         Режим_ КСА-М1 + ГГП + Резистивиметр: 
OTHER_8            .         Форма_ 223\2                  : 
OTHER_9            .         Тарировки_                    : 
PR                 .         КСА-Т7 М1                     : Тип прибора
PROJECT_UPGRADE_TIME .         2021-03-18T21_24_50           : 
PRTY               .         ПП-223_2                      : Номер партии
SRV                .         ЦКРС                          : Заказчик
SRVC               .         Лузин  А.Б.                   : Начальник партии
TLFamily_DEPT      .         Measured Depth                : 
TLFamily_LM        .         Casing Collar locator         : 
TLFamily_MN        .                                       : 
TLFamily_SPID      .         Spontaneous Potential         : 
TLFamily_TM        .         Temperature                   : 
group              .         second                        : 
~Curve Information
#_______________________________________________________________________________
#
#LOGNAME           .UNIT     LOG_ID                        : DESCRIPTION
#_______________________________________________________________________________
DEPT               .M                                      : Depth curve 
LM                 .е.ацп                                  : Локация муфт 
MN                 .атм                                    : Манометрия, атм 
SPID               .м/ч                                    : Скорость записи,м/час 
TM                 .град.С                                 : Термометрия,град.С 
~Ascii
# ...
751.55     1859.032   68.87      -1860      28.91     
751.75     2487.046   68.87      -1859.997  28.92     
751.95     3391.091   68.9       -1803.999  28.92     
752.15     5199.155   68.92      -1790      28.93     
752.35     8262.683   68.92      -1790.003  28.94     
752.55     1999.004   68.95      -1855.997  28.93     
752.75     2073.977   68.97      -1790      28.94     
752.95     1624.017   68.98      -1790      28.95     
753.15     1961.989   68.99      -1797.003  28.95     
753.35     1748.007   69.03      -1859.999  28.95     
753.55     1881.004   69.04      -1845.998  28.95     
753.75     1953.994   69.06      -1805.003  28.96     
753.95     1843.006   69.09      -1859.999  28.96     
754.15     1954.011   69.09      -1838.998  28.97     
754.35     2163.996   69.12      -1790      28.96     
754.55     2082.997   69.14      -1790.001  28.97     
754.75     2023.98    69.14      -1819.004  28.97     
754.95     1638.003   69.17      -1888.002  28.98     
755.15     1691.016   69.17      -1919.998  28.98     
755.35     2004.02    69.2       -1886.997  28.99     
755.55     2394.984   69.21      -1820.998  28.99     
755.75     2081.983   69.22      -1790      28.99     
755.95     1745.004   69.25      -1790.004  29        
756.15     1819.005   69.27      -1874      29        
756.35     1911.996   69.29      -1878.999  29        
756.55     1829.995   69.3       -1860      29        
756.75     1732.019   69.33      -1860      29.01     
756.95     2104.013   69.34      -1860      29.01     
757.15     2359.975   69.35      -1859.997  29.02     
757.35     1867.016   69.38      -1807.002  29.02     
757.55     2182.99    69.39      -1848.001  29.02     
757.75     1992.992   69.4       -1859.994  29.03     
757.95     1835.994   69.43      -1750.005  29.04     
758.15     1719.005   69.44      -1846.001  29.03     
758.35     1812.011   69.45      -1860      29.04     
758.55     2030.981   69.48      -1855.997  29.04     
758.75     1664.006   69.49      -1790.001  29.04     
758.95     1781.992   69.5       -1800.003  29.05     
759.15     1621.99    69.51      -1848.997  29.05     
759.35     1417.004   69.53      -1790.001  29.06     
759.55     1486.008   69.56      -1808.002  29.06     
759.75     1646.003   69.58      -1841.997  29.06     
759.95     1710.003   69.58      -1790.001  29.07     
760.15     1767.001   69.61      -1816.002  29.07     
760.35     1787.024   69.61      -1860      29.08     
760.55     2247.988   69.64      -1859.998  29.08     
760.75     2016.997   69.66      -1829      29.09     
760.95     1967.992   69.67      -1825.002  29.09     
761.15     1804.04    69.71      -1860      29.09     
761.35     2576.971   69.71      -1860      29.09     
761.55     2003.012   69.73      -1859.999  29.1      
761.75     2234.998   69.73      -1848.998  29.1      
761.95     2197.981   69.74      -1801.003  29.11     
762.15     1835.993   69.77      -1859.999  29.11     
762.35     1703.003   69.79      -1843.997  29.11     
762.55     1761.015   69.81      -1790      29.12     
762.75     2061.045   69.81      -1790.001  29.12     
762.95     2943.078   69.86      -1818.001  29.13     
763.15     4461.126   69.86      -1831      29.13     
763.35     6906.733   69.88      -1822.002  29.13     
763.55     1727.004   69.91      -1860      29.13     
763.75     1809.999   69.93      -1860      29.14     
763.95     1798.986   69.93      -1860      29.14     
764.15     1525.003   69.96      -1859.998  29.15     
764.35     1585.997   69.98      -1817.999  29.15     
764.55     1537.02    69.99      -1790      29.15     
764.75     1920.992   70.01      -1790.003  29.16     
764.95     1764.031   70.03      -1838.998  29.16     
765.15     2363.963   70.04      -1805.999  29.16     
765.35     1639.996   70.06      -1790.003  29.17     
765.55     1554.996   70.08      -1852      29.17     
765.75     1481.029   70.09      -1860      29.18     
765.95     2037.012   70.12      -1860      29.18     
766.15     2276.988   70.14      -1859.994  29.19     
766.35     2045.99    70.15      -1737      29.19     
766.55     1843.007   70.17      -1733.003  29.19     
766.75     1978.017   70.19      -1794.003  29.2      
766.95     2313.998   70.2       -1860      29.2      
767.15     2281.979   70.22      -1860      29.21     
767.35     1880.007   70.25      -1860      29.21     
767.55     2021.987   70.27      -1860      29.21     
767.75     1764.005   70.27      -1860      29.21     
767.95     1870.021   70.3       -1860      29.22     
768.15     2274.989   70.3       -1859.999  29.22     
768.35     2072.002   70.32      -1833.999  29.22     
768.55     2111.978   70.35      -1818.002  29.23     
768.75     1691.03    70.35      -1860      29.23     
768.95     2265.024   70.38      -1859.998  29.23     
769.15     2720.973   70.4       -1826.998  29.23     
769.35     2191.968   70.4       -1790.002  29.24     
769.55     1583.004   70.43      -1828.998  29.24     
769.75     1667.985   70.45      -1781.997  29.24     
769.95     1380       70.46      -1730.002  29.25     
770.15     1374.033   70.48      -1773.004  29.25     
770.35     2004.014   70.5       -1845.001  29.26     
770.55     2272.018   70.51      -1859.997  29.26     
770.75     2609.969   70.53      -1797      29.27     
770.95     2014.013   70.56      -1790      29.28     
771.15     2261.985   70.57      -1790.002  29.28     
771.35     1978.99    70.58      -1827      29.28     
771.55     1796.034   70.59      -1820.998  29.28     
771.75     2453.02    70.61      -1790.002  29.29     
771.95     2843.974   70.64      -1835.001  29.29     
772.15     2347.976   70.64      -1860      29.3      
772.35     1877.983   70.67      -1859.997  29.3      
772.55     1546.014   70.69      -1807.002  29.3      
772.75     1817.019   70.72      -1845.001  29.3      
772.95     2183.982   70.73      -1860      29.31     
773.15     1833.01    70.76      -1860      29.32     
773.35     2020.013   70.77      -1860      29.32     
773.55     2263.042   70.78      -1860      29.32     
773.75     3064.08    70.81      -1859.997  29.33     
773.95     4591.135   70.82      -1794      29.34     
774.15     7178.716   70.84      -1790.006  29.34     
774.35     1736.006   70.86      -1913.994  29.35     
774.55     1846.006   70.87      -1790      29.35     
774.75     1961.012   70.89      -1790.003  29.35     
774.95     2196.994   70.89      -1849.997  29.35     
775.15     2073.985   70.91      -1790.001  29.36     
775.35     1785.006   70.94      -1801.002  29.36     
775.55     1893       70.96      -1844.997  29.37     
775.75     1901.984   70.96      -1790.001  29.38     
775.95     1593.02    70.99      -1809.001  29.37     
776.15     1966.992   71.01      -1836.998  29.38     
776.35     1814.005   71.01      -1790.001  29.38     
776.55     1901.997   71.04      -1818.001  29.39     
776.75     1840.003   71.06      -1828.998  29.39     
776.95     1903.003   71.07      -1790.002  29.4      
777.15     1954.006   71.09      -1829.002  29.4      
777.35     2065.982   71.11      -1860      29.4      
777.55     1727.994   71.12      -1859.998  29.41     
777.75     1606.009   71.15      -1814.001  29.41     
777.95     1768.003   71.17      -1838.001  29.42     
778.15     1819.003   71.19      -1860      29.42     
778.35     1881.996   71.2       -1860      29.42     
778.55     1798.992   71.21      -1860      29.43     
778.75     1639.012   71.23      -1859.997  29.43     
778.95     1858.995   71.25      -1807.002  29.44     
779.15     1760.986   71.26      -1852.003  29.45     
779.35     1503.004   71.28      -1911      29.45     
779.55     1584.008   71.3       -1919.994  29.46     
779.75     1736.99    71.31      -1802.003  29.46     
779.95     1539.991   71.33      -1860      29.46     
780.15     1362.013   71.35      -1860      29.47     
780.35     1608.006   71.36      -1859.996  29.47     
780.55     1726.997   71.38      -1790      29.48     
