~Version
 VERS              .         2.0                           : CWLS LOG ASCII STANDARD - VERSION 2.0
 WRAP              .         NO                            : ONE LINE PER DEPTH STEP
 DLM               .         SPACE                         : DELIMITING CHARACTER(SPACE TAB OR COMMA)
~Well Information
#_______________________________________________________________________________
#
#PARAMETER_NAME    .UNIT     VALUE                         : DESCRIPTION
#_______________________________________________________________________________
STRT               .M        2338.9                        : First reference value
STOP               .M        2799.2                        : Last reference value
STEP               .M        0.1                           : Step increment
NULL               .         -9999                         : Missing value
COMP               .                                       : Company
WELL               .         616                           : Well name
FLD                .                                       : Field
LOC                .                                       : Location
CNTY               .                                       : County
STAT               .                                       : State
CTRY               .                                       : Country
SRVC               .                                       : Service Company
DATE               .                                       : Date
API                .                                       : API number
PROJECT_UPGRADE_TIME .         2021-03-18T21_24_50           : 
group              .         Good                          : 
~Parameter Information Block
#_______________________________________________________________________________
#
#PARAMETER_NAME    .UNIT     VALUE                         : DESCRIPTION
#_______________________________________________________________________________
SET                .         D2662_D                       : 
OTHER              .         Программное обеспечение станции MONITOR-386EX 25/12/99 15_08_10   BGF V50 26/12/00 07_26_01   3.1_SNGF___BGF_N_092085: 
OTHER_10           .         Тарировки_                    : 
OTHER_11           .         IK1.GRD = IK1$.UE - -5.96     : 
OTHER_12           .         IK5.GRD = IK5$.UE - -0.74     : 
OTHER_13           .         IK4.GRD = IK4$.UE - -0.9      : 
OTHER_14           .         IK3.GRD = IK3$.UE - -1.28     : 
OTHER_15           .         IK2.GRD = IK2$.UE - -3.55     : 
OTHER_2            .         Kedr.exe версия 3.3.2.32      : 
OTHER_3            .         KedrData.dll версия 3.3.2.17  : 
OTHER_4            .         Драйвер версия 2.1.0.4        : 
OTHER_5            .         Мнемоники версия 3.3 S        : 
OTHER_6            .         Прибор_ Викиз                 : 
OTHER_7            .         Номер прибора_ 0006012        : 
OTHER_8            .         Режим_ Викиз                  : 
OTHER_9            .         Форма_ ВИКИЗ                  : 
PROJECT_UPGRADE_TIME .         2021-03-18T21_24_49           : 
TLFamily_DEPT      .         Measured Depth                : 
TLFamily_IK1       .         Extra Shallow Resistivity     : 
TLFamily_IK1$      .         Extra Shallow Resistivity     : 
TLFamily_IK2       .         Shallow Resistivity           : 
TLFamily_IK2$      .         Shallow Resistivity           : 
TLFamily_IK3       .         Medium Resistivity            : 
TLFamily_IK3$      .         Medium Resistivity            : 
TLFamily_IK4       .         Deep Resistivity              : 
TLFamily_IK4$      .         Deep Resistivity              : 
TLFamily_IK5       .         Resistivity 20                : 
TLFamily_IK5$      .         Resistivity 20                : 
TLFamily_METKA     .                                       : 
TLFamily_PS        .         Spontaneous Potential         : 
TLFamily_RCOR      .                                       : 
TLFamily_SPID      .         Spontaneous Potential         : 
TLFamily_TENS      .         Cable Tension                 : 
TLFamily_TIME      .         Time                          : 
group              .         prim                          : 
~Curve Information
#_______________________________________________________________________________
#
#LOGNAME           .UNIT     LOG_ID                        : DESCRIPTION
#_______________________________________________________________________________
DEPT               .M                                      : 1 Глубина, м -    0.0 см 
IK1                .GRD                                    : 13 3Ф0.5, град. -  226.0 см 
IK1$               .UE                                     : 7 3Ф0.5, усл.ед. -  226.0 см 
IK2                .GRD                                    : 17 3Ф0.7, град. -  240.0 см 
IK2$               .UE                                     : 11 3Ф0.7, усл.ед. -  240.0 см 
IK3                .GRD                                    : 16 3Ф1.0, град. -  260.0 см 
IK3$               .UE                                     : 10 3Ф1.0, усл.ед. -  260.0 см 
IK4                .GRD                                    : 15 3Ф1.4, град. -  288.0 см 
IK4$               .UE                                     : 9 3Ф1.4, усл.ед. -  288.0 см 
IK5                .GRD                                    : 14 3Ф2.0, град. -  328.0 см 
IK5$               .UE                                     : 8 3Ф2.0, усл.ед. -  328.0 см 
METKA              .                                       : 3 Метки,  -    0.0 см 
PS                 .mV                                     : 12 ПС, мВ -  372.0 см 
RCOR               .CM/KM                                  : 5 Коррекция по ролику, см/км -    0.0 см 
SPID               .M/H                                    : 2 Скорость, м/час -    0.0 см 
TENS               .T                                      : 6 Натяжение кабеля, т -    0.0 см 
TIME               .S                                      : 4 Время, сек -    0.0 см 
~Ascii
# ...
2369       21.77      15.81      20.51      16.96      19.99      18.71      19.48      18.58      19.45      18.71      0          302.66     -390       -1748      0          35439.37  
2369.1     21.55      15.59      20.29      16.74      19.84      18.56      19.34      18.44      19.34      18.6       0          302.71     -390       -1753      0          35439.17  
2369.2     21.45      15.49      20.22      16.67      19.78      18.5       19.26      18.36      19.27      18.53      0          302.78     -390       -1758      0          35438.96  
2369.3     21.52      15.56      20.27      16.72      19.84      18.56      19.29      18.39      19.29      18.55      0          302.98     -390       -1748      0          35438.74  
2369.4     21.54      15.58      20.32      16.77      19.93      18.65      19.38      18.48      19.35      18.61      0          303.34     -390       -1738      0          35438.53  
2369.5     21.61      15.65      20.47      16.92      20.08      18.8       19.55      18.65      19.48      18.74      0          303.74     -390       -1731      0          35438.35  
2369.6     22.09      16.13      20.81      17.26      20.41      19.13      19.83      18.93      19.66      18.92      0          303.69     -390       -1731      0          35438.12  
2369.7     22.43      16.47      21.17      17.62      20.73      19.45      20.09      19.19      19.87      19.13      0          303.81     -390       -1731      0          35437.93  
2369.8     22.74      16.78      21.44      17.89      20.95      19.67      20.31      19.41      20.07      19.33      0          303.8      -390       -1731      0          35437.75  
2369.9     23.01      17.05      21.65      18.1       21.13      19.85      20.5       19.6       20.22      19.48      1          303.93     -390       -1731      0          35437.55  
2370       23.15      17.19      21.8       18.25      21.26      19.98      20.6       19.7       20.35      19.61      0          303.94     -388       -1732      0          35437.28  
2370.1     23.29      17.33      21.93      18.38      21.36      20.08      20.69      19.79      20.43      19.69      0          303.87     -388       -1732      0          35437.1   
2370.2     23.39      17.43      22.04      18.49      21.44      20.16      20.77      19.87      20.51      19.77      0          303.94     -388       -1733      0          35436.89  
2370.3     23.43      17.47      22.13      18.58      21.54      20.26      20.84      19.94      20.62      19.88      0          303.99     -388       -1734      0          35436.67  
2370.4     23.45      17.49      22.21      18.66      21.64      20.36      20.94      20.04      20.72      19.98      0          304.05     -388       -1735      0          35436.48  
2370.5     23.54      17.58      22.31      18.76      21.77      20.49      21.07      20.17      20.85      20.11      0          304.12     -388       -1736      0          35436.3   
2370.6     23.68      17.72      22.48      18.93      22         20.72      21.26      20.36      21.03      20.29      0          304.28     -388       -1738      0          35436.07  
2370.7     23.85      17.89      22.66      19.11      22.19      20.91      21.48      20.58      21.2       20.46      0          304.41     -388       -1740      0          35435.85  
2370.8     24.03      18.07      22.83      19.28      22.41      21.13      21.68      20.78      21.4       20.66      0          304.34     -388       -1742      0          35435.65  
2370.9     24.25      18.29      23.01      19.46      22.61      21.33      21.95      21.05      21.61      20.87      0          304.47     -388       -1746      0          35435.43  
2371       24.43      18.47      23.21      19.66      22.78      21.5       22.18      21.28      21.82      21.08      0          304.4      -388       -1750      0          35435.23  
2371.1     24.61      18.65      23.41      19.86      22.96      21.68      22.4       21.5       22.03      21.29      0          304.42     -388       -1755      0          35435.02  
2371.2     24.81      18.85      23.6       20.05      23.16      21.88      22.61      21.71      22.21      21.47      0          304.41     -388       -1763      0          35434.8   
2371.3     25.01      19.05      23.8       20.25      23.33      22.05      22.77      21.87      22.43      21.69      0          304.29     -388       -1770      0          35434.61  
2371.4     25.17      19.21      23.99      20.44      23.45      22.17      22.89      21.99      22.6       21.86      0          304.19     -388       -1774      0          35434.4   
2371.5     25.29      19.33      24.08      20.53      23.54      22.26      22.99      22.09      22.73      21.99      0          304.22     -388       -1770      0          35434.23  
2371.6     25.26      19.3       24.07      20.52      23.57      22.29      23.03      22.13      22.84      22.1       0          304.27     -388       -1764      0          35434.01  
2371.7     25.17      19.21      24.01      20.46      23.57      22.29      23.07      22.17      22.93      22.19      0          304.59     -388       -1758      0          35433.82  
2371.8     25.17      19.21      24.08      20.53      23.67      22.39      23.16      22.26      23.04      22.3       0          304.69     -388       -1751      0          35433.63  
2371.9     25.42      19.46      24.31      20.76      23.92      22.64      23.34      22.44      23.17      22.43      0          304.84     -388       -1740      0          35433.41  
2372       25.7       19.74      24.6       21.05      24.14      22.86      23.52      22.62      23.28      22.54      0          304.82     -388       -1741      0          35433.22  
2372.1     25.86      19.9       24.69      21.14      24.21      22.93      23.58      22.68      23.33      22.59      0          304.8      -388       -1743      0          35433.01  
2372.2     25.8       19.84      24.58      21.03      24.05      22.77      23.48      22.58      23.3       22.56      0          304.84     -388       -1747      0          35432.79  
2372.3     25.37      19.41      24.26      20.71      23.78      22.5       23.27      22.37      23.16      22.42      0          305.16     -388       -1752      0          35432.59  
2372.4     25.14      19.18      23.93      20.38      23.56      22.28      23.08      22.18      23         22.26      0          305.41     -388       -1757      0          35432.39  
2372.5     25         19.04      23.84      20.29      23.42      22.14      22.94      22.04      22.86      22.12      0          305.69     -388       -1758      0          35432.17  
2372.6     24.87      18.91      23.75      20.2       23.3       22.02      22.86      21.96      22.74      22         0          305.54     -388       -1750      0          35431.99  
2372.7     24.72      18.76      23.64      20.09      23.22      21.94      22.8       21.9       22.67      21.93      0          305.61     -388       -1740      0          35431.78  
2372.8     24.62      18.66      23.57      20.02      23.16      21.88      22.73      21.83      22.63      21.89      0          305.66     -388       -1737      0          35431.58  
2372.9     24.59      18.63      23.51      19.96      23.11      21.83      22.66      21.76      22.58      21.84      0          305.37     -388       -1738      0          35431.37  
2373       24.54      18.58      23.41      19.86      23.05      21.77      22.6       21.7       22.53      21.79      0          305.51     -388       -1741      0          35431.18  
2373.1     24.49      18.53      23.34      19.79      22.97      21.69      22.53      21.63      22.5       21.76      0          305.57     -388       -1743      0          35430.98  
2373.2     24.43      18.47      23.29      19.74      22.89      21.61      22.47      21.57      22.47      21.73      0          305.51     -388       -1747      0          35430.75  
