~Version
 VERS              .         2.0                           : CWLS LOG ASCII STANDARD - VERSION 2.0
 WRAP              .         NO                            : ONE LINE PER DEPTH STEP
 DLM               .         SPACE                         : DELIMITING CHARACTER(SPACE TAB OR COMMA)
~Well Information
#_______________________________________________________________________________
#
#PARAMETER_NAME    .UNIT     VALUE                         : DESCRIPTION
#_______________________________________________________________________________
STRT               .M        2667.4                        : First reference value
STOP               .M        2776                          : Last reference value
STEP               .M        0.2000002                     : Step increment
NULL               .         -9999                         : Missing value
COMP               .                                       : Company
WELL               .         616                           : Well name
FLD                .                                       : Field
LOC                .                                       : Location
CNTY               .                                       : County
STAT               .                                       : State
CTRY               .                                       : Country
SRVC               .                                       : Service Company
DATE               .                                       : Date
API                .                                       : API number
PROJECT_UPGRADE_TIME .         2021-03-18T21_24_50           : 
group              .         Good                          : 
~Parameter Information Block
#_______________________________________________________________________________
#
#PARAMETER_NAME    .UNIT     VALUE                         : DESCRIPTION
#_______________________________________________________________________________
SET                .         D1800_D                       : 
OTHER              .         Программное обеспечение станции MONITOR-386EX 25/12/99 15_08_10   BGF V52 22/08/01 16_56_30   3.1_SNGF___BGF_N_092049: 
OTHER_10           .         Тарировки_                    : 
OTHER_11           .         TM.GRD = 0.00403*TM$.UE + -1.07: 
OTHER_12           .         MN.ATM = (9.34907e-006*TM.GRD + 0.02171)*(MN$.UE + -7.93*TM.GRD + -1787): 
OTHER_13           .         GK.MKR/H = LM. / 42.4676      : 
OTHER_14           .         GK.FLT = 0.1*GK.MKR/H[-1] + (1-0.1)*GK.MKR/H[0]: 
OTHER_2            .         Kedr.exe версия 3.4.2.51      : 
OTHER_3            .         KedrData.dll версия 3.4.2.24  : 
OTHER_4            .         Драйвер версия 2.1.1.3        : 
OTHER_5            .         Мнемоники версия 3.3 S        : 
OTHER_6            .         Прибор_ КСА-Т4                : 
OTHER_7            .         Номер прибора_ 03             : 
OTHER_8            .         Режим_ КСА-Т4                 : 
OTHER_9            .         Форма_ КВА.                   : 
PROJECT_UPGRADE_TIME .         2021-03-18T21_24_49           : 
TLFamily_DEPT      .         Measured Depth                : 
TLFamily_GK        .         Gamma Ray                     : 
TLFamily_GK$       .                                       : 
TLFamily_GK_2      .         Gamma Ray                     : 
TLFamily_LM        .         Casing Collar locator         : 
TLFamily_METKA     .                                       : 
TLFamily_MN        .                                       : 
TLFamily_MN$       .                                       : 
TLFamily_RCOR      .                                       : 
TLFamily_SPID      .         Spontaneous Potential         : 
TLFamily_TENS      .         Cable Tension                 : 
TLFamily_TIME      .         Time                          : 
TLFamily_TM        .         Temperature                   : 
TLFamily_TM$       .         Temperature                   : 
group              .         prim                          : 
~Curve Information
#_______________________________________________________________________________
#
#LOGNAME           .UNIT     LOG_ID                        : DESCRIPTION
#_______________________________________________________________________________
DEPT               .M                                      : 1 Глубина, м -    0.0 см 
GK                 .MKR/H                                  : 13 Гамма-активность, мкр./ч -  110.0 см 
GK$                .UE                                     : 10 Гамма-активность, усл.ед. -  110.0 см 
GK_2               .FLT                                    : 14 Гамма-активность фильтрованная, мкр./ч -  110.0 см 
LM                 .                                       : 9 Локатор муфт,  -   20.0 см 
METKA              .                                       : 3 Метки,  -    0.0 см 
MN                 .ATM                                    : 12 Давление, атм. -  160.0 см 
MN$                .UE                                     : 8 Давление, усл.ед. -  160.0 см 
RCOR               .CM/KM                                  : 5 Коррекция по ролику, см/км -    0.0 см 
SPID               .M/H                                    : 2 Скорость, м/час -    0.0 см 
TENS               .T                                      : 6 Натяжение кабеля, т -    0.0 см 
TIME               .S                                      : 4 Время, сек -    0.0 см 
TM                 .GRD                                    : 11 Температура, °C -  170.0 см 
TM$                .UE                                     : 7 Температура, усл.ед. -  170.0 см 
~Ascii
# ...
2677.8     7.46       317        7.46       64         0          245.019    13219      -666       -228       0.17       7557.14    46.156     11718     
2678       7.37       313        7.34       71         0          245.03     13219      -666       -234       0.17       7554.14    46.139     11715     
2678.2     7.25       308        7.25       66         0          245.063    13221      -666       -226       0.17       7550.94    46.141     11715     
2678.4     6.62       281        6.6        85         0          245.064    13221      -666       -224       0.17       7547.75    46.137     11714     
2678.6     5.96       253        6.11       129        0          245.087    13222      -666       -223       0.17       7544.75    46.125     11711     
2678.8     7.23       307        7.23       86         0          245.109    13223      -666       -231       0.16       7541.56    46.119     11709     
2679       7.02       298        7.02       119        0          245.131    13224      -666       -239       0.17       7538.38    46.111     11707     
2679.2     7.06       300        7.06       92         0          245.138    13224      -666       -237       0.17       7535.23    46.119     11710     
2679.4     7.06       300        7.09       82         0          245.152    13225      -666       -235       0.17       7532.17    46.125     11711     
2679.6     7.54       320        7.54       92         0          245.174    13226      -666       -232       0.17       7529.11    46.137     11714     
2679.8     7.61       323        7.61       115        0          245.207    13228      -666       -230       0.17       7525.98    46.145     11716     
2680       7.63       324        7.62       74         2          245.241    13229      -660       -227       0.17       7521.97    46.141     11715     
2680.2     7.44       316        7.48       84         0          245.244    13229      -660       -226       0.17       7518.84    46.113     11708     
2680.4     8.09       344        8.24       83         0          245.255    13229      -660       -232       0.17       7515.59    46.089     11702     
2680.6     8.69       369        8.68       72         0          245.288    13231      -660       -233       0.17       7512.46    46.065     11696     
2680.8     7.56       321        7.56       151        0          245.266    13230      -660       -236       0.17       7509.33    46.085     11701     
2681       7.77       330        7.89       1795       0          245.332    13233      -660       -235       0.17       7506.27    46.091     11702     
2681.2     8.97       381        8.97       124        0          245.332    13233      -660       -223       0.17       7503.08    46.101     11705     
2681.4     9.47       402        9.39       81         0          245.353    13234      -660       -228       0.17       7500.08    46.101     11705     
2681.6     8.74       371        8.79       71         0          245.377    13235      -660       -224       0.17       7496.9     46.105     11706     
2681.8     10.2       433        10.2       92         0          245.4      13236      -660       -230       0.17       7493.61    46.077     11699     
2682       9.98       424        9.98       107        0          245.424    13237      -660       -234       0.17       7490.58    46.054     11693     
2682.2     9.21       391        9.25       70         0          245.425    13237      -660       -230       0.17       7487.53    46.037     11689     
2682.4     9.61       408        9.27       67         0          245.471    13239      -660       -231       0.17       7484.3     46.029     11687     
2682.6     8.19       348        8.2        66         0          245.495    13240      -660       -236       0.17       7481.25    46.003     11681     
2682.8     8.78       373        8.79       56         0          245.521    13241      -660       -230       0.19       7478.08    45.969     11672     
2683       9          382        9.03       60         0          245.521    13241      -660       -232       0.17       7474.98    45.928     11662     
2683.2     9.32       396        9.36       75         0          245.544    13242      -660       -222       0.17       7471.94    45.922     11661     
2683.4     9.54       405        9.54       61         0          245.588    13244      -660       -230       0.17       7468.77    45.914     11659     
2683.6     9.98       424        9.97       68         0          245.589    13244      -660       -232       0.17       7465.53    45.92      11660     
2683.8     9.14       388        9.1        60         0          245.612    13245      -660       -234       0.17       7462.42    45.904     11656     
2684       8.79       373        9.26       58         0          245.619    13245      -660       -235       0.17       7459.33    45.9       11655     
2684.2     10.34      439        10.34      61         0          245.645    13247      -660       -232       0.17       7456.22    45.906     11657     
2684.4     9.82       417        9.81       58         0          245.681    13248      -660       -232       0.17       7453.11    45.878     11650     
2684.6     9.18       390        9.15       70         0          245.682    13248      -660       -233       0.17       7450       45.847     11642     
2684.8     8.74       371        8.9        79         0          245.705    13249      -660       -239       0.17       7446.77    45.839     11640     
2685       8.83       375        8.83       70         0          245.729    13250      -660       -230       0.17       7443.61    45.823     11636     
2685.2     8.59       365        8.61       69         0          245.75     13251      -660       -236       0.17       7440.63    45.819     11635     
2685.4     9.75       414        9.78       67         0          245.773    13252      -660       -227       0.17       7437.45    45.819     11635     
2685.6     9.96       423        9.72       63         0          245.78     13252      -660       -228       0.17       7434.28    45.815     11634     
2685.8     9.3        395        9.3        71         0          245.794    13253      -660       -233       0.17       7431.23    45.819     11635     
2686       9.65       410        9.66       63         0          245.839    13255      -660       -227       0.17       7428.14    45.819     11635     
2686.2     9.91       421        9.94       72         0          245.841    13255      -660       -228       0.17       7424.97    45.815     11634     
2686.4     10.15      431        10.04      118        0          245.864    13256      -660       -234       0.17       7421.8     45.783     11626     
2686.6     9.65       410        9.65       117        0          245.887    13257      -660       -230       0.17       7418.56    45.781     11626     
2686.8     9.68       411        9.67       140        0          245.912    13258      -660       -225       0.17       7415.45    45.748     11617     
2687       9.4        399        9.38       148        0          245.934    13259      -660       -226       0.17       7412.48    45.73      11613     
2687.2     9.04       384        9.06       73         0          245.945    13259      -660       -224       0.17       7409.25    45.734     11614     
2687.4     10.13      430        10.13      98         0          245.971    13261      -660       -228       0.17       7406.14    45.73      11613     
2687.6     10.55      448        10.56      195        0          245.978    13261      -660       -227       0.17       7403.03    45.73      11613     
2687.8     10.95      465        10.92      115        0          246        13262      -660       -237       0.17       7399.8     45.73      11613     
2688       10.76      457        10.46      81         0          246.022    13263      -660       -237       0.17       7396.64    45.734     11614     
