~Version
 VERS              .         2.0                           : CWLS LOG ASCII STANDARD - VERSION 2.0
 WRAP              .         NO                            : ONE LINE PER DEPTH STEP
 DLM               .         SPACE                         : DELIMITING CHARACTER(SPACE TAB OR COMMA)
~Well Information
#_______________________________________________________________________________
#
#PARAMETER_NAME    .UNIT     VALUE                         : DESCRIPTION
#_______________________________________________________________________________
STRT               .M        2698                          : First reference value
STOP               .M        2752.199946                   : Last reference value
STEP               .M        0.1999998                     : Step increment
NULL               .         -9999                         : Missing value
COMP               .                                       : Company
WELL               .         616                           : Well name
FLD                .                                       : Field
LOC                .                                       : Location
CNTY               .                                       : County
STAT               .                                       : State
CTRY               .                                       : Country
SRVC               .                                       : Service Company
DATE               .                                       : Date
API                .                                       : API number
PROJECT_UPGRADE_TIME .         2021-03-18T21_24_50           : 
group              .         Good                          : 
~Parameter Information Block
#_______________________________________________________________________________
#
#PARAMETER_NAME    .UNIT     VALUE                         : DESCRIPTION
#_______________________________________________________________________________
SET                .         D1802_D_2                     : 
NPR                .                                       : 
OTHER              .         Программное обеспечение станции MONITOR-386EX 25/12/99 15_08_10   BGF V52 22/08/01 16_56_30   3.1_SNGF___BGF_N_092049: 
OTHER_10           .         Тарировки_                    : 
OTHER_11           .         TM.GRD = 0.00403*TM$.UE + -1.07: 
OTHER_12           .         MN.ATM = (9.34907e-006*TM.GRD + 0.02171)*(MN$.UE + -7.93*TM.GRD + -1787): 
OTHER_13           .         GK.MKR/H = LM. / 42.4676      : 
OTHER_14           .         GK.FLT = 0.1*GK.MKR/H[-1] + (1-0.1)*GK.MKR/H[0]: 
OTHER_2            .         Kedr.exe версия 3.4.2.51      : 
OTHER_3            .         KedrData.dll версия 3.4.2.24  : 
OTHER_4            .         Драйвер версия 2.1.1.3        : 
OTHER_5            .         Мнемоники версия 3.3 S        : 
OTHER_6            .         Прибор_ КСА-Т4                : 
OTHER_7            .         Номер прибора_ 03             : 
OTHER_8            .         Режим_ КСА-Т4                 : 
OTHER_9            .         Форма_ КВА.                   : 
PR                 .                                       : 
PROJECT_UPGRADE_TIME .         2021-03-18T21_24_49           : 
PRTY               .         ПП-603-1                      : N партии
SRV                .                                       : 
SRVC               .         Карпов                        : Начальник партии
TLFamily_DEPT      .         Measured Depth                : 
TLFamily_GK        .         Gamma Ray                     : 
TLFamily_LM        .         Casing Collar locator         : 
group              .         second                        : 
~Curve Information
#_______________________________________________________________________________
#
#LOGNAME           .UNIT     LOG_ID                        : DESCRIPTION
#_______________________________________________________________________________
DEPT               .M                                      : Depth curve 
GK                 .мкР/час                                : Естественная гамма-активность,мкР/ч 
LM                 .е.ацп                                  : Локатор муфт,е.ацп 
~Ascii
2698.0000000 -9999      -9999     
2698.2     -9999      -9999     
2698.4     -9999      -9999     
2698.599999 -9999      77        
2698.799999 -9999      54        
2698.999999 -9999      55        
2699.199999 -9999      58        
2699.399999 8.17       87        
2699.599998 8.64       98        
2699.799998 9.84       103       
2699.999998 8.67       110       
2700.199998 9.02       159       
2700.399998 9.68       74        
2700.599997 9.63       60        
2700.799997 9.89       60        
2700.999997 10.34      61        
2701.199997 10.24      50        
2701.399997 10.83      117       
2701.599996 10.24      61        
2701.799996 10.69      60        
2701.999996 8.22       123.001   
2702.199996 10.2       2053.999  
2702.399996 10.05      112       
2702.599995 10.03      111       
2702.799995 10.31      55        
2702.999995 9.87       49        
2703.199995 10.38      66        
2703.399995 10.31      59        
2703.599994 9.68       85        
2703.799994 10.2       50        
2703.999994 10.55      57        
2704.199994 9.98       127       
2704.399994 10.48      48        
2704.599993 11.87      57        
2704.799993 11.09      87        
2704.999993 11.3       102       
2705.199993 11.44      78        
2705.399993 11.16      70        
2705.599992 10.27      75        
2705.799992 10.1       53        
2705.999992 10.22      75        
2706.199992 9.73       96        
2706.399992 10.81      62        
2706.599991 11         54        
2706.799991 11.59      52        
2706.999991 11.04      54        
2707.199991 12.1       70        
2707.399991 11.77      73        
2707.59999 11.09      82        
2707.79999 10.83      88        
2707.99999 12.22      67        
2708.19999 12.53      69        
2708.39999 11.18      64        
2708.599989 11.89      69        
2708.799989 11.61      73        
2708.999989 11.8       119       
2709.199989 12.15      97        
2709.399989 11.3       95        
2709.599988 12.43      69        
2709.799988 12.41      69        
2709.999988 10.74      107       
2710.199988 10.48      74        
2710.399988 10.03      70        
2710.599987 9.84       101       
2710.799987 9.72       74        
2710.999987 10.95      70        
2711.199987 13.38      100       
2711.399987 14.93      101       
2711.599986 14.29      105       
2711.799986 11.63      107       
2711.999986 10.88      84        
2712.199986 14.69      50        
2712.399986 15.26      83        
2712.599985 15.26      123       
2712.799985 12.62      109       
2712.999985 9.86       74        
2713.199985 7.61       151.002   
2713.399985 7.7        1665.998  
2713.599984 8.29       86        
2713.799984 7.89       100       
2713.999984 7.72       70        
2714.199984 7.37       74        
2714.399984 8.92       60        
2714.599983 12.43      54        
2714.799983 14.83      63        
2714.999983 17.02      64        
2715.199983 17.17      64        
2715.399983 11.16      91        
2715.599982 9.56       70        
2715.799982 10.4       56        
2715.999982 10.24      72        
2716.199982 9.72       104       
2716.399982 10.03      124       
2716.599981 9.7        90        
2716.799981 9.54       52        
2716.999981 9.44       59        
2717.199981 11.23      76        
2717.399981 11.4       68        
2717.59998 10.36      65        
2717.79998 10.5       60        
2717.99998 10.6       91        
2718.19998 10.01      148       
2718.39998 10.74      136       
2718.599979 11.35      154       
2718.799979 11.54      65        
2718.999979 10.05      99        
2719.199979 10.46      89        
2719.399979 10.29      111       
2719.599978 10.78      111       
2719.799978 11.11      146       
2719.999978 10.67      160       
2720.199978 10.62      77        
2720.399978 9.68       56        
2720.599977 9.47       107       
2720.799977 9.61       71        
2720.999977 10.5       73        
2721.199977 9.98       83        
2721.399977 11.11      68        
2721.599976 11.18      92        
2721.799976 11.8       74        
2721.999976 11.7       101       
2722.199976 11.28      72        
2722.399976 11.73      106       
2722.599975 9.3        100       
2722.799975 7.53       107       
2722.999975 6.78       84        
2723.199975 7.49       91        
2723.399975 6.55       119       
2723.599974 7.61       227       
2723.799974 7.25       138       
2723.999974 6.88       255.002   
2724.199974 7.25       1047.998  
2724.399974 7.91       203       
2724.599973 8.47       98        
2724.799973 8.17       166       
2724.999973 7.59       193       
2725.199973 8.1        168       
2725.399973 8.27       62        
2725.599972 6.81       69        
2725.799972 6.97       79        
2725.999972 6.62       71        
2726.199972 7.3        55        
2726.399972 7.86       58        
2726.599971 7.58       71        
2726.799971 6.85       86        
2726.999971 9.07       125       
2727.199971 10.95      195       
2727.399971 11.07      191       
2727.59997 10.64      397.999   
2727.79997 11.82      85        
2727.99997 10.95      288       
2728.19997 11.82      108       
2728.39997 8.31       202       
2728.599969 7.46       166       
2728.799969 7.35       112       
2728.999969 7.37       127       
2729.199969 6.94       137       
2729.399969 6.05       154       
2729.599968 6.29       186       
2729.799968 6.85       150       
2729.999968 6.88       125       
2730.199968 7.23       102.002   
2730.399968 6.98       1082.999  
2730.599967 7.46       671       
2730.799967 6.66       722.998   
2730.999967 6.43       107       
2731.199967 7.21       79        
2731.399967 7.46       84        
2731.599966 7.84       81        
2731.799966 8.48       128       
2731.999966 8.38       97        
2732.199966 7.72       91        
2732.399966 7.18       109       
2732.599965 7.72       94        
2732.799965 7.42       94        
2732.999965 7.39       129       
2733.199965 7.49       76        
2733.399965 7.98       113       
2733.599964 8.81       83        
2733.799964 8.97       188       
2733.999964 8.76       62        
2734.199964 8.69       73        
2734.399964 8.57       85        
2734.599963 8.01       86        
2734.799963 8.41       84        
2734.999963 8.75       67        
2735.199963 6.31       82.004    
2735.399963 6.38       1629.996  
2735.599962 7.77       273.999   
2735.799962 6.99       77        
2735.999962 8.01       59        
2736.199962 8.27       70        
2736.399962 8.16       73        
2736.599961 8.64       79        
2736.799961 8.01       97        
2736.999961 7.77       105       
2737.199961 8.43       55        
2737.399961 8.24       62        
2737.59996 8.48       70        
2737.79996 7.92       71        
2737.99996 8.12       81        
2738.19996 8.36       84        
2738.39996 9.44       76        
2738.599959 11.21      69        
2738.799959 13.23      95        
2738.999959 13.63      72        
2739.199959 13.21      102       
2739.399959 13.85      59        
2739.599958 14.23      59        
2739.799958 15.78      95        
2739.999958 16.18      68        
2740.199958 15.94      66        
2740.399958 15.66      53        
2740.599957 16.41      97        
2740.799957 14.44      71        
2740.999957 13.33      106       
2741.199957 13.23      57        
2741.399957 12.2       100       
2741.599956 11.21      101       
2741.799956 10.6       71        
2741.999956 10.76      65        
2742.199956 11.63      93        
2742.399956 10.31      69        
2742.599955 10.2       86        
2742.799955 10.71      60        
2742.999955 11.66      78        
2743.199955 11.54      98        
2743.399955 10.33      73        
2743.599954 9.14       71        
2743.799954 9.54       76        
2743.999954 11.16      118       
2744.199954 10.2       68        
2744.399954 10.41      71        
2744.599953 10.36      150       
2744.799953 10.33      167       
2744.999953 9.4        65        
