~Version
 VERS              .         2.0                           : CWLS LOG ASCII STANDARD - VERSION 2.0
 WRAP              .         NO                            : ONE LINE PER DEPTH STEP
 DLM               .         SPACE                         : DELIMITING CHARACTER(SPACE TAB OR COMMA)
~Well Information
#_______________________________________________________________________________
#
#PARAMETER_NAME    .UNIT     VALUE                         : DESCRIPTION
#_______________________________________________________________________________
STRT               .M        2310.8                        : First reference value
STOP               .M        2792.2                        : Last reference value
STEP               .M        0.2                           : Step increment
NULL               .         -9999                         : Missing value
COMP               .                                       : Company
WELL               .         616                           : Well name
FLD                .                                       : Field
LOC                .                                       : Location
CNTY               .                                       : County
STAT               .                                       : State
CTRY               .                                       : Country
SRVC               .                                       : Service Company
DATE               .                                       : Date
API                .                                       : API number
PROJECT_UPGRADE_TIME .         2021-03-18T21_24_50           : 
group              .         Good                          : 
~Parameter Information Block
#_______________________________________________________________________________
#
#PARAMETER_NAME    .UNIT     VALUE                         : DESCRIPTION
#_______________________________________________________________________________
SET                .         D2660_D                       : 
OTHER              .         Программное обеспечение станции MONITOR-386EX 25/12/99 15_08_10   BGF V50 26/12/00 07_26_01   3.1_SNGF___BGF_N_092085: 
OTHER_10           .         Тарировки_                    : 
OTHER_2            .         Kedr.exe версия 3.3.2.32      : 
OTHER_3            .         KedrData.dll версия 3.3.2.17  : 
OTHER_4            .         Драйвер версия 2.1.0.1        : 
OTHER_5            .         Мнемоники версия 3.3 S        : 
OTHER_6            .         Прибор_ ПС                    : 
OTHER_7            .         Номер прибора_ 348\072        : 
OTHER_8            .         Режим_ ПС                     : 
OTHER_9            .         Форма_ ПС                     : 
PROJECT_UPGRADE_TIME .         2021-03-18T21_24_49           : 
TLFamily_DEPT      .         Measured Depth                : 
TLFamily_METKA     .                                       : 
TLFamily_PS        .         Spontaneous Potential         : 
TLFamily_RCOR      .                                       : 
TLFamily_SPID      .         Spontaneous Potential         : 
TLFamily_TENS      .         Cable Tension                 : 
TLFamily_TIME      .         Time                          : 
group              .         prim                          : 
~Curve Information
#_______________________________________________________________________________
#
#LOGNAME           .UNIT     LOG_ID                        : DESCRIPTION
#_______________________________________________________________________________
DEPT               .M                                      : 1 Глубина, м -    0.0 см 
METKA              .                                       : 3 Метки,  -    0.0 см 
PS                 .mV                                     : 7 ПС, мВ - 1210.0 см 
RCOR               .CM/KM                                  : 5 Коррекция по ролику, см/км -    0.0 см 
SPID               .M/H                                    : 2 Скорость, м/час -    0.0 см 
TENS               .T                                      : 6 Натяжение кабеля, т -    0.0 см 
TIME               .S                                      : 4 Время, сек -    0.0 см 
~Ascii
# ...
2560.4     0          540.25     -380       -2050      0          30271.76  
2560.6     0          540.18     -380       -2050      0          30271.41  
2560.8     0          540.21     -380       -2051      0          30271.06  
2561       0          540.6      -380       -2055      0          30270.69  
2561.2     0          540.76     -380       -2081      0          30270.36  
2561.4     0          540.77     -380       -2089      0          30270     
2561.6     0          540.34     -380       -1990      0          30269.67  
2561.8     0          540.85     -380       -2003      0          30269.33  
2562       0          540.63     -380       -2056      0          30268.98  
2562.2     0          542.42     -380       -2090      0          30268.63  
2562.4     0          543.31     -380       -2097      0          30268.27  
2562.6     0          543.03     -380       -2050      0          30267.9   
2562.8     0          542.91     -380       -2050      0          30267.57  
2563       0          542.23     -380       -2050      0          30267.23  
2563.2     0          543.27     -380       -2050      0          30266.88  
2563.4     0          542.54     -380       -2051      0          30266.54  
2563.6     0          543.71     -380       -2057      0          30266.18  
2563.8     0          543.33     -380       -2091      0          30265.84  
2564       0          543.78     -380       -2108      0          30265.49  
2564.2     0          542.03     -380       -2100      0          30265.14  
2564.4     0          541.99     -380       -2046      0          30264.8   
2564.6     0          542.6      -380       -1989      0          30264.45  
2564.8     0          542.57     -380       -2037      0          30264.11  
2565       0          542.19     -380       -2050      0          30263.75  
2565.2     0          542.86     -380       -2050      0          30263.4   
2565.4     0          541.75     -380       -2052      0          30263.05  
2565.6     0          539.56     -380       -2061      0          30262.7   
2565.8     0          540.87     -380       -2106      0          30262.36  
2566       0          541.2      -380       -2088      0          30262.03  
2566.2     0          540.86     -380       -2050      0          30261.66  
2566.4     0          541.53     -380       -2052      0          30261.33  
2566.6     0          541.79     -380       -2064      0          30260.99  
2566.8     0          542.19     -380       -2098      0          30260.62  
2567       0          540.23     -380       -2039      0          30260.29  
2567.2     0          539        -380       -1994      0          30259.94  
2567.4     0          540        -380       -2050      0          30259.6   
2567.6     0          540.4      -380       -2050      0          30259.25  
2567.8     0          542.34     -380       -2050      0          30258.91  
2568       0          542.06     -380       -2053      0          30258.53  
2568.2     0          542.5      -380       -2067      0          30258.18  
2568.4     0          541.99     -380       -2110      0          30257.85  
2568.6     0          540.47     -380       -2108      0          30257.49  
2568.8     0          538.43     -380       -2100      0          30257.17  
2569       0          538.3      -380       -2050      0          30256.82  
2569.2     0          535.5      -380       -2050      0          30256.48  
2569.4     0          524.78     -380       -2050      0          30256.13  
2569.6     0          512.31     -380       -2050      0          30255.78  
2569.8     1          510.4      -380       -2050      0          30255.44  
2570       0          509.98     -378       -2050      0          30255.04  
2570.2     0          507.1      -378       -2050      0          30254.67  
2570.4     0          502.69     -378       -2051      0          30254.36  
2570.6     0          501.34     -378       -2055      0          30253.98  
2570.8     0          501.88     -378       -2079      0          30253.64  
2571       0          490.46     -378       -2110      0          30253.31  
2571.2     0          480.63     -378       -2107      0          30252.94  
2571.4     0          473.57     -378       -2095      0          30252.62  
2571.6     0          469.39     -378       -2050      0          30252.27  
2571.8     0          466.23     -378       -2048      0          30251.92  
2572       0          465.41     -378       -2040      0          30251.58  
2572.2     0          464.98     -378       -1984      0          30251.23  
2572.4     0          466.22     -378       -2004      0          30250.89  
2572.6     0          466.71     -378       -2057      0          30250.53  
2572.8     0          466.89     -378       -2104      0          30250.15  
2573       0          467.13     -378       -2108      0          30249.82  
2573.2     0          467.88     -378       -2098      0          30249.46  
2573.4     0          467.72     -378       -2043      0          30249.14  
2573.6     0          468.66     -378       -1993      0          30248.8   
2573.8     0          468.53     -378       -2053      0          30248.45  
2574       0          468.96     -378       -2072      0          30248.1   
2574.2     0          470.3      -378       -2103      0          30247.73  
2574.4     0          470.38     -378       -2066      0          30247.39  
2574.6     0          470.44     -378       -2035      0          30247.05  
2574.8     0          471.74     -378       -1989      0          30246.7   
2575       0          474.23     -378       -2039      0          30246.36  
2575.2     0          478.69     -378       -2092      0          30246     
2575.4     0          488.49     -378       -1993      0          30245.66  
2575.6     0          507.22     -378       -2021      0          30245.31  
2575.8     0          521.08     -378       -2110      0          30244.96  
2576       0          506.71     -378       -2108      0          30244.61  
2576.2     0          501.85     -378       -2095      0          30244.26  
2576.4     0          508.14     -378       -2046      0          30243.95  
2576.6     0          516.43     -378       -2020      0          30243.58  
2576.8     0          507.51     -378       -1998      0          30243.26  
2577       0          514.59     -378       -2100      0          30242.9   
2577.2     0          522.32     -378       -2086      0          30242.53  
2577.4     0          502.36     -378       -2038      0          30242.18  
2577.6     0          490.48     -378       -1979      0          30241.86  
2577.8     0          487.93     -378       -1932      0          30241.5   
2578       0          495.77     -378       -1984      0          30241.13  
2578.2     0          516.13     -378       -2009      0          30240.78  
2578.4     0          534.76     -378       -2040      0          30240.42  
2578.6     0          537.76     -378       -1984      0          30240.07  
2578.8     0          538.15     -378       -2007      0          30239.69  
2579       0          536.05     -378       -2050      0          30239.33  
2579.2     0          533.21     -378       -2047      0          30238.98  
2579.4     0          518.13     -378       -2028      0          30238.63  
2579.6     0          509.88     -378       -1980      0          30238.28  
2579.8     1          524.38     -378       -1980      0          30237.94  
2580       0          531.56     -376       -1980      0          30237.54  
2580.2     0          521.2      -376       -1980      0          30237.19  
2580.4     0          522.3      -376       -1982      0          30236.83  
2580.6     0          534.43     -376       -1992      0          30236.48  
2580.8     0          536.06     -376       -2045      0          30236.09  
2581       0          537.8      -376       -2017      0          30235.74  
