~Version
 VERS              .         2.0                           : CWLS LOG ASCII STANDARD - VERSION 2.0
 WRAP              .         NO                            : ONE LINE PER DEPTH STEP
 DLM               .         SPACE                         : DELIMITING CHARACTER(SPACE TAB OR COMMA)
~Well Information
#_______________________________________________________________________________
#
#PARAMETER_NAME    .UNIT     VALUE                         : DESCRIPTION
#_______________________________________________________________________________
STRT               .M        2645.2                        : First reference value
STOP               .M        2753.000054                   : Last reference value
STEP               .M        0.2000001                     : Step increment
NULL               .         -9999                         : Missing value
COMP               .                                       : Company
WELL               .         616                           : Well name
FLD                .                                       : Field
LOC                .                                       : Location
CNTY               .                                       : County
STAT               .                                       : State
CTRY               .                                       : Country
SRVC               .                                       : Service Company
DATE               .                                       : Date
API                .                                       : API number
PROJECT_UPGRADE_TIME .         2021-03-18T21_24_50           : 
group              .         Good                          : 
~Parameter Information Block
#_______________________________________________________________________________
#
#PARAMETER_NAME    .UNIT     VALUE                         : DESCRIPTION
#_______________________________________________________________________________
SET                .         D4407_D                       : 
OTHER              .         Запись производится в присутствии: 
OTHER_10           .         Максимальная температура      : 
OTHER_11           .         Тип промывочной жидкости      : 
OTHER_12           .         Сопротивление ПЖ (Ом*м) при 20°C: 
OTHER_13           .         Плотность ПЖ(г/см3)           : 
OTHER_14           .         Вязкость ПЖ(с)                : 
OTHER_15           .         Водоотдача ПЖ(см3/30мин)      : 
OTHER_16           .         Уровень ПЖ                    : 
OTHER_17           .         Нефть ПЖ (%)                  : 
OTHER_18           .         Барит ПЖ (%)                  : 
OTHER_19           .         Гематит ПЖ (%)                : 
OTHER_2            .         Заказчик ННСН  ЦДНГ-1         : 
OTHER_20           .         КМЦ ПЖ (%)                    : 
OTHER_21           .         Разгазирование ПЖ (да,нет)    : 
OTHER_22           .         Подъемник                     : 
OTHER_23           .         Лаборатория                   : 
OTHER_24           .         Тип кабеля                    : 
OTHER_25           .         Длина кабеля (м)              : 
OTHER_26           .         Цена последней метки          : 
OTHER_27           .         Цена контрольной метки        : 
OTHER_28           .         Диаметр долота (мм)           : 
OTHER_29           .         Глубина бурения (м)           : 
OTHER_3            .         Площадь                       : 
OTHER_30           .         Искусственный забой (м)       : 
OTHER_31           .         Диаметр колонны (мм)          : 
OTHER_32           .         Толщина колонны (мм)          : 
OTHER_33           .         Башмак колонны (м)            : 
OTHER_34           .         Диаметр НКТ (мм)              : 
OTHER_35           .         Толщина НКТ (мм)              : 
OTHER_36           .         Воронка НКТ (м)               : 
OTHER_37           .         Дата цементожа                : 
OTHER_38           .         Тип, количество(т) и плотность цемента: 
OTHER_39           .         Интервалы перфорации (м)      : 
OTHER_4            .         Категория                     : 
OTHER_40           .         Направление, диаметр (мм)     : 
OTHER_41           .         Направление, глубина (м)      : 
OTHER_42           .         Кондуктор, диаметр (мм)       : 
OTHER_43           .         Кондуктор, глубина (м)        : 
OTHER_44           .         Техническая колонна, диаметр (мм): 
OTHER_45           .         Техническая колонна, глубина (м): 
OTHER_46           .         Эксплуатационная колонна, диаметр (мм): 
OTHER_47           .         Эксплуатационная колонна, глубина (м): 
OTHER_48           .         Программа Кедр-02 версия 3.4  : 
OTHER_49           .         Операционная система Windows NT 5.1 build 2600 Service Pack 2: 
OTHER_5            .         Назначение исследований       : 
OTHER_50           .         Программное обеспечение станции MONITOR-386EX 25/12/99 15_08_10   BGF V54 20/09/05 15_32_17   3.3__BGF_9030071: 
OTHER_51           .         Kedr.exe версия 3.4.2.74      : 
OTHER_52           .         KedrData.dll версия 3.4.2.29  : 
OTHER_53           .         Мнемоники версия 3.18 S       : 
OTHER_54           .         Драйвер версия 2.1.1.4        : 
OTHER_55           .         LasInf.dll 4.3.0.35           : 
OTHER_56           .         Прибор_ КСА-Т4                : 
OTHER_57           .         Номер прибора_ 160            : 
OTHER_58           .         Режим_ КСА-Т4                 : 
OTHER_59           .         Форма_ С.А.Б.                 : 
OTHER_6            .         Альтитуда стола ротора        : 
OTHER_60           .         Тарировки_                    : 
OTHER_61           .         <_techsia_sc_> Дата тарировки температуры 25.05.2010: 
OTHER_62           .         Ручной ввод коэффициентов     : 
OTHER_63           .         TM.DEGC = 0.00402*RTM.E.ACP + -0.994: 
OTHER_64           .         <_techsia_sc_> Дата тарировки давления 25.05.2010: 
OTHER_65           .         Ручной ввод коэффициентов     : 
OTHER_66           .         MN.ATM = (2.27521e-006*TM.DEGC + 0.02078)*(RMN.E.ACP + 6.2*TM.DEGC + -1688): 
OTHER_67           .         <_techsia_sc_> Дата тарировки ГК 25.05.2010: 
OTHER_68           .         Ручной ввод коэффициентов     : 
OTHER_69           .         GR.UR/H = RGR.IMP/MIN / 45.5144: 
OTHER_7            .         Вид исследований 3  6         : 
OTHER_70           .         GK.FLT = 0.1*GR.UR/H[-1] + (1-0.1)*GR.UR/H[0]: 
OTHER_8            .         Начало бурения интервала каротажа: 
OTHER_9            .         Окончание бурения интервала каротажа: 
PROJECT_UPGRADE_TIME .         2021-03-18T21_24_50           : 
TLFamily_CCLC      .                                       : 
TLFamily_DEPT      .         Measured Depth                : 
TLFamily_GK        .         Gamma Ray                     : 
TLFamily_GR        .         Gamma Ray                     : 
TLFamily_METKA     .                                       : 
TLFamily_MN        .                                       : 
TLFamily_RCOR      .                                       : 
TLFamily_RGR       .                                       : 
TLFamily_RMN       .                                       : 
TLFamily_RTEN      .                                       : 
TLFamily_RTM       .                                       : 
TLFamily_SPEE      .         Cable Speed                   : 
TLFamily_TIME      .         Time                          : 
TLFamily_TM        .         Temperature                   : 
group              .         prim                          : 
~Curve Information
#_______________________________________________________________________________
#
#LOGNAME           .UNIT     LOG_ID                        : DESCRIPTION
#_______________________________________________________________________________
DEPT               .M                                      : 1 Глубина, м -    0.0 см 
CCLC               .E.ACP                                  : 9 Локатор муфт,  -   20.0 см 
GK                 .FLT                                    : 14 Гамма-активность фильтрованная, мкр./ч -  110.0 см 
GR                 .UR/H                                   : 13 Гамма-активность, мкр./ч -  110.0 см 
METKA              .CU                                     : 3 Метки,  -    0.0 см 
MN                 .ATM                                    : 12 Давление, атм. -  160.0 см 
RCOR               .CM/KM                                  : 5 Коррекция по ролику, см/км -    0.0 см 
RGR                .IMP/MIN                                : 10 Гамма-активность, усл.ед. -  110.0 см 
RMN                .E.ACP                                  : 8 Давление, усл.ед. -  160.0 см 
RTEN               .T                                      : 6 Натяжение кабеля, т -    0.0 см 
RTM                .E.ACP                                  : 7 Температура, усл.ед. -  170.0 см 
SPEE               .M/H                                    : 2 Скорость, м/час -    0.0 см 
TIME               .S                                      : 4 Время, сек -    0.0 см 
TM                 .DEGC                                   : 11 Температура, °C -  170.0 см 
~Ascii
# ...
2676.400016 189        5.4        5.4        0          240.196    -1110      246        12783      0.26       15730      573        200.25     62.242    
2676.600016 163        5.4        5.4        0          240.211    -1110      246        12784      0.26       15721      574        201.48     62.204    
2676.800016 156        5.4        5.4        0          240.224    -1110      246        12785      0.26       15710      574        202.77     62.16     
2677.000016 4609       4.53       4.53       0          240.256    -1110      206        12787      0.26       15696      574        204.03     62.104    
2677.200016 1956       4.53       4.53       0          240.263    -1110      206        12788      0.26       15679      576        205.27     62.036    
2677.400016 483        4.55       4.55       0          240.279    -1110      207        12789      0.26       15663      576        206.5      61.971    
2677.600016 428        4.55       4.55       0          240.297    -1110      207        12790      0.26       15654      576        207.82     61.935    
2677.800016 389        5.43       5.43       0          240.312    -1110      247        12791      0.26       15648      575        209.08     61.91     
2678.000016 428        5.43       5.43       0          240.326    -1110      247        12792      0.26       15638      576        210.34     61.871    
2678.200016 357        6.06       6.06       0          240.34     -1110      276        12793      0.26       15628      575        211.53     61.831    
2678.400017 324        6.06       6.06       0          240.351    -1110      276        12794      0.26       15614      576        212.84     61.776    
2678.600017 520        5.65       5.65       0          240.365    -1110      257        12795      0.26       15599      576        214.13     61.715    
2678.800017 653        5.65       5.65       0          240.377    -1110      257        12796      0.26       15588      576        215.36     61.67     
2679.000017 613        5.45       5.45       0          240.408    -1110      248        12798      0.26       15575      575        216.62     61.615    
2679.200017 663        5.45       5.45       0          240.412    -1110      248        12798      0.26       15563      575        217.84     61.57     
2679.400017 588        5.21       5.21       0          240.431    -1110      237        12800      0.26       15551      575        219.16     61.521    
2679.600017 454        5.21       5.21       0          240.449    -1110      237        12801      0.26       15538      576        220.39     61.468    
2679.800017 380        4.79       4.79       0          240.458    -1110      218        12802      0.26       15519      578        221.62     61.391    
2680.000017 215        4.79       4.79       0          240.47     -1110      218        12803      0.26       15503      576        222.88     61.327    
2680.200017 216        5.43       5.43       0          240.482    -1110      247        12804      0.26       15488      575        224.2      61.266    
2680.400018 131        5.43       5.43       0          240.516    -1110      247        12806      0.26       15475      573        225.45     61.214    
2680.600018 126        5.62       5.62       0          240.529    -1110      256        12807      0.26       15463      574        226.7      61.167    
2680.800018 162        5.62       5.62       0          240.542    -1110      256        12808      0.26       15449      574        227.92     61.112    
2681.000018 338        5.47       5.47       0          240.553    -1110      249        12809      0.26       15435      575        229.17     61.053    
2681.200018 219        5.47       5.47       0          240.581    -1110      249        12811      0.26       15423      576        230.5      61.005    
2681.400018 141        5.3        5.3        0          240.598    -1110      241        12812      0.26       15413      576        231.73     60.968    
2681.600018 142        5.3        5.3        0          240.598    -1110      241        12812      0.26       15399      575        232.95     60.91     
2681.800018 163        5.34       5.34       0          240.629    -1110      243        12814      0.26       15387      576        234.22     60.864    
2682.000018 153        5.34       5.34       0          240.643    -1110      243        12815      0.26       15376      576        235.54     60.818    
2682.200018 156        6.11       6.11       0          240.655    -1110      278        12816      0.26       15364      576        236.74     60.768    
2682.400019 107        6.11       6.11       0          240.677    -1110      278        12818      0.26       15348      576        238        60.705    
2682.600019 85         6.72       6.72       0          240.68     -1110      306        12818      0.26       15335      576        239.26     60.654    
2682.800019 167        6.72       6.72       0          240.714    -1110      306        12820      0.26       15321      576        240.52     60.598    
2683.000019 205        7.18       7.18       0          240.726    -1110      327        12821      0.26       15311      577        241.78     60.555    
2683.200019 213        7.18       7.18       0          240.737    -1110      327        12822      0.26       15294      577        243.03     60.487    
2683.400019 179        7.51       7.51       0          240.75     -1110      342        12823      0.26       15280      577        244.3      60.432    
2683.600019 264        7.51       7.51       0          240.777    -1110      342        12825      0.26       15269      577        245.55     60.385    
2683.800019 221        7.23       7.23       0          240.795    -1110      329        12826      0.26       15257      576        246.81     60.34     
2684.000019 267        7.23       7.23       0          240.792    -1110      329        12826      0.26       15244      576        248.08     60.286    
2684.200019 231        7.07       7.07       0          240.821    -1110      322        12828      0.26       15229      577        249.34     60.226    
2684.40002 212        7.07       7.07       0          240.834    -1110      322        12829      0.26       15213      575        250.57     60.164    
2684.60002 220        7.32       7.32       0          240.869    -1110      333        12831      0.26       15202      575        251.85     60.119    
2684.80002 230        7.32       7.32       0          240.884    -1110      333        12832      0.26       15191      574        253.11     60.072    
2685.00002 236        7.78       7.78       0          240.901    -1110      354        12833      0.26       15184      575        254.38     60.045    
2685.20002 145        7.78       7.78       1          240.914    -1110      354        12834      0.26       15177      576        255.64     60.016    
2685.40002 189        7.56       7.56       0          240.937    -1110      344        12836      0.26       15163      576        256.88     59.96     
2685.60002 178        7.56       7.56       0          240.94     -1110      344        12836      0.26       15151      576        258.16     59.911    
2685.80002 201        6.96       6.96       0          240.973    -1110      317        12838      0.26       15136      576        259.42     59.855    
2686.00002 366        6.96       6.96       2          240.987    -1108      317        12839      0.26       15124      576        260.5      59.803    
2686.20002 218        7.1        7.1        0          241.001    -1107      323        12840      0.26       15113      577        261.75     59.759    
2686.400021 272        7.1        7.1        0          241.036    -1107      323        12842      0.26       15102      578        262.95     59.717    
2686.600021 2972       7.73       7.73       0          241.038    -1107      352        12842      0.26       15091      578        264.28     59.67     
