~Version
 VERS              .         2.0                           : CWLS LOG ASCII STANDARD - VERSION 2.0
 WRAP              .         NO                            : ONE LINE PER DEPTH STEP
 DLM               .         SPACE                         : DELIMITING CHARACTER(SPACE TAB OR COMMA)
~Well Information
#_______________________________________________________________________________
#
#PARAMETER_NAME    .UNIT     VALUE                         : DESCRIPTION
#_______________________________________________________________________________
STRT               .M        2656                          : First reference value
STOP               .M        2756.3999                     : Last reference value
STEP               .M        0.1999998                     : Step increment
NULL               .         -9999                         : Missing value
COMP               .                                       : Company
WELL               .         616                           : Well name
FLD                .                                       : Field
LOC                .                                       : Location
CNTY               .                                       : County
STAT               .                                       : State
CTRY               .                                       : Country
SRVC               .                                       : Service Company
DATE               .                                       : Date
API                .                                       : API number
PROJECT_UPGRADE_TIME .         2021-03-18T21_24_50           : 
group              .         Good                          : 
~Parameter Information Block
#_______________________________________________________________________________
#
#PARAMETER_NAME    .UNIT     VALUE                         : DESCRIPTION
#_______________________________________________________________________________
SET                .         D4404_D                       : 
OTHER              .         Запись производится в присутствии: 
OTHER_10           .         Максимальная температура      : 
OTHER_11           .         Тип промывочной жидкости      : 
OTHER_12           .         Сопротивление ПЖ (Ом*м) при 20°C: 
OTHER_13           .         Плотность ПЖ(г/см3)           : 
OTHER_14           .         Вязкость ПЖ(с)                : 
OTHER_15           .         Водоотдача ПЖ(см3/30мин)      : 
OTHER_16           .         Уровень ПЖ                    : 
OTHER_17           .         Нефть ПЖ (%)                  : 
OTHER_18           .         Барит ПЖ (%)                  : 
OTHER_19           .         Гематит ПЖ (%)                : 
OTHER_2            .         Заказчик ННСН  ЦДНГ-1         : 
OTHER_20           .         КМЦ ПЖ (%)                    : 
OTHER_21           .         Разгазирование ПЖ (да,нет)    : 
OTHER_22           .         Подъемник                     : 
OTHER_23           .         Лаборатория                   : 
OTHER_24           .         Тип кабеля                    : 
OTHER_25           .         Длина кабеля (м)              : 
OTHER_26           .         Цена последней метки          : 
OTHER_27           .         Цена контрольной метки        : 
OTHER_28           .         Диаметр долота (мм)           : 
OTHER_29           .         Глубина бурения (м)           : 
OTHER_3            .         Площадь                       : 
OTHER_30           .         Искусственный забой (м)       : 
OTHER_31           .         Диаметр колонны (мм)          : 
OTHER_32           .         Толщина колонны (мм)          : 
OTHER_33           .         Башмак колонны (м)            : 
OTHER_34           .         Диаметр НКТ (мм)              : 
OTHER_35           .         Толщина НКТ (мм)              : 
OTHER_36           .         Воронка НКТ (м)               : 
OTHER_37           .         Дата цементожа                : 
OTHER_38           .         Тип, количество(т) и плотность цемента: 
OTHER_39           .         Интервалы перфорации (м)      : 
OTHER_4            .         Категория                     : 
OTHER_40           .         Направление, диаметр (мм)     : 
OTHER_41           .         Направление, глубина (м)      : 
OTHER_42           .         Кондуктор, диаметр (мм)       : 
OTHER_43           .         Кондуктор, глубина (м)        : 
OTHER_44           .         Техническая колонна, диаметр (мм): 
OTHER_45           .         Техническая колонна, глубина (м): 
OTHER_46           .         Эксплуатационная колонна, диаметр (мм): 
OTHER_47           .         Эксплуатационная колонна, глубина (м): 
OTHER_48           .         Программа Кедр-02 версия 3.4  : 
OTHER_49           .         Операционная система Windows NT 5.1 build 2600 Service Pack 2: 
OTHER_5            .         Назначение исследований       : 
OTHER_50           .         Программное обеспечение станции MONITOR-386EX 25/12/99 15_08_10   BGF V54 20/09/05 15_32_17   3.3__BGF_9030071: 
OTHER_51           .         Kedr.exe версия 3.4.2.74      : 
OTHER_52           .         KedrData.dll версия 3.4.2.29  : 
OTHER_53           .         Мнемоники версия 3.18 S       : 
OTHER_54           .         Драйвер версия 2.1.1.4        : 
OTHER_55           .         LasInf.dll 4.3.0.35           : 
OTHER_56           .         Прибор_ КСА-Т4                : 
OTHER_57           .         Номер прибора_ 160            : 
OTHER_58           .         Режим_ КСА-Т4                 : 
OTHER_59           .         Форма_ С.А.Б.                 : 
OTHER_6            .         Альтитуда стола ротора        : 
OTHER_60           .         Тарировки_                    : 
OTHER_61           .         <_techsia_sc_> Дата тарировки температуры 25.05.2010: 
OTHER_62           .         Ручной ввод коэффициентов     : 
OTHER_63           .         TM.DEGC = 0.00402*RTM.E.ACP + -0.994: 
OTHER_64           .         <_techsia_sc_> Дата тарировки давления 25.05.2010: 
OTHER_65           .         Ручной ввод коэффициентов     : 
OTHER_66           .         MN.ATM = (2.27521e-006*TM.DEGC + 0.02078)*(RMN.E.ACP + 6.2*TM.DEGC + -1688): 
OTHER_67           .         <_techsia_sc_> Дата тарировки ГК 25.05.2010: 
OTHER_68           .         Ручной ввод коэффициентов     : 
OTHER_69           .         GR.UR/H = RGR.IMP/MIN / 45.5144: 
OTHER_7            .         Вид исследований 3  6         : 
OTHER_70           .         GK.FLT = 0.1*GR.UR/H[-1] + (1-0.1)*GR.UR/H[0]: 
OTHER_8            .         Начало бурения интервала каротажа: 
OTHER_9            .         Окончание бурения интервала каротажа: 
PROJECT_UPGRADE_TIME .         2021-03-18T21_24_50           : 
TLFamily_CCLC      .                                       : 
TLFamily_DEPT      .         Measured Depth                : 
TLFamily_GK        .         Gamma Ray                     : 
TLFamily_GR        .         Gamma Ray                     : 
TLFamily_METKA     .                                       : 
TLFamily_MN        .                                       : 
TLFamily_RCOR      .                                       : 
TLFamily_RGR       .                                       : 
TLFamily_RMN       .                                       : 
TLFamily_RTEN      .                                       : 
TLFamily_RTM       .                                       : 
TLFamily_SPEE      .         Cable Speed                   : 
TLFamily_TIME      .         Time                          : 
TLFamily_TM        .         Temperature                   : 
group              .         prim                          : 
~Curve Information
#_______________________________________________________________________________
#
#LOGNAME           .UNIT     LOG_ID                        : DESCRIPTION
#_______________________________________________________________________________
DEPT               .M                                      : 1 Глубина, м -    0.0 см 
CCLC               .E.ACP                                  : 9 Локатор муфт,  -   20.0 см 
GK                 .FLT                                    : 14 Гамма-активность фильтрованная, мкр./ч -  110.0 см 
GR                 .UR/H                                   : 13 Гамма-активность, мкр./ч -  110.0 см 
METKA              .CU                                     : 3 Метки,  -    0.0 см 
MN                 .ATM                                    : 12 Давление, атм. -  160.0 см 
RCOR               .CM/KM                                  : 5 Коррекция по ролику, см/км -    0.0 см 
RGR                .IMP/MIN                                : 10 Гамма-активность, усл.ед. -  110.0 см 
RMN                .E.ACP                                  : 8 Давление, усл.ед. -  160.0 см 
RTEN               .T                                      : 6 Натяжение кабеля, т -    0.0 см 
RTM                .E.ACP                                  : 7 Температура, усл.ед. -  170.0 см 
SPEE               .M/H                                    : 2 Скорость, м/час -    0.0 см 
TIME               .S                                      : 4 Время, сек -    0.0 см 
TM                 .DEGC                                   : 11 Температура, °C -  170.0 см 
~Ascii
# ...
2687.199969 105        8.59       8.59       0          241.103    -1118      391        12846      0.21       15074      578        192.84     59.605    
2687.399969 69         10.11      10.11      0          241.113    -1118      460        12847      0.21       15064      578        194.05     59.561    
2687.599968 86         10.11      10.11      0          241.125    -1118      460        12848      0.21       15050      578        195.31     59.507    
2687.799968 71         10.06      10.06      0          241.145    -1118      458        12850      0.21       15028      579        196.62     59.419    
2687.999968 66         10.06      10.06      0          241.163    -1118      458        12851      0.21       15011      579        197.83     59.35     
2688.199968 71         9.54       9.54       0          241.179    -1118      434        12852      0.21       14998      578        199.09     59.296    
2688.399968 65         9.54       9.54       0          241.193    -1118      434        12853      0.21       14985      578        200.29     59.247    
2688.599967 97         9.78       9.78       0          241.206    -1118      445        12854      0.21       14972      578        201.56     59.195    
2688.799967 95         9.78       9.78       0          241.219    -1118      445        12855      0.21       14958      579        202.87     59.137    
2688.999967 98         9.95       9.95       0          241.235    -1118      453        12856      0.21       14943      579        204.13     59.077    
2689.199967 62         9.95       9.95       0          241.259    -1118      453        12858      0.21       14927      578        205.33     59.013    
2689.399967 134        9.45       9.45       0          241.27     -1118      430        12859      0.21       14908      579        206.59     58.936    
2689.599966 88         9.45       9.45       0          241.281    -1118      430        12860      0.21       14886      579        207.91     58.849    
2689.799966 63         9.05       9.05       0          241.294    -1118      412        12862      0.21       14862      578        209.11     58.751    
2689.999966 90         9.05       9.05       0          241.309    -1118      412        12863      0.21       14842      579        210.36     58.669    
2690.199966 90         9.54       9.54       0          241.322    -1118      434        12864      0.21       14822      579        211.58     58.591    
2690.399966 139        9.54       9.54       0          241.337    -1118      434        12866      0.21       14798      581        212.89     58.494    
2690.599965 165        10.55      10.55      0          241.349    -1118      480        12867      0.21       14775      579        214.12     58.4      
2690.799965 124        10.55      10.55      0          241.355    -1118      480        12868      0.21       14750      579        215.34     58.301    
2690.999965 98         10.79      10.79      0          241.364    -1118      491        12869      0.21       14729      580        216.59     58.216    
2691.199965 66         10.79      10.79      0          241.393    -1118      491        12871      0.21       14708      579        217.86     58.133    
2691.399965 74         9.97       9.97       0          241.405    -1118      454        12872      0.21       14693      578        219.13     58.07     
2691.599964 64         9.97       9.97       0          241.414    -1118      454        12873      0.21       14674      578        220.38     57.995    
2691.799964 105        10.66      10.66      0          241.427    -1118      485        12874      0.21       14658      578        221.64     57.931    
2691.999964 153        10.66      10.66      0          241.442    -1118      485        12875      0.21       14647      581        222.82     57.886    
2692.199964 115        11.32      11.32      0          241.456    -1118      515        12876      0.21       14629      587        224.08     57.815    
2692.399964 1196       11.32      11.32      0          241.476    -1118      515        12878      0.21       14608      584        225.35     57.73     
2692.599963 686        10.35      10.35      0          241.482    -1118      471        12879      0.21       14585      582        226.56     57.638    
2692.799963 188        10.35      10.35      0          241.494    -1118      471        12880      0.21       14560      583        227.82     57.538    
2692.999963 50         9.25       9.25       0          241.508    -1118      421        12882      0.21       14534      582        229.03     57.433    
2693.199963 30         9.25       9.25       0          241.527    -1118      421        12883      0.21       14520      582        230.33     57.376    
2693.399963 28         9.51       9.51       0          241.539    -1118      433        12884      0.21       14504      582        231.58     57.311    
2693.599962 41         9.51       9.51       0          241.568    -1118      433        12886      0.21       14488      580        232.83     57.248    
2693.799962 39         10.39      10.39      0          241.575    -1118      473        12887      0.21       14470      580        234.03     57.175    
2693.999962 42         10.39      10.39      0          241.578    -1118      473        12888      0.21       14439      579        235.34     57.053    
2694.199962 49         10.44      10.44      0          241.591    -1118      475        12889      0.21       14412      579        236.59     56.944    
2694.399962 26         10.44      10.44      0          241.606    -1118      475        12891      0.21       14393      579        237.84     56.866    
2694.599961 61         10.44      10.44      0          241.624    -1118      475        12892      0.21       14374      579        239.09     56.79     
2694.799961 37         10.44      10.44      0          241.644    -1118      475        12893      0.21       14356      579        240.34     56.718    
2694.999961 41         10.57      10.57      0          241.671    -1118      481        12895      0.21       14349      579        241.59     56.689    
2695.199961 59         10.57      10.57      0          241.675    -1118      481        12896      0.21       14330      578        242.84     56.613    
2695.399961 44         9.93       9.93       0          241.682    -1118      452        12897      0.21       14301      578        244.09     56.497    
2695.59996 31         9.93       9.93       0          241.703    -1118      452        12899      0.21       14271      578        245.35     56.377    
2695.79996 30         9.56       9.56       0          241.713    -1118      435        12900      0.21       14249      578        246.64     56.286    
2695.99996 33         9.56       9.56       2          241.73     -1117      435        12901      0.21       14233      578        247.84     56.223    
2696.19996 43         11.07      11.07      0          241.753    -1117      504        12903      0.21       14214      578        249.05     56.146    
2696.39996 48         11.07      11.07      0          241.761    -1117      504        12904      0.21       14197      578        250.3      56.078    
2696.599959 29         11.91      11.91      0          241.777    -1117      542        12905      0.21       14175      578        251.61     55.989    
2696.799959 31         11.91      11.91      0          241.795    -1117      542        12907      0.21       14157      579        252.86     55.917    
2696.999959 38         12         12         0          241.813    -1117      546        12908      0.21       14145      578        254.08     55.87     
2697.199959 45         12         12         0          241.826    -1117      546        12909      0.21       14122      578        255.3      55.776    
2697.399959 68         12.46      12.46      0          241.84     -1117      567        12911      0.21       14097      579        256.55     55.676    
