~Version
 VERS              .         2.0                           : CWLS LOG ASCII STANDARD - VERSION 2.0
 WRAP              .         NO                            : ONE LINE PER DEPTH STEP
 DLM               .         SPACE                         : DELIMITING CHARACTER(SPACE TAB OR COMMA)
~Well Information
#_______________________________________________________________________________
#
#PARAMETER_NAME    .UNIT     VALUE                         : DESCRIPTION
#_______________________________________________________________________________
STRT               .M        2656                          : First reference value
STOP               .M        2756.3999                     : Last reference value
STEP               .M        0.1999998                     : Step increment
NULL               .         -9999                         : Missing value
COMP               .                                       : Company
WELL               .         616                           : Well name
FLD                .                                       : Field
LOC                .                                       : Location
CNTY               .                                       : County
STAT               .                                       : State
CTRY               .                                       : Country
SRVC               .                                       : Service Company
DATE               .                                       : Date
API                .                                       : API number
PROJECT_UPGRADE_TIME .         2021-03-18T21_24_50           : 
group              .         Good                          : 
~Parameter Information Block
#_______________________________________________________________________________
#
#PARAMETER_NAME    .UNIT     VALUE                         : DESCRIPTION
#_______________________________________________________________________________
SET                .         D4404_D                       : 
OTHER              .         Запись производится в присутствии: 
OTHER_10           .         Максимальная температура      : 
OTHER_11           .         Тип промывочной жидкости      : 
OTHER_12           .         Сопротивление ПЖ (Ом*м) при 20°C: 
OTHER_13           .         Плотность ПЖ(г/см3)           : 
OTHER_14           .         Вязкость ПЖ(с)                : 
OTHER_15           .         Водоотдача ПЖ(см3/30мин)      : 
OTHER_16           .         Уровень ПЖ                    : 
OTHER_17           .         Нефть ПЖ (%)                  : 
OTHER_18           .         Барит ПЖ (%)                  : 
OTHER_19           .         Гематит ПЖ (%)                : 
OTHER_2            .         Заказчик ННСН  ЦДНГ-1         : 
OTHER_20           .         КМЦ ПЖ (%)                    : 
OTHER_21           .         Разгазирование ПЖ (да,нет)    : 
OTHER_22           .         Подъемник                     : 
OTHER_23           .         Лаборатория                   : 
OTHER_24           .         Тип кабеля                    : 
OTHER_25           .         Длина кабеля (м)              : 
OTHER_26           .         Цена последней метки          : 
OTHER_27           .         Цена контрольной метки        : 
OTHER_28           .         Диаметр долота (мм)           : 
OTHER_29           .         Глубина бурения (м)           : 
OTHER_3            .         Площадь                       : 
OTHER_30           .         Искусственный забой (м)       : 
OTHER_31           .         Диаметр колонны (мм)          : 
OTHER_32           .         Толщина колонны (мм)          : 
OTHER_33           .         Башмак колонны (м)            : 
OTHER_34           .         Диаметр НКТ (мм)              : 
OTHER_35           .         Толщина НКТ (мм)              : 
OTHER_36           .         Воронка НКТ (м)               : 
OTHER_37           .         Дата цементожа                : 
OTHER_38           .         Тип, количество(т) и плотность цемента: 
OTHER_39           .         Интервалы перфорации (м)      : 
OTHER_4            .         Категория                     : 
OTHER_40           .         Направление, диаметр (мм)     : 
OTHER_41           .         Направление, глубина (м)      : 
OTHER_42           .         Кондуктор, диаметр (мм)       : 
OTHER_43           .         Кондуктор, глубина (м)        : 
OTHER_44           .         Техническая колонна, диаметр (мм): 
OTHER_45           .         Техническая колонна, глубина (м): 
OTHER_46           .         Эксплуатационная колонна, диаметр (мм): 
OTHER_47           .         Эксплуатационная колонна, глубина (м): 
OTHER_48           .         Программа Кедр-02 версия 3.4  : 
OTHER_49           .         Операционная система Windows NT 5.1 build 2600 Service Pack 2: 
OTHER_5            .         Назначение исследований       : 
OTHER_50           .         Программное обеспечение станции MONITOR-386EX 25/12/99 15_08_10   BGF V54 20/09/05 15_32_17   3.3__BGF_9030071: 
OTHER_51           .         Kedr.exe версия 3.4.2.74      : 
OTHER_52           .         KedrData.dll версия 3.4.2.29  : 
OTHER_53           .         Мнемоники версия 3.18 S       : 
OTHER_54           .         Драйвер версия 2.1.1.4        : 
OTHER_55           .         LasInf.dll 4.3.0.35           : 
OTHER_56           .         Прибор_ КСА-Т4                : 
OTHER_57           .         Номер прибора_ 160            : 
OTHER_58           .         Режим_ КСА-Т4                 : 
OTHER_59           .         Форма_ С.А.Б.                 : 
OTHER_6            .         Альтитуда стола ротора        : 
OTHER_60           .         Тарировки_                    : 
OTHER_61           .         <_techsia_sc_> Дата тарировки температуры 25.05.2010: 
OTHER_62           .         Ручной ввод коэффициентов     : 
OTHER_63           .         TM.DEGC = 0.00402*RTM.E.ACP + -0.994: 
OTHER_64           .         <_techsia_sc_> Дата тарировки давления 25.05.2010: 
OTHER_65           .         Ручной ввод коэффициентов     : 
OTHER_66           .         MN.ATM = (2.27521e-006*TM.DEGC + 0.02078)*(RMN.E.ACP + 6.2*TM.DEGC + -1688): 
OTHER_67           .         <_techsia_sc_> Дата тарировки ГК 25.05.2010: 
OTHER_68           .         Ручной ввод коэффициентов     : 
OTHER_69           .         GR.UR/H = RGR.IMP/MIN / 45.5144: 
OTHER_7            .         Вид исследований 3  6         : 
OTHER_70           .         GK.FLT = 0.1*GR.UR/H[-1] + (1-0.1)*GR.UR/H[0]: 
OTHER_8            .         Начало бурения интервала каротажа: 
OTHER_9            .         Окончание бурения интервала каротажа: 
PROJECT_UPGRADE_TIME .         2021-03-18T21_24_50           : 
TLFamily_CCLC      .                                       : 
TLFamily_DEPT      .         Measured Depth                : 
TLFamily_GK        .         Gamma Ray                     : 
TLFamily_GR        .         Gamma Ray                     : 
TLFamily_METKA     .                                       : 
TLFamily_MN        .                                       : 
TLFamily_RCOR      .                                       : 
TLFamily_RGR       .                                       : 
TLFamily_RMN       .                                       : 
TLFamily_RTEN      .                                       : 
TLFamily_RTM       .                                       : 
TLFamily_SPEE      .         Cable Speed                   : 
TLFamily_TIME      .         Time                          : 
TLFamily_TM        .         Temperature                   : 
group              .         prim                          : 
~Curve Information
#_______________________________________________________________________________
#
#LOGNAME           .UNIT     LOG_ID                        : DESCRIPTION
#_______________________________________________________________________________
DEPT               .M                                      : 1 Глубина, м -    0.0 см 
CCLC               .E.ACP                                  : 9 Локатор муфт,  -   20.0 см 
GK                 .FLT                                    : 14 Гамма-активность фильтрованная, мкр./ч -  110.0 см 
GR                 .UR/H                                   : 13 Гамма-активность, мкр./ч -  110.0 см 
METKA              .CU                                     : 3 Метки,  -    0.0 см 
MN                 .ATM                                    : 12 Давление, атм. -  160.0 см 
RCOR               .CM/KM                                  : 5 Коррекция по ролику, см/км -    0.0 см 
RGR                .IMP/MIN                                : 10 Гамма-активность, усл.ед. -  110.0 см 
RMN                .E.ACP                                  : 8 Давление, усл.ед. -  160.0 см 
RTEN               .T                                      : 6 Натяжение кабеля, т -    0.0 см 
RTM                .E.ACP                                  : 7 Температура, усл.ед. -  170.0 см 
SPEE               .M/H                                    : 2 Скорость, м/час -    0.0 см 
TIME               .S                                      : 4 Время, сек -    0.0 см 
TM                 .DEGC                                   : 11 Температура, °C -  170.0 см 
~Ascii
# ...
2749.599906 155        11.45      11.45      0          247.893    -1112      521        13234      0.21       12961      582        583.4      51.11     
2749.799906 103        11.45      11.45      0          247.915    -1112      521        13235      0.21       12968      582        584.66     51.136    
2749.999906 77         11.16      11.16      0          247.936    -1112      508        13236      0.21       12968      581        585.88     51.137    
2750.199906 50         11.16      11.16      0          247.977    -1112      508        13238      0.21       12967      581        587.16     51.133    
2750.399906 77         12.32      12.32      0          247.998    -1112      561        13239      0.21       12966      581        588.41     51.129    
2750.599905 106        12.79      12.79      0          248.001    -1112      582        13239      0.21       12968      581        589.64     51.137    
2750.799905 85         13.23      13.23      0          248.053    -1112      602        13240      0.21       12975      580        590.85     51.166    
2750.999905 63         13.23      13.23      0          248.117    -1112      602        13241      0.21       13073      580        592.16     51.56     
2751.199905 56         12.48      12.48      0          248.131    -1112      568        13242      0.21       13087      581        593.41     51.616    
2751.399905 50         12.48      12.48      0          248.145    -1112      568        13243      0.21       13071      581        594.66     51.551    
2751.599904 52         12.45      12.45      0          248.165    -1112      567        13244      0.21       13065      581        595.85     51.529    
2751.799904 58         12.44      12.44      0          248.168    -1112      566        13244      0.21       13068      580        597.11     51.54     
2751.999904 85         11.75      11.75      0          248.194    -1112      535        13245      0.21       13074      580        598.41     51.563    
2752.199904 87         11.75      11.75      0          248.22     -1112      535        13246      0.21       13082      581        599.67     51.597    
2752.399904 77         11.16      11.16      0          248.249    -1112      508        13247      0.21       13094      581        600.86     51.644    
2752.599903 69         11.16      11.16      0          248.261    -1112      508        13247      0.21       13109      582        602.11     51.703    
2752.799903 78         10.96      10.96      0          248.296    -1112      499        13248      0.21       13129      581        603.36     51.783    
2752.999903 87         10.77      10.77      0          248.334    -1112      490        13249      0.21       13156      581        604.65     51.893    
2753.199903 84         10.5       10.5       0          248.369    -1112      478        13250      0.21       13179      580        605.86     51.987    
2753.399903 103        10.5       10.5       0          248.403    -1112      478        13251      0.21       13201      580        607.07     52.074    
2753.599902 87         10.61      10.61      0          248.427    -1112      483        13252      0.21       13219      581        608.37     52.146    
2753.799902 68         10.63      10.63      0          248.449    -1112      484        13252      0.21       13235      580        609.61     52.209    
2753.999902 48         10.81      10.81      0          248.492    -1112      492        13253      0.21       13266      580        610.86     52.333    
2754.199902 42         10.94      10.94      0          248.542    -1112      498        13254      0.21       13312      580        612.11     52.519    
2754.399902 41         11.56      11.56      0          248.563    -1112      526        13254      0.21       13349      580        613.33     52.671    
2754.599901 42         11.56      11.56      0          248.612    -1112      526        13255      0.21       13384      579        614.62     52.812    
2754.799901 42         11.9       11.9       -9999      248.652    -1112      541        13256      0.21       13430      580        615.9      52.996    
2754.999901 -9999      11.95      11.95      -9999      248.683    -9999      544        13257      -9999      13450      -9999      -9999      53.075    
2755.199901 -9999      11.39      11.39      -9999      248.681    -9999      518        13256      -9999      13469      -9999      -9999      53.151    
2755.399901 -9999      10.83      10.83      -9999      248.694    -9999      493        13257      -9999      13487      -9999      -9999      53.222    
2755.5999  -9999      9.93       9.93       -9999      248.672    -9999      452        13255      -9999      13496      -9999      -9999      53.261    
2755.7999  -9999      9.93       9.93       -9999      248.679    -9999      452        13255      -9999      13507      -9999      -9999      53.302    
2755.9999  -9999      -9999      -9999      -9999      248.696    -9999      -9999      13256      -9999      13518      -9999      -9999      53.35     
2756.1999  -9999      -9999      -9999      -9999      248.692    -9999      -9999      13255      -9999      13532      -9999      -9999      53.403    
2756.3999  -9999      -9999      -9999      -9999      248.707    -9999      -9999      13255      -9999      13546      -9999      -9999      53.461    
