~Version
 VERS              .         2.0                           : CWLS LOG ASCII STANDARD - VERSION 2.0
 WRAP              .         NO                            : ONE LINE PER DEPTH STEP
 DLM               .         SPACE                         : DELIMITING CHARACTER(SPACE TAB OR COMMA)
~Well Information
#_______________________________________________________________________________
#
#PARAMETER_NAME    .UNIT     VALUE                         : DESCRIPTION
#_______________________________________________________________________________
STRT               .M        5.8                           : First reference value
STOP               .M        2774.6                        : Last reference value
STEP               .M        0.2                           : Step increment
NULL               .         -9999                         : Missing value
COMP               .                                       : Company
WELL               .         616                           : Well name
FLD                .                                       : Field
LOC                .                                       : Location
CNTY               .                                       : County
STAT               .                                       : State
CTRY               .                                       : Country
SRVC               .                                       : Service Company
DATE               .                                       : Date
API                .                                       : API number
PROJECT_UPGRADE_TIME .         2021-03-18T21_24_50           : 
group              .         Good                          : 
~Parameter Information Block
#_______________________________________________________________________________
#
#PARAMETER_NAME    .UNIT     VALUE                         : DESCRIPTION
#_______________________________________________________________________________
SET                .         D1747_D                       : 
OTHER              .         Программное обеспечение станции MONITOR-386EX 25/12/99 15_08_10   BGF V52 22/08/01 16_56_30   3.1_SNGF___BGF_N_111239: 
OTHER_10           .         Тарировки_                    : 
OTHER_11           .         <_techsia_sc_> Постоянная времени фильтра ГК  3.0 сек, kf=0.016529: 
OTHER_12           .         <_techsia_sc_> Постоянная времени фильтра ННК  3.0 сек, kf=0.016529: 
OTHER_13           .         GK.MKR/H = GK$.IMP/476        : 
OTHER_14           .         WSAT.PERC = -12.5 + 78.0 * (NKT2$.IMP / NKT1$.IMP) * 1731/33716: 
OTHER_15           .         NKT2.PRIV = NKT2$.IMP/33716   : 
OTHER_16           .         NKT1.PRIV = NKT1$.IMP/1731    : 
OTHER_2            .         Kedr.exe версия 3.3.2.32      : 
OTHER_3            .         KedrData.dll версия 3.3.2.17  : 
OTHER_4            .         Драйвер версия 2.1.1.9        : 
OTHER_5            .         Мнемоники версия 3.2 S        : 
OTHER_6            .         Прибор_ СРК-73Ц-1N            : 
OTHER_7            .         Номер прибора_ 906            : 
OTHER_8            .         Режим_ с локатором            : 
OTHER_9            .         Форма_ 623-1                  : 
PROJECT_UPGRADE_TIME .         2021-03-18T21_24_49           : 
TLFamily_DEPT      .         Measured Depth                : 
TLFamily_GK        .         Gamma Ray                     : 
TLFamily_GK$       .                                       : 
TLFamily_LM        .         Casing Collar locator         : 
TLFamily_METKA     .                                       : 
TLFamily_NKT1      .         Neutron Far                   : 
TLFamily_NKT1$     .         Neutron Far                   : 
TLFamily_NKT2      .         Neutron Near                  : 
TLFamily_NKT2$     .         Neutron Near                  : 
TLFamily_RCOR      .                                       : 
TLFamily_SPID      .         Spontaneous Potential         : 
TLFamily_TENS      .         Cable Tension                 : 
TLFamily_TIME      .         Time                          : 
TLFamily_WSAT      .         Neutron Porosity              : 
group              .         prim                          : 
~Curve Information
#_______________________________________________________________________________
#
#LOGNAME           .UNIT     LOG_ID                        : DESCRIPTION
#_______________________________________________________________________________
DEPT               .M                                      : 1 Глубина, м -    0.0 см 
GK                 .MKR/H                                  : 11 Гамма-активность, мкр./ч -   97.0 см 
GK$                .IMP                                    : 9 Гамма-активность, имп/мин -   97.0 см 
LM                 .                                       : 10 Локатор муфт,  -   27.0 см 
METKA              .                                       : 3 Метки,  -    0.0 см 
NKT1               .PRIV                                   : 14 Большой зонд приведенный,  -  278.0 см 
NKT1$              .IMP                                    : 8 Большой зонд, имп/мин -  278.0 см 
NKT2               .PRIV                                   : 13 Малый зонд приведенный,  -  289.0 см 
NKT2$              .IMP                                    : 7 Малый зонд, имп/мин -  289.0 см 
RCOR               .CM/KM                                  : 5 Коррекция по ролику, см/км -    0.0 см 
SPID               .M/H                                    : 2 Скорость, м/час -    0.0 см 
TENS               .T                                      : 6 Натяжение кабеля, т -    0.0 см 
TIME               .S                                      : 4 Время, сек -    0.0 см 
WSAT               .PERC                                   : 12 Водонасыщенная пористость, % -  284.0 см 
~Ascii
# ...
744.2      1.95       929        56         0          0.73       1264.64    0.72       24225.36   -470       -700       0          26127.92   27.25     
744.4      2.12       1008       25         0          0.73       1255.27    0.72       24208.87   -470       -704       0          26126.91   27.27     
744.6      2.27       1079       24         0          0.76       1317.4     0.71       24015.12   -470       -700       0          26125.91   29.18     
744.8      2.48       1182       7          0          0.78       1350.86    0.72       24255.74   -470       -700       0          26124.91   27.74     
745        2.16       1030       17         0          0.74       1274.08    0.72       24263.27   -470       -700       0          26123.93   28.45     
745.2      2.15       1022       14         0          0.69       1194.77    0.72       24441.15   -470       -700       0          26122.9    30.36     
745.4      2.64       1256       25         0          0.74       1278.15    0.73       24502.71   -470       -700       0          26121.85   32.62     
745.6      2.52       1202       26         0          0.68       1177.38    0.74       25076.38   -470       -700       0          26120.85   30.52     
745.8      2.6        1237       8          0          0.65       1131.46    0.73       24676.86   -470       -642       0          26119.8    29.38     
746        2.72       1296       26         0          0.69       1195.8     0.71       24025.33   -470       -714       0          26118.8    29.21     
746.2      2.63       1250       37         0          0.73       1261.72    0.72       24240.99   -470       -700       0          26117.75   30.97     
746.4      2.36       1122       15         0          0.75       1304.56    0.7        23542.54   -470       -700       0          26116.74   29.36     
746.6      2.42       1152       7          0          0.83       1430.93    0.71       23990.14   -470       -700       0          26115.69   31.52     
746.8      2.57       1224       15         0          0.82       1417.65    0.72       24158.84   -470       -700       0          26114.69   31.69     
747        2.46       1170       44         0          0.78       1350.4     0.72       24393.07   -470       -700       0          26113.69   32.2      
747.2      2.45       1167       44         0          0.77       1331.98    0.73       24577.08   -470       -700       0          26112.69   28.74     
747.4      2.72       1296       7          0          0.71       1220.44    0.73       24627.2    -470       -712       0          26111.64   29.33     
747.6      2.46       1172       41         0          0.7        1208.92    0.73       24549.95   -470       -700       0          26110.65   28.34     
747.8      2.27       1081       11         0          0.74       1277.97    0.72       24236.57   -470       -700       0          26109.63   29.75     
748        2.23       1059       21         0          0.75       1292.78    0.72       24294.59   -470       -699       0          26108.63   32.02     
748.2      2.33       1107       33         0          0.76       1313.03    0.72       24403.83   -470       -664       0          26107.61   33.58     
748.4      2.42       1150       50         0          0.68       1177.26    0.74       24846.1    -470       -700       0          26106.53   35.32     
748.6      2.72       1294       17         0          0.7        1206.11    0.73       24676.23   -470       -650       0          26105.48   32.62     
748.8      2.36       1123       12         0          0.69       1189.45    0.74       24993.65   -470       -704       0          26104.48   31.27     
749        2.45       1164       24         0          0.7        1206.24    0.74       24897.99   -470       -700       0          26103.45   31        
749.2      2.29       1092       18         0          0.74       1286.48    0.73       24680.55   -470       -700       0          26102.42   30.13     
749.4      2.12       1011       27         0          0.7        1205.27    0.73       24518.91   -470       -700       0          26101.42   27.94     
749.6      2.38       1133       26         0          0.77       1328.96    0.72       24340.25   -470       -700       0          26100.45   30.44     
749.8      2.42       1150       15         1          0.8        1377.46    0.72       24410.7    -470       -700       0          26099.42   27.4      
750        2.43       1157       6          0          0.82       1412       0.72       24328.68   -470       -700       0          26098.42   28.01     
750.2      2.49       1186       11         0          0.79       1359.65    0.73       24645.9    -470       -700       0          26097.39   28.97     
750.4      2.36       1124       28         0          0.75       1302.99    0.73       24583.73   -470       -700       0          26096.31   30.3      
750.6      2.17       1035       63         0          0.77       1326.46    0.73       24665.56   -470       -700       0          26095.32   30.99     
750.8      2.14       1018       137        0          0.77       1326.17    0.72       24368.42   -470       -700       0          26094.3    32.34     
751        2.23       1060       1909       0          0.73       1261.21    0.73       24569.78   -470       -700       0          26093.3    28.76     
751.2      2.17       1033       215        0          0.73       1259.14    0.72       24232.45   -470       -700       0          26092.27   31.84     
751.4      2.21       1054       52         0          0.72       1245.49    0.73       24649.59   -470       -641       0          26091.25   31.83     
751.6      2.23       1064       29         0          0.79       1359.59    0.72       24221.46   -470       -700       0          26090.2    31.15     
751.8      2.38       1133       32         0          0.79       1368.26    0.71       23790.11   -470       -700       0          26089.14   30.11     
752        2.12       1007       29         0          0.82       1414.49    0.71       23996      -470       -708       0          26088.14   30.73     
752.2      2.25       1071       37         0          0.89       1540.92    0.74       24793.01   -470       -700       0          26087.17   31.93     
752.4      2.19       1041       38         0          0.78       1348.56    0.72       24217.55   -470       -641       0          26086.14   28.9      
752.6      2.27       1082       48         0          0.78       1351.8     0.72       24213.26   -470       -700       0          26085.09   29.48     
752.8      2.2        1047       19         0          0.81       1401.47    0.72       24407.21   -470       -700       0          26084.09   32.14     
753        2.32       1105       39         0          0.76       1308.79    0.71       23851.47   -470       -700       0          26083.06   29.63     
753.2      2.36       1123       14         0          0.77       1336.51    0.71       23902.86   -470       -700       0          26082.06   30.21     
753.4      2.23       1061       29         0          0.74       1281.12    0.71       23995.35   -470       -700       0          26081.03   29.08     
753.6      2.12       1008       34         0          0.79       1374.09    0.73       24533.33   -470       -701       0          26080.03   33.9      
753.8      1.99       948        30         0          0.77       1331.45    0.74       24805.74   -470       -736       0          26079      31.24     
754        1.92       913        21         0          0.72       1248.29    0.74       24888.08   -470       -700       0          26077.98   31.31     
754.2      1.99       946        27         0          0.76       1318.65    0.73       24749.8    -470       -695       0          26076.98   31.04     
754.4      2.14       1017       24         0          0.67       1153.91    0.71       23962.87   -470       -698       0          26075.98   31.28     
