~Version
 VERS              .         2.0                           : CWLS LOG ASCII STANDARD - VERSION 2.0
 WRAP              .         NO                            : ONE LINE PER DEPTH STEP
 DLM               .         SPACE                         : DELIMITING CHARACTER(SPACE TAB OR COMMA)
~Well Information
#_______________________________________________________________________________
#
#PARAMETER_NAME    .UNIT     VALUE                         : DESCRIPTION
#_______________________________________________________________________________
STRT               .M        46                            : First reference value
STOP               .M        2756.6                        : Last reference value
STEP               .M        0.2                           : Step increment
NULL               .         -9999                         : Missing value
COMP               .                                       : Company
WELL               .         616                           : Well name
FLD                .                                       : Field
LOC                .                                       : Location
CNTY               .                                       : County
STAT               .                                       : State
CTRY               .                                       : Country
SRVC               .                                       : Service Company
DATE               .                                       : Date
API                .                                       : API number
PROJECT_UPGRADE_TIME .         2021-03-18T21_24_50           : 
group              .         Good                          : 
~Parameter Information Block
#_______________________________________________________________________________
#
#PARAMETER_NAME    .UNIT     VALUE                         : DESCRIPTION
#_______________________________________________________________________________
SET                .         D4390_D                       : 
OTHER              .         Запись производится в присутствии: 
OTHER_10           .         Максимальная температура      : 
OTHER_100          .         GK.FLT = 0.1*GR.UR/H[-1] + (1-0.1)*GR.UR/H[0]: 
OTHER_11           .         Тип промывочной жидкости      : 
OTHER_12           .         Сопротивление ПЖ (Ом*м) при 20°C: 
OTHER_13           .         Плотность ПЖ(г/см3)           : 
OTHER_14           .         Вязкость ПЖ(с)                : 
OTHER_15           .         Водоотдача ПЖ(см3/30мин)      : 
OTHER_16           .         Уровень ПЖ                    : 
OTHER_17           .         Нефть ПЖ (%)                  : 
OTHER_18           .         Барит ПЖ (%)                  : 
OTHER_19           .         Гематит ПЖ (%)                : 
OTHER_2            .         Заказчик ННСН  ЦДНГ-1         : 
OTHER_20           .         КМЦ ПЖ (%)                    : 
OTHER_21           .         Разгазирование ПЖ (да,нет)    : 
OTHER_22           .         Подъемник                     : 
OTHER_23           .         Лаборатория                   : 
OTHER_24           .         Тип кабеля                    : 
OTHER_25           .         Длина кабеля (м)              : 
OTHER_26           .         Цена последней метки          : 
OTHER_27           .         Цена контрольной метки        : 
OTHER_28           .         Диаметр долота (мм)           : 
OTHER_29           .         Глубина бурения (м)           : 
OTHER_3            .         Площадь                       : 
OTHER_30           .         Искусственный забой (м)       : 
OTHER_31           .         Диаметр колонны (мм)          : 
OTHER_32           .         Толщина колонны (мм)          : 
OTHER_33           .         Башмак колонны (м)            : 
OTHER_34           .         Диаметр НКТ (мм)              : 
OTHER_35           .         Толщина НКТ (мм)              : 
OTHER_36           .         Воронка НКТ (м)               : 
OTHER_37           .         Дата цементожа                : 
OTHER_38           .         Тип, количество(т) и плотность цемента: 
OTHER_39           .         Интервалы перфорации (м)      : 
OTHER_4            .         Категория                     : 
OTHER_40           .         Направление, диаметр (мм)     : 
OTHER_41           .         Направление, глубина (м)      : 
OTHER_42           .         Кондуктор, диаметр (мм)       : 
OTHER_43           .         Кондуктор, глубина (м)        : 
OTHER_44           .         Техническая колонна, диаметр (мм): 
OTHER_45           .         Техническая колонна, глубина (м): 
OTHER_46           .         Эксплуатационная колонна, диаметр (мм): 
OTHER_47           .         Эксплуатационная колонна, глубина (м): 
OTHER_48           .         Программа Кедр-02 версия 3.4  : 
OTHER_49           .         Операционная система Windows NT 5.1 build 2600 Service Pack 2: 
OTHER_5            .         Назначение исследований       : 
OTHER_50           .         Программное обеспечение станции MONITOR-386EX 25/12/99 15_08_10   BGF V54 20/09/05 15_32_17   3.3__BGF_9030071: 
OTHER_51           .         Kedr.exe версия 3.4.2.74      : 
OTHER_52           .         KedrData.dll версия 3.4.2.29  : 
OTHER_53           .         Мнемоники версия 3.18 S       : 
OTHER_54           .         Драйвер версия 2.1.1.4        : 
OTHER_55           .         LasInf.dll 4.3.0.35           : 
OTHER_56           .         Прибор_ КСА-Т4                : 
OTHER_57           .         Номер прибора_ 160            : 
OTHER_58           .         Режим_ КСА-Т4                 : 
OTHER_59           .         Форма_ С.А.Б.                 : 
OTHER_6            .         Альтитуда стола ротора        : 
OTHER_60           .         Тарировки_                    : 
OTHER_61           .         <_techsia_sc_> Дата тарировки температуры 25.05.2010: 
OTHER_62           .         Ручной ввод коэффициентов     : 
OTHER_63           .         TM.DEGC = 0.00402*RTM.E.ACP + -0.994: 
OTHER_64           .         <_techsia_sc_> Дата тарировки давления 25.05.2010: 
OTHER_65           .         Ручной ввод коэффициентов     : 
OTHER_66           .         MN.ATM = (2.27521e-006*TM.DEGC + 0.02078)*(RMN.E.ACP + 6.2*TM.DEGC + -1688): 
OTHER_67           .         <_techsia_sc_> Дата тарировки ГК 25.05.2010: 
OTHER_68           .         Ручной ввод коэффициентов     : 
OTHER_69           .         GR.UR/H = RGR.IMP/MIN / 45.5144: 
OTHER_7            .         Вид исследований 3  6         : 
OTHER_70           .         GK.FLT = 0.1*GR.UR/H[-1] + (1-0.1)*GR.UR/H[0]: 
OTHER_71           .         <_techsia_sc_> Дата тарировки температуры 25.05.2010: 
OTHER_72           .         Ручной ввод коэффициентов     : 
OTHER_73           .         TM.DEGC = 0.00402*RTM.E.ACP + -0.994: 
OTHER_74           .         <_techsia_sc_> Дата тарировки давления 25.05.2010: 
OTHER_75           .         Ручной ввод коэффициентов     : 
OTHER_76           .         MN.ATM = (2.27521e-006*TM.DEGC + 0.02078)*(RMN.E.ACP + 6.2*TM.DEGC + -1688): 
OTHER_77           .         <_techsia_sc_> Дата тарировки ГК 25.05.2010: 
OTHER_78           .         Ручной ввод коэффициентов     : 
OTHER_79           .         GR.UR/H = RGR.IMP/MIN / 45.5144: 
OTHER_8            .         Начало бурения интервала каротажа: 
OTHER_80           .         GK.FLT = 0.1*GR.UR/H[-1] + (1-0.1)*GR.UR/H[0]: 
OTHER_81           .         <_techsia_sc_> Дата тарировки температуры 25.05.2010: 
OTHER_82           .         Ручной ввод коэффициентов     : 
OTHER_83           .         TM.DEGC = 0.00402*RTM.E.ACP + -0.994: 
OTHER_84           .         <_techsia_sc_> Дата тарировки давления 25.05.2010: 
OTHER_85           .         Ручной ввод коэффициентов     : 
OTHER_86           .         MN.ATM = (2.27521e-006*TM.DEGC + 0.02078)*(RMN.E.ACP + 6.2*TM.DEGC + -1688): 
OTHER_87           .         <_techsia_sc_> Дата тарировки ГК 25.05.2010: 
OTHER_88           .         Ручной ввод коэффициентов     : 
OTHER_89           .         GR.UR/H = RGR.IMP/MIN / 45.5144: 
OTHER_9            .         Окончание бурения интервала каротажа: 
OTHER_90           .         GK.FLT = 0.1*GR.UR/H[-1] + (1-0.1)*GR.UR/H[0]: 
OTHER_91           .         <_techsia_sc_> Дата тарировки температуры 25.05.2010: 
OTHER_92           .         Ручной ввод коэффициентов     : 
OTHER_93           .         TM.DEGC = 0.00402*RTM.E.ACP + -0.994: 
OTHER_94           .         <_techsia_sc_> Дата тарировки давления 25.05.2010: 
OTHER_95           .         Ручной ввод коэффициентов     : 
OTHER_96           .         MN.ATM = (2.27521e-006*TM.DEGC + 0.02078)*(RMN.E.ACP + 6.2*TM.DEGC + -1688): 
OTHER_97           .         <_techsia_sc_> Дата тарировки ГК 25.05.2010: 
OTHER_98           .         Ручной ввод коэффициентов     : 
OTHER_99           .         GR.UR/H = RGR.IMP/MIN / 45.5144: 
PROJECT_UPGRADE_TIME .         2021-03-18T21_24_50           : 
TLFamily_CCLC      .                                       : 
TLFamily_DEPT      .         Measured Depth                : 
TLFamily_GK        .         Gamma Ray                     : 
TLFamily_GR        .         Gamma Ray                     : 
TLFamily_METKA     .                                       : 
TLFamily_MN        .                                       : 
TLFamily_RCOR      .                                       : 
TLFamily_RGR       .                                       : 
TLFamily_RMN       .                                       : 
TLFamily_RTEN      .                                       : 
TLFamily_RTM       .                                       : 
TLFamily_SPEE      .         Cable Speed                   : 
TLFamily_TIME      .         Time                          : 
TLFamily_TM        .         Temperature                   : 
group              .         prim                          : 
~Curve Information
#_______________________________________________________________________________
#
#LOGNAME           .UNIT     LOG_ID                        : DESCRIPTION
#_______________________________________________________________________________
DEPT               .M                                      : 1 Глубина, м -    0.0 см 
CCLC               .E.ACP                                  : 9 Локатор муфт,  -   20.0 см 
GK                 .FLT                                    : 14 Гамма-активность фильтрованная, мкр./ч -  110.0 см 
GR                 .UR/H                                   : 13 Гамма-активность, мкр./ч -  110.0 см 
METKA              .CU                                     : 3 Метки,  -    0.0 см 
MN                 .ATM                                    : 12 Давление, атм. -  160.0 см 
RCOR               .CM/KM                                  : 5 Коррекция по ролику, см/км -    0.0 см 
RGR                .IMP/MIN                                : 10 Гамма-активность, усл.ед. -  110.0 см 
RMN                .E.ACP                                  : 8 Давление, усл.ед. -  160.0 см 
RTEN               .T                                      : 6 Натяжение кабеля, т -    0.0 см 
RTM                .E.ACP                                  : 7 Температура, усл.ед. -  170.0 см 
SPEE               .M/H                                    : 2 Скорость, м/час -    0.0 см 
TIME               .S                                      : 4 Время, сек -    0.0 см 
TM                 .DEGC                                   : 11 Температура, °C -  170.0 см 
~Ascii
# ...
2032.4     544        5.1        5.1        0          179.869    -955       232        9969       0.14       13303      1593       4371.7     52.486    
2032.6     524        5.27       5.27       0          179.873    -955       240        9969       0.14       13305      1593       4372.17    52.49     
2032.8     520        6.02       6.02       0          179.891    -955       274        9970       0.14       13306      1591       4372.59    52.495    
2033       557        6.02       6.02       0          179.917    -955       274        9971       0.14       13306      1591       4373.04    52.496    
2033.2     592        6.02       6.02       0          179.934    -955       274        9972       0.14       13307      1594       4373.51    52.501    
2033.4     874        6.02       6.02       0          179.935    -955       274        9972       0.14       13308      1593       4373.98    52.506    
2033.6     698        6.02       6.02       0          179.978    -955       274        9974       0.14       13310      1591       4374.41    52.511    
2033.8     688        6.44       6.44       0          179.989    -955       293        9975       0.14       13311      1592       4374.87    52.516    
2034       640        6.77       6.77       0          180        -955       308        9975       0.14       13313      1592       4375.32    52.524    
2034.2     672        6.77       6.77       0          180.043    -955       308        9977       0.14       13313      1593       4375.77    52.526    
2034.4     636        6.77       6.77       0          180.061    -955       308        9978       0.14       13315      1593       4376.22    52.531    
2034.6     652        6.77       6.77       0          180.051    -955       308        9977       0.14       13316      1593       4376.69    52.535    
2034.8     589        6.77       6.77       0          180.078    -955       308        9979       0.14       13317      1594       4377.15    52.54     
2035       427        6.23       6.23       0          180.106    -955       283        9980       0.14       13318      1594       4377.59    52.545    
2035.2     608        6.15       6.15       0          180.109    -955       280        9980       0.14       13319      1593       4378.05    52.55     
2035.4     476        6.15       6.15       0          180.13     -955       280        9981       0.14       13321      1591       4378.52    52.555    
2035.6     4488       6.15       6.15       0          180.15     -955       280        9982       0.14       13321      1591       4378.96    52.556    
2035.8     4321       6.15       6.15       0          180.173    -955       280        9983       0.14       13322      1592       4379.43    52.561    
2036       2900       5.37       5.37       0          180.192    -955       244        9984       0.14       13323      1592       4379.87    52.566    
2036.2     1409       5.32       5.32       0          180.219    -965       242        9985       0.14       13325      1593       4380.55    52.57     
2036.4     1007       5.32       5.32       0          180.23     -965       242        9986       0.14       13325      1593       4381.02    52.572    
2036.6     669        5.32       5.32       0          180.229    -965       242        9986       0.14       13326      1594       4381.48    52.576    
2036.8     623        5.32       5.32       0          180.256    -965       242        9987       0.14       13327      1593       4381.9     52.581    
2037       527        5.39       5.39       0          180.281    -965       245        9988       0.14       13328      1593       4382.36    52.586    
2037.2     564        6.57       6.57       0          180.286    -965       299        9988       0.14       13330      1593       4382.83    52.591    
2037.4     529        6.57       6.57       0          180.312    -965       299        9989       0.14       13330      1594       4383.3     52.593    
2037.6     505        6.57       6.57       0          180.325    -965       299        9990       0.14       13331      1592       4383.73    52.597    
2037.8     604        6.57       6.57       0          180.356    -965       299        9991       0.14       13333      1591       4384.18    52.603    
2038       502        6.57       6.57       0          180.383    -965       299        9993       0.14       13334      1591       4384.65    52.609    
2038.2     601        6.47       6.47       0          180.39     -965       295        9993       0.14       13335      1592       4385.09    52.614    
2038.4     550        6.46       6.46       0          180.413    -965       294        9994       0.14       13337      1592       4385.56    52.619    
2038.6     480        6.46       6.46       0          180.433    -965       294        9995       0.14       13338      1591       4386.03    52.624    
2038.8     487        6.46       6.46       0          180.456    -965       294        9996       0.14       13339      1589       4386.48    52.628    
2039       458        6.46       6.46       0          180.477    -965       294        9997       0.14       13340      1590       4386.91    52.634    
2039.2     410        5.34       5.34       0          180.496    -965       243        9998       0.14       13341      1591       4387.37    52.637    
2039.4     464        5.34       5.34       0          180.503    -965       243        9998       0.14       13342      1592       4387.84    52.639    
2039.6     449        5.34       5.34       0          180.529    -965       243        9999       0.14       13343      1589       4388.31    52.644    
2039.8     510        5.34       5.34       0          180.542    -965       243        10000      0.14       13344      1588       4388.76    52.649    
2040       571        5.34       5.34       0          180.561    -965       243        10001      0.14       13345      1589       4389.22    52.654    
2040.2     742        5.28       5.28       0          180.585    -965       241        10002      0.14       13347      1590       4389.64    52.659    
2040.4     754        4.9        4.9        0          180.593    -965       223        10002      0.14       13348      1590       4390.12    52.664    
2040.6     724        4.9        4.9        0          180.618    -965       223        10004      0.14       13350      1591       4390.57    52.672    
2040.8     699        4.9        4.9        0          180.645    -965       223        10005      0.14       13351      1592       4391.04    52.677    
2041       715        4.9        4.9        0          180.651    -965       223        10005      0.14       13351      1592       4391.47    52.679    
2041.2     526        4.9        4.9        0          180.693    -965       223        10007      0.14       13353      1593       4391.91    52.684    
2041.4     483        5.09       5.09       0          180.685    -965       232        10007      0.14       13354      1593       4392.38    52.688    
2041.6     423        5.32       5.32       0          180.702    -965       242        10007      0.14       13355      1593       4392.85    52.693    
2041.8     688        5.32       5.32       0          180.751    -965       242        10010      0.14       13356      1594       4393.29    52.698    
2042       741        5.32       5.32       0          180.743    -965       242        10009      0.14       13357      1594       4393.74    52.703    
2042.2     743        5.32       5.32       0          180.787    -965       242        10011      0.14       13359      1594       4394.19    52.708    
2042.4     703        5.32       5.32       0          180.802    -965       242        10012      0.14       13360      1594       4394.62    52.713    
2042.6     832        6.08       6.08       0          180.802    -965       277        10012      0.14       13361      1594       4395.12    52.717    
