~Version
 VERS              .         2.0                           : CWLS LOG ASCII STANDARD - VERSION 2.0
 WRAP              .         NO                            : ONE LINE PER DEPTH STEP
 DLM               .         SPACE                         : DELIMITING CHARACTER(SPACE TAB OR COMMA)
~Well Information
#_______________________________________________________________________________
#
#PARAMETER_NAME    .UNIT     VALUE                         : DESCRIPTION
#_______________________________________________________________________________
STRT               .M        2338.9                        : First reference value
STOP               .M        2799.2                        : Last reference value
STEP               .M        0.1                           : Step increment
NULL               .         -9999                         : Missing value
COMP               .                                       : Company
WELL               .         616                           : Well name
FLD                .                                       : Field
LOC                .                                       : Location
CNTY               .                                       : County
STAT               .                                       : State
CTRY               .                                       : Country
SRVC               .                                       : Service Company
DATE               .                                       : Date
API                .                                       : API number
PROJECT_UPGRADE_TIME .         2021-03-18T21_24_50           : 
group              .         Good                          : 
~Parameter Information Block
#_______________________________________________________________________________
#
#PARAMETER_NAME    .UNIT     VALUE                         : DESCRIPTION
#_______________________________________________________________________________
SET                .         D2662_D                       : 
OTHER              .         Программное обеспечение станции MONITOR-386EX 25/12/99 15_08_10   BGF V50 26/12/00 07_26_01   3.1_SNGF___BGF_N_092085: 
OTHER_10           .         Тарировки_                    : 
OTHER_11           .         IK1.GRD = IK1$.UE - -5.96     : 
OTHER_12           .         IK5.GRD = IK5$.UE - -0.74     : 
OTHER_13           .         IK4.GRD = IK4$.UE - -0.9      : 
OTHER_14           .         IK3.GRD = IK3$.UE - -1.28     : 
OTHER_15           .         IK2.GRD = IK2$.UE - -3.55     : 
OTHER_2            .         Kedr.exe версия 3.3.2.32      : 
OTHER_3            .         KedrData.dll версия 3.3.2.17  : 
OTHER_4            .         Драйвер версия 2.1.0.4        : 
OTHER_5            .         Мнемоники версия 3.3 S        : 
OTHER_6            .         Прибор_ Викиз                 : 
OTHER_7            .         Номер прибора_ 0006012        : 
OTHER_8            .         Режим_ Викиз                  : 
OTHER_9            .         Форма_ ВИКИЗ                  : 
PROJECT_UPGRADE_TIME .         2021-03-18T21_24_49           : 
TLFamily_DEPT      .         Measured Depth                : 
TLFamily_IK1       .         Extra Shallow Resistivity     : 
TLFamily_IK1$      .         Extra Shallow Resistivity     : 
TLFamily_IK2       .         Shallow Resistivity           : 
TLFamily_IK2$      .         Shallow Resistivity           : 
TLFamily_IK3       .         Medium Resistivity            : 
TLFamily_IK3$      .         Medium Resistivity            : 
TLFamily_IK4       .         Deep Resistivity              : 
TLFamily_IK4$      .         Deep Resistivity              : 
TLFamily_IK5       .         Resistivity 20                : 
TLFamily_IK5$      .         Resistivity 20                : 
TLFamily_METKA     .                                       : 
TLFamily_PS        .         Spontaneous Potential         : 
TLFamily_RCOR      .                                       : 
TLFamily_SPID      .         Spontaneous Potential         : 
TLFamily_TENS      .         Cable Tension                 : 
TLFamily_TIME      .         Time                          : 
group              .         prim                          : 
~Curve Information
#_______________________________________________________________________________
#
#LOGNAME           .UNIT     LOG_ID                        : DESCRIPTION
#_______________________________________________________________________________
DEPT               .M                                      : 1 Глубина, м -    0.0 см 
IK1                .GRD                                    : 13 3Ф0.5, град. -  226.0 см 
IK1$               .UE                                     : 7 3Ф0.5, усл.ед. -  226.0 см 
IK2                .GRD                                    : 17 3Ф0.7, град. -  240.0 см 
IK2$               .UE                                     : 11 3Ф0.7, усл.ед. -  240.0 см 
IK3                .GRD                                    : 16 3Ф1.0, град. -  260.0 см 
IK3$               .UE                                     : 10 3Ф1.0, усл.ед. -  260.0 см 
IK4                .GRD                                    : 15 3Ф1.4, град. -  288.0 см 
IK4$               .UE                                     : 9 3Ф1.4, усл.ед. -  288.0 см 
IK5                .GRD                                    : 14 3Ф2.0, град. -  328.0 см 
IK5$               .UE                                     : 8 3Ф2.0, усл.ед. -  328.0 см 
METKA              .                                       : 3 Метки,  -    0.0 см 
PS                 .mV                                     : 12 ПС, мВ -  372.0 см 
RCOR               .CM/KM                                  : 5 Коррекция по ролику, см/км -    0.0 см 
SPID               .M/H                                    : 2 Скорость, м/час -    0.0 см 
TENS               .T                                      : 6 Натяжение кабеля, т -    0.0 см 
TIME               .S                                      : 4 Время, сек -    0.0 см 
~Ascii
# ...
2674.3     11.29      5.33       10.52      6.97       10.16      8.88       10.13      9.23       10.71      9.97       0          313.96     -335       -1805      0          34829.16  
2674.4     12         6.04       11.17      7.62       10.67      9.39       10.55      9.65       11.02      10.28      0          313.02     -335       -1809      0          34828.97  
2674.5     12.9       6.94       11.83      8.28       11.28      10         10.9       10         11.32      10.58      0          312.13     -335       -1814      0          34828.79  
2674.6     13.49      7.53       12.49      8.94       11.72      10.44      11.18      10.28      11.53      10.79      0          311.52     -335       -1820      0          34828.56  
2674.7     13.81      7.85       12.84      9.29       12.06      10.78      11.39      10.49      11.68      10.94      0          311.47     -335       -1811      0          34828.37  
2674.8     13.99      8.03       13.05      9.5        12.33      11.05      11.54      10.64      11.78      11.04      0          311.61     -335       -1799      0          34828.18  
2674.9     14.07      8.11       13.24      9.69       12.55      11.27      11.66      10.76      11.83      11.09      0          311.74     -335       -1787      0          34827.97  
2675       14.17      8.21       13.43      9.88       12.75      11.47      11.8       10.9       11.86      11.12      0          311.86     -335       -1801      0          34827.78  
2675.1     14.21      8.25       13.56      10.01      12.97      11.69      11.98      11.08      11.89      11.15      0          312.07     -335       -1817      0          34827.6   
2675.2     14.15      8.19       13.61      10.06      13.13      11.85      12.12      11.22      11.94      11.2       0          312.18     -335       -1832      0          34827.38  
2675.3     14.12      8.16       13.64      10.09      13.27      11.99      12.26      11.36      11.98      11.24      0          312.56     -335       -1825      0          34827.18  
2675.4     14.15      8.19       13.66      10.11      13.37      12.09      12.41      11.51      12.01      11.27      0          312.7      -335       -1816      0          34826.98  
2675.5     14.14      8.18       13.63      10.08      13.44      12.16      12.53      11.63      12.06      11.32      0          312.86     -335       -1813      0          34826.8   
2675.6     14.08      8.12       13.54      9.99       13.43      12.15      12.62      11.72      12.11      11.37      0          313.27     -335       -1819      0          34826.58  
2675.7     14.04      8.08       13.47      9.92       13.41      12.13      12.7       11.8       12.16      11.42      0          313.37     -335       -1826      0          34826.39  
2675.8     14.06      8.1        13.45      9.9        13.4       12.12      12.78      11.88      12.21      11.47      0          313.59     -335       -1824      0          34826.2   
2675.9     14.06      8.1        13.42      9.87       13.37      12.09      12.84      11.94      12.27      11.53      0          313.92     -335       -1816      0          34826.01  
2676       14.05      8.09       13.38      9.83       13.32      12.04      12.87      11.97      12.32      11.58      0          314.29     -335       -1804      0          34825.79  
2676.1     14.01      8.05       13.33      9.78       13.25      11.97      12.87      11.97      12.35      11.61      0          314.57     -335       -1804      0          34825.62  
2676.2     13.97      8.01       13.28      9.73       13.18      11.9       12.84      11.94      12.39      11.65      0          314.84     -335       -1807      0          34825.43  
2676.3     13.94      7.98       13.22      9.67       13.11      11.83      12.79      11.89      12.4       11.66      0          315.13     -335       -1811      0          34825.21  
2676.4     13.88      7.92       13.15      9.6        13.04      11.76      12.73      11.83      12.4       11.66      0          315.48     -335       -1816      0          34825.02  
2676.5     13.79      7.83       13.08      9.53       12.97      11.69      12.64      11.74      12.38      11.64      0          315.66     -335       -1823      0          34824.83  
2676.6     13.73      7.77       13.01      9.46       12.91      11.63      12.57      11.67      12.34      11.6       0          315.84     -335       -1829      0          34824.6   
2676.7     13.69      7.73       12.96      9.41       12.85      11.57      12.49      11.59      12.28      11.54      0          316.05     -335       -1822      0          34824.41  
2676.8     13.62      7.66       12.9       9.35       12.79      11.51      12.4       11.5       12.21      11.47      0          316.33     -335       -1813      0          34824.23  
2676.9     13.57      7.61       12.84      9.29       12.71      11.43      12.31      11.41      12.09      11.35      0          316.35     -335       -1806      0          34824.02  
2677       13.54      7.58       12.78      9.23       12.63      11.35      12.18      11.28      11.95      11.21      0          316.5      -335       -1810      0          34823.81  
2677.1     13.44      7.48       12.66      9.11       12.5       11.22      11.99      11.09      11.78      11.04      0          316.6      -335       -1815      0          34823.63  
2677.2     13.29      7.33       12.5       8.95       12.28      11         11.78      10.88      11.57      10.83      0          316.73     -335       -1815      0          34823.45  
2677.3     13.1       7.14       12.26      8.71       12.05      10.77      11.54      10.64      11.36      10.62      0          316.77     -335       -1803      0          34823.23  
2677.4     12.9       6.94       12.01      8.46       11.79      10.51      11.26      10.36      11.13      10.39      0          316.78     -335       -1789      0          34823.05  
2677.5     12.55      6.59       11.72      8.17       11.43      10.15      10.91      10.01      10.83      10.09      0          317.07     -335       -1780      0          34822.86  
2677.6     12.18      6.22       11.31      7.76       11.08      9.8        10.6       9.7        10.59      9.85       0          317.43     -335       -1778      0          34822.65  
2677.7     11.74      5.78       10.87      7.32       10.71      9.43       10.3       9.4        10.36      9.62       0          317.8      -335       -1775      0          34822.45  
2677.8     11.23      5.27       10.41      6.86       10.29      9.01       9.99       9.09       10.16      9.42       0          318.18     -335       -1781      0          34822.27  
2677.9     10.69      4.73       10.03      6.48       9.99       8.71       9.81       8.91       10.01      9.27       0          318.74     -335       -1795      0          34822.05  
2678       10.4       4.44       9.77       6.22       9.85       8.57       9.73       8.83       9.96       9.22       0          319.47     -335       -1810      0          34821.86  
2678.1     10.3       4.34       9.73       6.18       9.85       8.57       9.78       8.88       10.01      9.27       0          319.92     -335       -1817      0          34821.68  
2678.2     10.4       4.44       9.83       6.28       9.99       8.71       9.93       9.03       10.15      9.41       0          319.88     -335       -1824      0          34821.46  
2678.3     10.65      4.69       10.04      6.49       10.18      8.9        10.13      9.23       10.34      9.6        0          319.58     -335       -1831      0          34821.24  
2678.4     10.95      4.99       10.32      6.77       10.41      9.13       10.36      9.46       10.55      9.81       0          319.24     -335       -1824      0          34821.05  
2678.5     11.33      5.37       10.6       7.05       10.66      9.38       10.66      9.76       10.85      10.11      0          318.93     -335       -1816      0          34820.87  
