~Version
 VERS              .         2.0                           : CWLS LOG ASCII STANDARD - VERSION 2.0
 WRAP              .         NO                            : ONE LINE PER DEPTH STEP
 DLM               .         SPACE                         : DELIMITING CHARACTER(SPACE TAB OR COMMA)
~Well Information
#_______________________________________________________________________________
#
#PARAMETER_NAME    .UNIT     VALUE                         : DESCRIPTION
#_______________________________________________________________________________
STRT               .M        2667.4                        : First reference value
STOP               .M        2776                          : Last reference value
STEP               .M        0.2000002                     : Step increment
NULL               .         -9999                         : Missing value
COMP               .                                       : Company
WELL               .         616                           : Well name
FLD                .                                       : Field
LOC                .                                       : Location
CNTY               .                                       : County
STAT               .                                       : State
CTRY               .                                       : Country
SRVC               .                                       : Service Company
DATE               .                                       : Date
API                .                                       : API number
PROJECT_UPGRADE_TIME .         2021-03-18T21_24_50           : 
group              .         Good                          : 
~Parameter Information Block
#_______________________________________________________________________________
#
#PARAMETER_NAME    .UNIT     VALUE                         : DESCRIPTION
#_______________________________________________________________________________
SET                .         D1800_D                       : 
OTHER              .         Программное обеспечение станции MONITOR-386EX 25/12/99 15_08_10   BGF V52 22/08/01 16_56_30   3.1_SNGF___BGF_N_092049: 
OTHER_10           .         Тарировки_                    : 
OTHER_11           .         TM.GRD = 0.00403*TM$.UE + -1.07: 
OTHER_12           .         MN.ATM = (9.34907e-006*TM.GRD + 0.02171)*(MN$.UE + -7.93*TM.GRD + -1787): 
OTHER_13           .         GK.MKR/H = LM. / 42.4676      : 
OTHER_14           .         GK.FLT = 0.1*GK.MKR/H[-1] + (1-0.1)*GK.MKR/H[0]: 
OTHER_2            .         Kedr.exe версия 3.4.2.51      : 
OTHER_3            .         KedrData.dll версия 3.4.2.24  : 
OTHER_4            .         Драйвер версия 2.1.1.3        : 
OTHER_5            .         Мнемоники версия 3.3 S        : 
OTHER_6            .         Прибор_ КСА-Т4                : 
OTHER_7            .         Номер прибора_ 03             : 
OTHER_8            .         Режим_ КСА-Т4                 : 
OTHER_9            .         Форма_ КВА.                   : 
PROJECT_UPGRADE_TIME .         2021-03-18T21_24_49           : 
TLFamily_DEPT      .         Measured Depth                : 
TLFamily_GK        .         Gamma Ray                     : 
TLFamily_GK$       .                                       : 
TLFamily_GK_2      .         Gamma Ray                     : 
TLFamily_LM        .         Casing Collar locator         : 
TLFamily_METKA     .                                       : 
TLFamily_MN        .                                       : 
TLFamily_MN$       .                                       : 
TLFamily_RCOR      .                                       : 
TLFamily_SPID      .         Spontaneous Potential         : 
TLFamily_TENS      .         Cable Tension                 : 
TLFamily_TIME      .         Time                          : 
TLFamily_TM        .         Temperature                   : 
TLFamily_TM$       .         Temperature                   : 
group              .         prim                          : 
~Curve Information
#_______________________________________________________________________________
#
#LOGNAME           .UNIT     LOG_ID                        : DESCRIPTION
#_______________________________________________________________________________
DEPT               .M                                      : 1 Глубина, м -    0.0 см 
GK                 .MKR/H                                  : 13 Гамма-активность, мкр./ч -  110.0 см 
GK$                .UE                                     : 10 Гамма-активность, усл.ед. -  110.0 см 
GK_2               .FLT                                    : 14 Гамма-активность фильтрованная, мкр./ч -  110.0 см 
LM                 .                                       : 9 Локатор муфт,  -   20.0 см 
METKA              .                                       : 3 Метки,  -    0.0 см 
MN                 .ATM                                    : 12 Давление, атм. -  160.0 см 
MN$                .UE                                     : 8 Давление, усл.ед. -  160.0 см 
RCOR               .CM/KM                                  : 5 Коррекция по ролику, см/км -    0.0 см 
SPID               .M/H                                    : 2 Скорость, м/час -    0.0 см 
TENS               .T                                      : 6 Натяжение кабеля, т -    0.0 см 
TIME               .S                                      : 4 Время, сек -    0.0 см 
TM                 .GRD                                    : 11 Температура, °C -  170.0 см 
TM$                .UE                                     : 7 Температура, усл.ед. -  170.0 см 
~Ascii
# ...
2740.2     14.32      608        14.29      82         0          251.518    13513      -616       -222       0.19       6576.77    46.398     11779     
2740.4     14.41      612        14.52      79         0          251.543    13515      -616       -225       0.17       6573.5     46.516     11808     
2740.6     15.66      665        15.66      88         0          251.559    13516      -616       -228       0.17       6570.37    46.613     11832     
2740.8     16.41      697        16.41      105        0          251.579    13517      -616       -234       0.17       6567.25    46.673     11847     
2741       16.37      695        16.25      111        0          251.623    13519      -616       -231       0.17       6564.19    46.69      11851     
2741.2     16.29      692        16.3       146        0          251.637    13520      -616       -229       0.18       6561.12    46.726     11860     
2741.4     16.53      702        16.35      135        0          251.651    13521      -616       -231       0.17       6557.98    46.879     11898     
2741.6     14.59      620        14.07      88         0          251.689    13523      -616       -233       0.18       6554.79    46.977     11922     
2741.8     13.45      571        13.44      87         0          251.707    13524      -616       -232       0.16       6551.8     47.036     11937     
2742       13.21      561        13.2       133        0          251.727    13525      -616       -236       0.21       6548.61    47.099     11952     
2742.2     12.41      527        12.35      171        0          251.765    13527      -616       -231       0.18       6545.47    47.153     11966     
2742.4     10.97      466        10.78      113        0          251.779    13528      -616       -226       0.17       6542.34    47.234     11986     
2742.6     12.39      526        12.39      118        0          251.807    13530      -616       -231       0.17       6539.21    47.369     12020     
2742.8     13.3       565        13.28      124        0          251.829    13531      -616       -232       0.17       6536.09    47.416     12031     
2743       11.54      490        11.47      125        0          251.855    13532      -616       -224       0.17       6533.03    47.483     12048     
2743.2     10.2       433        10.21      96         0          251.874    13533      -616       -222       0.17       6529.96    47.533     12060     
2743.4     10.27      436        10.27      133        0          251.915    13535      -616       -214       0.17       6526.83    47.568     12069     
2743.6     10.88      462        10.88      112        0          251.955    13537      -616       -231       0.17       6523.58    47.621     12082     
2743.8     11.59      492        11.55      139        0          251.951    13537      -616       -238       0.17       6520.45    47.677     12096     
2744       10.88      462        10.72      102        0          251.986    13539      -616       -234       0.17       6517.32    47.723     12107     
2744.2     10.13      430        10.13      91         0          252.012    13540      -616       -231       0.17       6514.25    47.766     12118     
2744.4     10.17      432        10.17      107        0          252.053    13542      -616       -232       0.17       6511.19    47.814     12130     
2744.6     10.53      447        10.55      117        0          252.073    13543      -616       -235       0.17       6508.06    47.842     12137     
2744.8     11.16      474        11.3       152        0          252.111    13545      -616       -223       0.17       6504.94    47.903     12152     
2745       10.71      455        10.71      125        0          252.127    13546      -616       -224       0.17       6501.87    48.027     12183     
2745.2     9.63       409        9.64       100        0          252.145    13547      -616       -229       0.17       6498.67    48.084     12197     
2745.4     10.13      430        10.12      123        0          252.183    13549      -616       -233       0.17       6495.42    48.152     12214     
2745.6     9.84       418        9.74       143        0          252.199    13550      -616       -228       0.17       6492.29    48.237     12235     
2745.8     9.94       422        9.94       136        0          252.228    13552      -616       -233       0.17       6489.3     48.344     12262     
2746       9.58       407        9.58       134        0          252.247    13553      -616       -242       0.17       6486.16    48.386     12272     
2746.2     9.35       397        9.37       135        0          252.272    13554      -616       -231       0.17       6483.09    48.467     12292     
2746.4     9.77       415        9.75       118        0          252.299    13555      -616       -236       0.17       6479.91    48.535     12309     
2746.6     10.38      441        10.38      111        0          252.33     13557      -616       -225       0.17       6476.9     48.594     12324     
2746.8     10.64      452        10.64      161        0          252.344    13558      -616       -235       0.17       6473.66    48.709     12352     
2747       9.63       409        9.59       134        0          252.314    13557      -616       -226       0.17       6470.39    48.811     12377     
2747.2     8.74       371        8.97       216        0          252.396    13561      -616       -234       0.17       6467.33    48.899     12399     
2747.4     10.77      457        10.97      2605       0          252.433    13563      -616       -233       0.17       6464.31    49.023     12430     
2747.6     11.68      496        11.68      390        0          252.448    13564      -616       -240       0.17       6461.12    49.12      12454     
2747.8     12.48      530        12.48      114        0          252.466    13565      -616       -236       0.17       6458.13    49.2       12474     
2748       12.55      533        12.23      83         0          252.505    13567      -616       -228       0.17       6454.94    49.27      12491     
2748.2     11.14      473        11.14      76         0          252.548    13569      -616       -228       0.17       6451.86    49.305     12500     
2748.4     11.42      485        11.42      85         0          252.551    13570      -616       -236       0.17       6448.55    49.412     12527     
2748.6     11.3       480        11.3       86         0          252.565    13571      -616       -226       0.17       6445.36    49.571     12566     
2748.8     11.35      482        11.35      107        0          252.599    13573      -616       -234       0.17       6442.36    49.619     12578     
2749       11.63      494        11.63      62         0          252.607    13574      -616       -227       0.17       6439.23    49.833     12631     
2749.2     11.82      502        11.82      69         0          252.632    13575      -616       -227       0.17       6436.1     49.986     12669     
2749.4     11.07      470        11.07      82         0          252.668    13577      -616       -236       0.17       6432.97    50.079     12692     
2749.6     11.18      475        11.2       105        0          252.692    13579      -616       -235       0.19       6429.96    50.216     12726     
2749.8     11.56      491        11.56      82         0          252.693    13579      -616       -232       0.17       6426.78    50.343     12758     
2750       11.84      503        11.84      73         2          252.705    13580      -616       -233       0.17       6423.59    50.518     12801     
2750.2     11.49      488        11.49      70         0          252.737    13582      -608       -232       0.18       6419.2     50.682     12842     
2750.4     11.42      485        11.62      71         0          252.752    13583      -608       -234       0.17       6416.08    50.78      12866     
