~Version
 VERS              .         2.0                           : CWLS LOG ASCII STANDARD - VERSION 2.0
 WRAP              .         NO                            : ONE LINE PER DEPTH STEP
 DLM               .         SPACE                         : DELIMITING CHARACTER(SPACE TAB OR COMMA)
~Well Information
#_______________________________________________________________________________
#
#PARAMETER_NAME    .UNIT     VALUE                         : DESCRIPTION
#_______________________________________________________________________________
STRT               .M        2700.4                        : First reference value
STOP               .M        2799                          : Last reference value
STEP               .M        0.2000002                     : Step increment
NULL               .         -9999                         : Missing value
COMP               .                                       : Company
WELL               .         616                           : Well name
FLD                .                                       : Field
LOC                .                                       : Location
CNTY               .                                       : County
STAT               .                                       : State
CTRY               .                                       : Country
SRVC               .                                       : Service Company
DATE               .                                       : Date
API                .                                       : API number
PROJECT_UPGRADE_TIME .         2021-03-18T21_24_50           : 
group              .         Good                          : 
~Parameter Information Block
#_______________________________________________________________________________
#
#PARAMETER_NAME    .UNIT     VALUE                         : DESCRIPTION
#_______________________________________________________________________________
SET                .         D2658_D                       : 
OTHER              .         Программное обеспечение станции MONITOR-386EX 25/12/99 15_08_10   BGF V50 26/12/00 07_26_01   3.1_SNGF___BGF_N_092085: 
OTHER_10           .         Тарировки_                    : 
OTHER_11           .         <_techsia_sc_> Постоянная времени фильтра ПС  0.5 сек, kf=0.139292: 
OTHER_2            .         Kedr.exe версия 3.3.2.32      : 
OTHER_3            .         KedrData.dll версия 3.3.2.17  : 
OTHER_4            .         Драйвер версия 2.1.0.7        : 
OTHER_5            .         Мнемоники версия 3.3 S        : 
OTHER_6            .         Прибор_ К1a-723м              : 
OTHER_7            .         Номер прибора_ 348/72         : 
OTHER_8            .         Режим_ K1A-723M               : 
OTHER_9            .         Форма_ БКЗ                    : 
PROJECT_UPGRADE_TIME .         2021-03-18T21_24_49           : 
TLFamily_BK        .         Lateral Log Resistivity       : 
TLFamily_DEPT      .         Measured Depth                : 
TLFamily_GZ1       .         Extra Shallow Resistivity     : 
TLFamily_GZ2       .         Shallow Resistivity           : 
TLFamily_GZ3       .         Medium Resistivity            : 
TLFamily_GZ4       .         Deep Resistivity              : 
TLFamily_GZ5       .         Extra Deep Resistivity        : 
TLFamily_GZ6       .         Medium Resistivity Inverted   : 
TLFamily_IBK       .                                       : 
TLFamily_IK        .         Conductivity                  : 
TLFamily_IPR       .                                       : 
TLFamily_METKA     .                                       : 
TLFamily_PS        .         Spontaneous Potential         : 
TLFamily_PZ        .         Potential Resistivity         : 
TLFamily_RCOR      .                                       : 
TLFamily_RES       .         Mud Resistivity               : 
TLFamily_SPID      .         Spontaneous Potential         : 
TLFamily_TENS      .         Cable Tension                 : 
TLFamily_TIME      .         Time                          : 
TLFamily_UBK       .         Uranium Concentration         : 
group              .         prim                          : 
~Curve Information
#_______________________________________________________________________________
#
#LOGNAME           .UNIT     LOG_ID                        : DESCRIPTION
#_______________________________________________________________________________
DEPT               .M                                      : 1 Глубина, м -    0.0 см 
BK                 .OHMM                                   : 20 БК, Ом*м - 1768.0 см 
GZ1                .OHMM                                   : 12 A0.4M0.1N, Ом*м - 1295.0 см 
GZ2                .OHMM                                   : 11 A1.0M0.1N, Ом*м - 1355.0 см 
GZ3                .OHMM                                   : 9 A2.0M0.5N, Ом*м - 1475.0 см 
GZ4                .OHMM                                   : 8 A4.0M0.5N, Ом*м - 1025.0 см 
GZ5                .OHMM                                   : 7 A8.0M1.0N, Ом*м - 1450.0 см 
GZ6                .OHMM                                   : 10 N0.5M2.0A, Ом*м - 1025.0 см 
IBK                .A                                      : 18 Ток БК, А - 1768.0 см 
IK                 .MSM/M                                  : 14 ИК, мСм/м - 1961.0 см 
IPR                .MA                                     : 17 Ток прибора, мA -    0.0 см 
METKA              .                                       : 3 Метки,  -    0.0 см 
PS                 .mV                                     : 16 ПС, мВ - 1210.0 см 
PZ                 .OHMM                                   : 13 N11M0.5A, Ом*м - 1225.0 см 
RCOR               .CM/KM                                  : 5 Коррекция по ролику, см/км -    0.0 см 
RES                .OHMM                                   : 15 Резистивиметр, Ом*м -  600.0 см 
SPID               .M/H                                    : 2 Скорость, м/час -    0.0 см 
TENS               .T                                      : 6 Натяжение кабеля, т -    0.0 см 
TIME               .S                                      : 4 Время, сек -    0.0 см 
UBK                .V                                      : 19 Напр. БК, В - 1768.0 см 
~Ascii
# ...
2759.6     7.71       9.2        9.1        9.6        7.7        6.1        8.5        0.025      109.7      425.488    0          580.62     10.6       -260       2.758      -1771      0          28232.43   0.819     
2759.8     8.1        9.7        9.8        9.6        7.9        6.5        9          0.024      108.9      425.333    0          580.64     10.8       -260       2.759      -1756      0          28232.01   0.821     
2760       7.08       10.2       9.9        9.6        8.1        7          9.4        0.028      109.1      426        0          581.03     10.5       -260       2.761      -1752      0          28231.64   0.823     
2760.2     7.13       9.4        9.6        9.5        8.3        7.9        10.3       0.027      109.5      424        0          581.46     10.9       -260       2.765      -1768      0          28231.29   0.821     
2760.4     8.94       9.4        10         10.3       9.4        8.4        11.7       0.022      109.7      426        0          580.36     11.4       -260       2.765      -1803      0          28230.82   0.82      
2760.6     9.05       11.3       11.6       10.5       9.3        8.5        10.7       0.022      106.8      427.984    0          580.47     10.9       -260       2.764      -1831      0          28230.41   0.823     
2760.8     7.57       10.6       9.7        9.6        8.5        8.5        9.2        0.026      107.3      426.994    0          580.56     10.6       -260       2.759      -1842      0          28230.06   0.822     
2761       7.88       10.6       9.2        8.5        8.3        8          8.6        0.025      108.2      426        0          580.25     10.5       -260       2.761      -1828      0          28229.63   0.819     
2761.2     7.71       10.5       9.5        8.2        8.6        7.5        8.3        0.025      109.5      427.333    0          580.19     10.4       -260       2.763      -1802      0          28229.21   0.824     
2761.4     7.34       10.1       9.8        8.1        8.6        7.2        8.4        0.027      109        426        0          580.22     10.4       -260       2.763      -1785      0          28228.83   0.836     
2761.6     7.42       9.6        10         7.9        8.4        7.2        8.6        0.027      109.5      426        0          579.43     10.6       -260       2.761      -1782      0          28228.48   0.844     
2761.8     7.37       9.5        10.1       7.9        8.3        7.3        8.7        0.027      109.7      425.333    0          579.74     10.9       -260       2.763      -1775      0          28228.06   0.838     
2762       7.46       9.4        9.6        7.8        8          7.3        8.8        0.026      110        424.667    0          579.53     11.3       -260       2.76       -1798      0          28227.65   0.831     
2762.2     7.22       9.2        9.4        7.9        7.9        7.4        9          0.027      108.5      426        0          580.12     11.1       -260       2.761      -1824      0          28227.25   0.826     
2762.4     8.43       9.1        9.3        8.3        8          7.8        9.6        0.023      107.9      428        0          579.06     10.7       -260       2.763      -1794      0          28226.85   0.822     
2762.6     8.11       9.8        9.8        9.2        9          8.2        10.7       0.024      107.2      426.683    0          578.95     10.8       -260       2.76       -1793      0          28226.43   0.824     
2762.8     9.74       11.1       11.6       10.3       9.3        8.2        10.6       0.02       106.3      425.333    0          579.12     10.5       -260       2.761      -1795      0          28226.04   0.825     
2763       7.56       11.1       11.2       10.6       8.8        8.2        10.3       0.026      106.9      426        0          580.37     10.5       -260       2.763      -1799      0          28225.68   0.823     
2763.2     7.44       10.4       10.1       9.7        8.1        8.2        9.8        0.026      109.1      427        0          580.44     10.5       -260       2.762      -1806      0          28225.26   0.824     
2763.4     7.15       9.7        9.7        9          7.6        7.6        9.8        0.027      110.5      426        0          579.84     10.4       -260       2.76       -1819      0          28224.87   0.824     
2763.6     7.93       9.3        9.4        8.5        7.2        7.3        9.8        0.025      111.5      426.988    0          579.23     10.2       -260       2.761      -1830      0          28224.53   0.823     
2763.8     7.73       9.5        9.7        8.2        7.1        7.2        10.3       0.025      112.5      426        0          579.79     10.2       -260       2.762      -1807      0          28224.08   0.821     
2764       7.19       9.9        9.9        8.3        7.2        7.2        11.2       0.027      111.5      426        0          580.57     10.2       -260       2.763      -1807      0          28223.68   0.817     
2764.2     7.68       9.5        9.7        8.2        7.1        6.9        11.8       0.025      112.1      426        0          580.7      10.4       -260       2.759      -1822      0          28223.26   0.816     
2764.4     7.17       9.2        9.2        8          6.9        6.9        12.5       0.027      112        426        0          579.96     10.5       -260       2.761      -1840      0          28222.93   0.816     
2764.6     7.17       9.1        9.2        8          6.8        6.6        12.5       0.027      111.9      424.41     0          579.52     10.7       -260       2.761      -1825      0          28222.48   0.821     
2764.8     7.96       8.9        9          7.9        7          6.3        11.3       0.025      111        428        0          578.68     10.8       -260       2.762      -1830      0          28222.1    0.828     
2765       7.97       9.5        8.9        8.1        7          6.4        8.4        0.025      109.6      425.6      0          579.01     11         -260       2.761      -1853      0          28221.78   0.836     
2765.2     7.76       9.6        8.9        8.1        6.8        6.5        6.5        0.026      107.6      426        0          579.48     11.4       -260       2.762      -1848      0          28221.32   0.851     
2765.4     7.39       9.4        8.8        7.9        6.7        6.4        5.9        0.028      107.1      425.5      0          578.74     12.1       -260       2.762      -1838      0          28220.93   0.87      
2765.6     7.72       9.3        8.9        7.6        6.6        6.7        5.6        0.028      104.8      426        0          577.69     12.9       -260       2.762      -1822      0          28220.59   0.903     
2765.8     8.05       9.1        8.7        7.4        6.5        6.8        5.5        0.028      100.8      426.667    0          575.85     14.1       -260       2.76       -1792      0          28220.14   0.94      
2766       8.15       9.4        8.5        7.1        6.4        7.3        5.8        0.028      97.5       427.5      0          575.07     15.8       -260       2.761      -1789      0          28219.78   0.977     
2766.2     7.84       9.3        8.2        7.1        6.5        8.9        6.6        0.029      93.3       425.333    0          575.34     17.3       -260       2.762      -1789      0          28219.43   0.973     
2766.4     8.19       9.1        8.5        8.6        8.2        12.3       9.4        0.028      90.8       424        0          575.06     18.1       -260       2.756      -1788      0          28218.99   0.962     
2766.6     10.91      10         11.3       12.5       12.3       17.9       14.2       0.021      88.6       427.19     0          575.36     16.1       -260       2.759      -1787      0          28218.59   0.957     
2766.8     15.3       13.3       16.3       18.7       20.3       23.1       20.9       0.015      85         424        0          577.82     15.1       -260       2.758      -1785      0          28218.21   0.947     
