~Version
 VERS              .         2.0                           : CWLS LOG ASCII STANDARD - VERSION 2.0
 WRAP              .         NO                            : ONE LINE PER DEPTH STEP
 DLM               .         SPACE                         : DELIMITING CHARACTER(SPACE TAB OR COMMA)
~Well Information
#_______________________________________________________________________________
#
#PARAMETER_NAME    .UNIT     VALUE                         : DESCRIPTION
#_______________________________________________________________________________
STRT               .M        139                           : First reference value
STOP               .M        251.8                         : Last reference value
STEP               .M        0.2                           : Step increment
NULL               .         -9999                         : Missing value
COMP               .                                       : Company
WELL               .         616                           : Well name
FLD                .                                       : Field
LOC                .                                       : Location
CNTY               .                                       : County
STAT               .                                       : State
CTRY               .                                       : Country
SRVC               .                                       : Service Company
DATE               .                                       : Date
API                .                                       : API number
PROJECT_UPGRADE_TIME .         2021-03-18T21_24_50           : 
group              .         Good                          : 
~Parameter Information Block
#_______________________________________________________________________________
#
#PARAMETER_NAME    .UNIT     VALUE                         : DESCRIPTION
#_______________________________________________________________________________
SET                .         616_1                         : 
CONF               .         00                            : 
END                .         0                             : 
ERR                .         0                             : 
GS00               .M        0249.70                       : 
GS01               .M        0136.66                       : 
MM00               .M        0050.00                       : 
NOKG               .         0                             : 
NPR                .         980119                        : 
PART               .         Палагутин                     : 
PROJECT_UPGRADE_TIME .         2021-03-18T21_24_49           : 
PRZK               .         Шакиров                       : 
TLFamily_AZIMUTH   .         True Dip Azimuth              : 
TLFamily_DEPTH     .         Measured Depth                : 
TLFamily_METKA     .                                       : 
TLFamily_ROLL      .                                       : 
TLFamily_SPEED     .         Spontaneous Potential         : 
TLFamily_ZENIT     .                                       : 
VPRG               .         310                           : 
WAY                .         UP                            : 
group              .         prim                          : 
~Curve Information
#_______________________________________________________________________________
#
#LOGNAME           .UNIT     LOG_ID                        : DESCRIPTION
#_______________________________________________________________________________
DEPTH              .M                                      :  
AZIMUTH            .DEG                                    :  
METKA              .                                       :  
ROLL               .DEG                                    :  
SPEED              .M/H                                    :  
ZENIT              .DEG                                    :  
~Ascii
# ...
187.8      248.07     0          51.17      648        16.41     
188        248.91     0          49.71      612        16.61     
188.2      250.96     0          45.98      612        16.93     
188.4      251.31     0          34.6       576        17.13     
188.6      249.32     0          21.84      648        16.9      
188.8      246.93     0          13.38      576        16.62     
189        247.54     0          7.8        612        16.61     
189.2      247.4      0          3.08       612        16.5      
189.4      246.57     0          0.08       612        16.37     
189.6      246.12     0          358.5      576        16.4      
189.8      247.68     0          357.22     612        16.74     
190        250.18     0          354.56     612        17.38     
190.2      247.3      0          352.26     576        16.74     
190.4      248.07     0          351.23     576        17.12     
190.6      248.23     0          350.49     576        17.03     
190.8      247.51     0          350.19     576        16.99     
191        248.76     0          349.47     540        17.23     
191.2      250.18     0          348.74     540        17.42     
191.4      248.27     0          348.21     540        17.11     
191.6      249.54     0          348.54     540        17.43     
191.8      246.38     0          347.28     504        16.97     
192        250.66     0          346.73     540        17.8      
192.2      247.3      1          346.74     540        17.26     
192.4      250.15     0          347.27     504        17.84     
192.6      247.51     0          347.39     540        17.36     
192.8      249.17     0          346.32     540        17.61     
193        246.84     0          345.76     504        17.33     
193.2      249.75     0          344.58     540        17.75     
193.4      249.69     0          343.94     540        17.81     
193.6      249.29     0          342.42     540        17.59     
193.8      250.46     0          340.34     504        17.75     
194        249.09     0          341.03     504        17.48     
194.2      252.51     0          341.96     540        17.96     
194.4      252.85     0          341.85     540        17.72     
194.6      262.55     0          341.98     540        18.03     
194.8      297.43     0          341.32     540        17.82     
195        254.15     0          340        540        18.02     
195.2      114.03     0          336.83     504        17.67     
195.4      27.39      0          333.65     540        18.21     
195.6      316.15     0          331.94     576        17.93     
195.8      257.69     0          330.56     504        18.29     
196        251.68     0          330.7      504        18.05     
196.2      252.12     2          331.42     468        18.28     
196.4      252.89     0          344.85     576        18.91     
196.6      252.09     0          347.61     648        18.52     
196.8      250.06     0          347.85     612        18.08     
197        248.03     0          347.91     612        17.67     
197.2      247.56     0          347.72     648        17.55     
197.4      247.03     0          347.22     648        17.4      
197.6      246.05     0          348.3      648        17.32     
197.8      246.59     0          349.4      612        17.42     
198        246.17     0          349.46     648        17.43     
198.2      248.71     0          348.54     612        17.8      
198.4      249.2      0          346.55     612        18.19     
198.6      250.81     0          345.14     648        18.59     
198.8      252.51     0          342.52     648        18.85     
199        249.53     0          340.23     612        18.4      
199.2      252.4      0          335.19     648        19.03     
199.4      250.83     0          330.79     648        18.61     
199.6      249.22     0          326.79     612        18.41     
199.8      248.49     0          324.67     612        18.31     
200        248.26     0          323.94     612        18.53     
200.2      248.13     0          324.11     648        18.43     
200.4      247.32     0          325.75     684        18.67     
200.6      250.68     0          326.27     576        18.81     
200.8      250.78     0          325.85     648        18.97     
201        249.89     0          325.8      612        18.9      
201.2      249.89     0          326.52     648        19.19     
201.4      250.95     0          327.67     648        19.3      
201.6      249.2      0          328.58     648        19.33     
201.8      250.42     0          329.42     612        19.29     
202        249.53     1          329.64     612        19.02     
202.2      248.49     0          329.44     432        18.78     
202.4      246.84     0          328.49     648        18.66     
202.6      248.04     0          327.54     648        18.78     
202.8      247.05     0          327.75     612        18.85     
203        249.11     0          327.32     612        19.02     
203.2      250.08     0          326.26     648        19.23     
203.4      249.98     0          326.1      612        19.46     
203.6      250.87     0          326.87     612        19.68     
203.8      252.56     0          326.52     612        19.77     
204        251.47     0          326.29     612        19.87     
204.2      250.77     0          326.95     648        19.9      
204.4      250.19     0          327.67     612        19.7      
204.6      248.64     0          328.05     612        19.35     
204.8      248.15     0          328.11     648        19.23     
205        246.94     0          327.77     612        19.1      
205.2      247.74     0          328.29     648        19.43     
205.4      249.95     0          328.39     648        19.6      
205.6      250.48     0          326.94     612        19.78     
205.8      251.26     0          325.41     612        19.97     
206        251.14     0          325.42     648        20.07     
206.2      251.42     0          325.15     576        19.88     
206.4      253.72     0          323.79     648        19.97     
206.6      256.35     0          322.91     612        19.96     
206.8      271.8      0          322.87     648        19.94     
207        314.5      0          323.01     612        19.87     
207.2      221.9      0          323.11     612        19.85     
207.4      231.61     0          323.27     612        19.87     
207.6      39.95      0          323.82     648        19.87     
207.8      262.74     0          324.1      612        20.06     
208        254.77     0          325.25     648        20.24     
208.2      252.58     0          328.23     612        20.52     
208.4      251.85     0          334.28     612        20.66     
208.6      252.61     0          341.78     612        20.8      
208.8      253.79     0          346.18     612        20.8      
209        252.84     0          347.62     648        20.81     
209.2      251.02     0          348.87     612        20.25     
209.4      248.81     0          348.89     612        19.81     
209.6      247.41     0          348.38     612        19.52     
209.8      247.42     0          346        612        19.35     
210        248.14     0          342.66     612        19.76     
210.2      250.26     0          341.7      648        19.98     
210.4      251.97     0          339        648        20.47     
210.6      252.6      0          334.04     612        20.63     
210.8      252.2      1          328.62     612        20.67     
211        251.34     0          324.75     828        20.49     
211.2      251.64     0          320.81     648        20.59     
211.4      249.59     0          316.38     612        20.62     
211.6      249.31     0          314.89     648        20.69     
211.8      248.66     0          315.79     576        20.56     
212        249.23     0          316.34     648        20.62     
