~Version
 VERS              .         2.0                           : CWLS LOG ASCII STANDARD - VERSION 2.0
 WRAP              .         NO                            : ONE LINE PER DEPTH STEP
 DLM               .         SPACE                         : DELIMITING CHARACTER(SPACE TAB OR COMMA)
~Well Information
#_______________________________________________________________________________
#
#PARAMETER_NAME    .UNIT     VALUE                         : DESCRIPTION
#_______________________________________________________________________________
STRT               .M        827.6                         : First reference value
STOP               .M        1707.2                        : Last reference value
STEP               .M        0.2                           : Step increment
NULL               .         -9999                         : Missing value
COMP               .                                       : Company
WELL               .         616                           : Well name
FLD                .                                       : Field
LOC                .                                       : Location
CNTY               .                                       : County
STAT               .                                       : State
CTRY               .                                       : Country
SRVC               .                                       : Service Company
DATE               .                                       : Date
API                .                                       : API number
PROJECT_UPGRADE_TIME .         2021-03-18T21_24_50           : 
group              .         Good                          : 
~Parameter Information Block
#_______________________________________________________________________________
#
#PARAMETER_NAME    .UNIT     VALUE                         : DESCRIPTION
#_______________________________________________________________________________
SET                .         616_8                         : 
CONF               .         00                            : 
END                .         0                             : 
ERR                .         0                             : 
GS00               .M        1705.33                       : 
GS01               .M        0825.11                       : 
MM00               .M        0210.00                       : 
NOKG               .         0                             : 
NPR                .         980615                        : 
PART               .         Бутенко                       : 
PROJECT_UPGRADE_TIME .         2021-03-18T21_24_49           : 
PRZK               .         Шакиров                       : 
TLFamily_AZIMUTH   .         True Dip Azimuth              : 
TLFamily_DEPTH     .         Measured Depth                : 
TLFamily_METKA     .                                       : 
TLFamily_ROLL      .                                       : 
TLFamily_SPEED     .         Spontaneous Potential         : 
TLFamily_ZENIT     .                                       : 
VPRG               .         310                           : 
WAY                .         UP                            : 
group              .         prim                          : 
~Curve Information
#_______________________________________________________________________________
#
#LOGNAME           .UNIT     LOG_ID                        : DESCRIPTION
#_______________________________________________________________________________
DEPTH              .M                                      :  
AZIMUTH            .DEG                                    :  
METKA              .                                       :  
ROLL               .DEG                                    :  
SPEED              .M/H                                    :  
ZENIT              .DEG                                    :  
~Ascii
# ...
1632.8     260.3      0          331.9      612        27.07     
1633       261.98     0          331.8      612        27.37     
1633.2     260.07     0          331.84     576        26.9      
1633.4     262.18     0          332.14     612        27.25     
1633.6     262.83     0          332.36     612        27.08     
1633.8     266.06     0          333.54     612        27.29     
1634       276.8      0          335.78     612        27.19     
1634.2     315.76     0          336.62     612        27.33     
1634.4     286.19     0          335.84     612        27.29     
1634.6     144.81     0          335.53     612        27.23     
1634.8     249.92     0          335.37     612        27.35     
1635       299.58     0          333.91     612        27.41     
1635.2     269.83     0          331.9      612        27.39     
1635.4     264.43     0          331.12     576        27.49     
1635.6     261.81     0          331.22     612        27.37     
1635.8     261.27     0          331.28     612        27.33     
1636       260.99     0          331.03     612        27.22     
1636.2     261.76     0          329.86     612        27.23     
1636.4     260.83     0          329.48     612        27.15     
1636.6     260.23     0          330.17     612        26.99     
1636.8     260.42     0          331.07     612        27.08     
1637       259.77     0          331.58     612        26.95     
1637.2     259.89     0          331.8      612        26.96     
1637.4     259.26     0          332.43     612        27.01     
1637.6     260.98     0          333.9      576        26.87     
1637.8     259.24     0          335.58     612        26.65     
1638       260.82     0          336.57     612        26.91     
1638.2     255.57     0          338.59     612        26.29     
1638.4     258.52     0          336.69     612        27.01     
1638.6     258.64     0          332.73     612        26.66     
1638.8     260.59     0          332.04     612        27.06     
1639       259.41     0          331.84     612        26.74     
1639.2     260.58     0          331.76     648        26.97     
1639.4     259.76     0          331.96     612        26.8      
1639.6     259.69     0          332.19     576        26.83     
1639.8     259.29     0          332.21     576        26.8      
1640       260.39     0          332.01     612        26.98     
1640.2     259.82     0          331.84     612        26.83     
1640.4     260.64     0          331.91     612        27.02     
1640.6     259.1      0          332.14     612        26.74     
1640.8     260.76     0          332.65     612        27.11     
1641       258.76     0          332.51     612        26.52     
1641.2     259.95     0          332.49     612        26.79     
1641.4     259.76     0          332.75     612        26.76     
1641.6     260.59     0          332.67     576        26.89     
1641.8     259.48     0          332.23     612        26.67     
1642       260.84     1          331.5      576        26.9      
1642.2     260.05     0          331.39     612        26.84     
1642.4     260.14     0          331.61     612        26.85     
1642.6     259.35     0          331.98     612        26.66     
1642.8     260.85     0          332.12     648        26.87     
1643       259.79     0          331.96     612        26.58     
1643.2     260.17     0          332.13     612        26.77     
1643.4     259.98     0          332.61     612        26.63     
1643.6     260.19     0          333.22     612        26.69     
1643.8     259.73     0          333.48     612        26.58     
1644       260.42     0          333.13     612        26.73     
1644.2     259.84     0          332.74     576        26.64     
1644.4     260.05     0          332.92     612        26.64     
1644.6     260.23     0          332.76     612        26.64     
1644.8     260.64     0          332.7      612        26.74     
1645       260.15     0          332.56     612        26.57     
1645.2     261.3      0          332.31     612        26.74     
1645.4     260.71     0          332.51     612        26.54     
1645.6     262.45     0          332.85     612        26.69     
1645.8     263.88     0          333.61     612        26.71     
1646       268.66     0          335.22     612        26.72     
1646.2     282.6      0          336.88     612        26.57     
1646.4     319.53     0          336.96     576        26.7      
1646.6     207.44     0          337.09     612        26.63     
1646.8     167.85     0          337.28     612        26.84     
1647       61.65      0          337.11     612        26.76     
1647.2     303.94     0          337.12     648        26.92     
1647.4     271.85     0          336.52     612        27.05     
1647.6     266.61     0          333.76     576        27.31     
1647.8     262.56     0          332.29     612        26.84     
1648       261.96     0          331.97     612        26.84     
1648.2     261.83     0          332.1      612        26.49     
1648.4     259.91     0          333.78     612        26.29     
1648.6     259.94     0          334.93     612        26.3      
1648.8     259.87     0          335        576        26.3      
1649       260.46     0          334.35     612        26.43     
1649.2     259.57     0          333.02     612        26.36     
1649.4     259.08     0          332.55     648        26.29     
1649.6     257.62     0          333.16     612        25.9      
1649.8     260.07     0          334.01     612        26.27     
1650       259.43     0          335.05     612        26.09     
1650.2     260.33     0          336.28     612        26.32     
1650.4     260.35     0          337.37     612        26.24     
1650.6     266.42     0          335.15     612        26.48     
1650.8     259.44     0          332.66     612        26.23     
1651       260.36     0          332.58     576        26.43     
1651.2     260.07     0          332.15     612        26.27     
1651.4     260.63     0          331.83     612        26.43     
1651.6     259.79     0          332.17     612        26.3      
1651.8     260.48     0          332.59     612        26.43     
1652       260.17     1          332.52     612        26.33     
1652.2     260        0          332.44     612        26.33     
1652.4     260.08     0          332.62     612        26.35     
1652.6     260.21     0          332.52     612        26.36     
1652.8     260.35     0          332.42     612        26.45     
1653       258.75     0          332.69     612        26.14     
1653.2     260.46     0          332.9      576        26.43     
1653.4     259.84     0          332.78     612        26.36     
1653.6     260.76     0          332.29     612        26.49     
1653.8     259.53     0          331.63     612        26.16     
1654       261.37     0          331.46     576        26.59     
1654.2     259.85     0          331.62     612        26.3      
1654.4     260.32     0          332.18     612        26.41     
1654.6     259.53     0          332.92     612        26.19     
1654.8     261.13     0          333.2      612        26.51     
1655       259.54     0          333.03     612        26.19     
1655.2     260.43     0          333.18     612        26.43     
1655.4     260.17     0          333.78     576        26.38     
1655.6     259.91     0          334.03     612        26.29     
1655.8     259.91     0          333.89     612        26.27     
1656       260.21     0          333.66     612        26.28     
1656.2     260.65     0          333.72     612        26.42     
1656.4     259.76     0          333.57     612        26.19     
1656.6     260.11     0          333.57     612        26.27     
1656.8     260.36     0          333.34     612        26.23     
1657       260.76     0          332.91     612        26.27     
