~Version
 VERS              .         2.0                           : CWLS LOG ASCII STANDARD - VERSION 2.0
 WRAP              .         NO                            : ONE LINE PER DEPTH STEP
 DLM               .         SPACE                         : DELIMITING CHARACTER(SPACE TAB OR COMMA)
~Well Information
#_______________________________________________________________________________
#
#PARAMETER_NAME    .UNIT     VALUE                         : DESCRIPTION
#_______________________________________________________________________________
STRT               .M        2668.8                        : First reference value
STOP               .M        2773                          : Last reference value
STEP               .M        0.1999999                     : Step increment
NULL               .         -9999                         : Missing value
COMP               .                                       : Company
WELL               .         616                           : Well name
FLD                .                                       : Field
LOC                .                                       : Location
CNTY               .                                       : County
STAT               .                                       : State
CTRY               .                                       : Country
SRVC               .                                       : Service Company
DATE               .                                       : Date
API                .                                       : API number
PROJECT_UPGRADE_TIME .         2021-03-18T21_24_50           : 
group              .         Good                          : 
~Parameter Information Block
#_______________________________________________________________________________
#
#PARAMETER_NAME    .UNIT     VALUE                         : DESCRIPTION
#_______________________________________________________________________________
SET                .         D0403_D                       : 
OTHER              .         Прибор_ АКП4_90               : 
OTHER_2            .         Номер прибора_ 56             : 
OTHER_3            .         Режим_ АКП4_90 - все каналы   : 
OTHER_4            .         Форма_ Г-1                    : 
OTHER_5            .         Тарировки_                    : 
OTHER_6            .         TM.GRD = 0.00379*TM$.UE + 7.11: 
OTHER_7            .         MN.ATM = (8e-006*TM.GRD + 0.02)*(MN$.UE + -8*TM.GRD + -1800): 
OTHER_8            .         GK.MKR/H = GK$.UE / 57.17 + 0 : 
PROJECT_UPGRADE_TIME .         2021-03-18T21_24_49           : 
TLFamily_DEPT      .         Measured Depth                : 
TLFamily_GK        .         Gamma Ray                     : 
TLFamily_GK$       .                                       : 
TLFamily_LM        .         Casing Collar locator         : 
TLFamily_METKA     .                                       : 
TLFamily_METKA_1   .                                       : 
TLFamily_MN        .                                       : 
TLFamily_MN$       .                                       : 
TLFamily_RCOR      .                                       : 
TLFamily_SPID      .         Spontaneous Potential         : 
TLFamily_TIME      .         Time                          : 
TLFamily_TM        .         Temperature                   : 
TLFamily_TM$       .         Temperature                   : 
group              .         second                        : 
~Curve Information
#_______________________________________________________________________________
#
#LOGNAME           .UNIT     LOG_ID                        : DESCRIPTION
#_______________________________________________________________________________
DEPT               .M                                      : 1 Глубина, м -    0.0 см 
GK                 .MKR/H                                  : 12 Гамма-активность, мкр./ч -   65.0 см 
GK$                .UE                                     : 9 Гамма-активность, усл.ед. -   65.0 см 
LM                 .                                       : 8 Локатор муфт,  -   30.0 см 
METKA              .                                       : 3 Метки,  -    0.0 см 
METKA_1            .                                       : 13 Маркеры - 65 см 
MN                 .ATM                                    : 11 Давление, атм. -  140.0 см 
MN$                .UE                                     : 7 Давление, усл.ед. -  140.0 см 
RCOR               .CM/KM                                  : 5 Коррекция по ролику, см/км -    0.0 см 
SPID               .M/H                                    : 2 Скорость, м/час -    0.0 см 
TIME               .S                                      : 4 Время, сек -    0.0 см 
TM                 .GRD                                    : 10 Температура, °C -  145.0 см 
TM$                .UE                                     : 6 Температура, усл.ед. -  145.0 см 
~Ascii
# ...
2736       5.95       303        721        0          0          263.613    15227      0          -280       2019.25    85.017     20556     
2736.2     6.52       337        756        0          0          263.524    15223      0          -300       2016.82    85.025     20558     
2736.4     7.06       403        693        0          0          263.658    15230      0          -320       2014.5     85.025     20558     
2736.6     7.08       420        671        0          0          263.633    15228      0          -320       2012.05    85.032     20560     
2736.8     6.7        392        689        0          0          263.675    15230      0          -320       2009.73    85.036     20561     
2737       6.56       392        658        0          0          263.678    15230      0          -320       2007.29    85.04      20562     
2737.2     6.69       366        679        0          0          263.605    15227      0          -320       2004.91    85.044     20563     
2737.4     6.85       375        725        0          0          263.736    15233      0          -320       2002.53    85.05      20565     
2737.6     6.84       399        666        0          0          263.673    15230      0          -320       2000.18    85.048     20564     
2737.8     6.92       382        1069       0          0          263.743    15234      0          -260       1997.77    85.055     20566     
2738       7.01       396        1695       0          0          263.749    15234      0          -320       1995.32    85.059     20567     
2738.2     6.91       413        1100       0          0          263.666    15230      0          -280       1992.87    85.063     20568     
2738.4     6.82       388        723        0          0          263.817    15237      0          -320       1990.43    85.067     20569     
2738.6     6.72       404        691        0          0          263.779    15235      0          -320       1988.11    85.07      20570     
2738.8     6.54       389        775        0          0          263.824    15238      0          -320       1985.67    85.078     20572     
2739       6.42       370        709        0          0          263.866    15240      0          -290       1983.29    85.082     20573     
2739.2     6.22       392        816        0          0          263.768    15235      0          -300       1980.91    85.083     20573     
2739.4     5.7        376        1022       0          0          263.892    15241      0          -320       1978.46    85.085     20574     
2739.6     5.21       324        841        0          0          263.836    15238      0          -300       1976.01    85.085     20574     
2739.8     5.03       271        982        1          0          263.933    15243      0          -300       1973.58    85.093     20576     
2740       5.36       257        998        0          0          263.993    15246      0          -233       1970.21    85.106     20579     
2740.2     5.98       319        1137       0          0          263.877    15240      0          -275       1967.73    85.111     20581     
2740.4     6.2        356        1990       0          0          263.983    15245      0          -275       1965.2     85.112     20581     
2740.6     6.26       332        3052       0          0          263.958    15244      0          -280       1962.7     85.116     20582     
2740.8     6.8        346        7670       0          0          263.973    15245      0          -300       1960.38    85.12      20583     
2741       7.06       400        831        0          0          264.047    15249      0          -260       1957.93    85.128     20585     
2741.2     7.14       397        661        0          0          263.985    15246      0          -290       1955.42    85.135     20587     
2741.4     7.35       395        704        0          0          264.068    15250      0          -305       1953.01    85.139     20588     
2741.6     7.39       441        849        0          0          263.991    15246      0          -275       1950.5     85.15      20591     
2741.8     7.15       433        648        0          0          264.099    15251      0          -300       1948.02    85.154     20592     
2742       7.01       397        750        0          0          264.046    15249      0          -260       1945.59    85.161     20594     
2742.2     7.06       399        703        0          0          264.135    15253      0          -290       1943.07    85.169     20596     
2742.4     7.04       414        683        0          0          264.114    15252      0          -260       1940.56    85.175     20598     
2742.6     6.84       414        778        0          0          264.145    15254      0          -280       1938.11    85.18      20599     
2742.8     6.69       376        838        0          0          264.154    15254      0          -290       1935.74    85.188     20601     
2743       6.91       361        794        0          0          264.144    15254      0          -320       1933.24    85.193     20602     
2743.2     7.28       394        866        0          0          264.209    15257      0          -280       1930.79    85.195     20603     
2743.4     7.5        417        869        0          0          264.133    15253      0          -280       1928.35    85.199     20604     
2743.6     7.61       435        895        0          0          264.257    15259      0          -320       1925.89    85.203     20605     
2743.8     7.61       436        929        0          0          264.153    15254      0          -290       1923.39    85.204     20605     
2744       7.61       434        883        0          0          264.269    15260      0          -320       1920.87    85.224     20611     
2744.2     7.55       448        874        0          0          264.277    15260      0          -320       1918.43    85.226     20611     
2744.4     7.4        420        1012       0          0          264.193    15256      0          -300       1915.99    85.233     20613     
2744.6     7.4        430        808        0          0          264.33     15263      0          -260       1913.54    85.233     20613     
2744.8     7.31       424        707        0          0          264.289    15261      0          -300       1911.1     85.237     20614     
2745       7.2        427        755        0          0          264.398    15266      0          -275       1908.63    85.248     20617     
2745.2     6.97       418        795        0          0          264.315    15262      0          -305       1906.12    85.26      20620     
2745.4     6.8        380        671        0          0          264.417    15267      0          -290       1903.71    85.276     20624     
2745.6     6.83       403        653        0          0          264.396    15266      0          -320       1901.19    85.279     20625     
2745.8     6.7        382        731        0          0          264.39     15266      0          -300       1898.75    85.286     20627     
2746       6.83       356        864        0          0          264.478    15270      0          -280       1896.3     85.29      20628     
2746.2     7.3        393        883        0          0          264.396    15266      0          -320       1893.85    85.297     20630     
2746.4     7.57       433        766        0          0          264.431    15268      0          -320       1891.34    85.301     20631     
2746.6     7.59       426        786        0          0          264.436    15268      0          -320       1888.84    85.305     20632     
2746.8     7.66       444        1134       0          0          264.478    15270      0          -260       1886.43    85.313     20634     
2747       7.53       458        908        0          0          264.477    15270      0          -280       1883.95    85.32      20636     
