~Version
 VERS              .         2.0                           : CWLS LOG ASCII STANDARD - VERSION 2.0
 WRAP              .         NO                            : ONE LINE PER DEPTH STEP
 DLM               .         SPACE                         : DELIMITING CHARACTER(SPACE TAB OR COMMA)
~Well Information
#_______________________________________________________________________________
#
#PARAMETER_NAME    .UNIT     VALUE                         : DESCRIPTION
#_______________________________________________________________________________
STRT               .M        2695.9                        : First reference value
STOP               .M        2741.2                        : Last reference value
STEP               .M        0.1000001                     : Step increment
NULL               .         -9999                         : Missing value
COMP               .                                       : Company
WELL               .         616                           : Well name
FLD                .                                       : Field
LOC                .                                       : Location
CNTY               .                                       : County
STAT               .                                       : State
CTRY               .                                       : Country
SRVC               .                                       : Service Company
DATE               .                                       : Date
API                .                                       : API number
PROJECT_UPGRADE_TIME .         2021-03-18T21_24_50           : 
group              .         Good                          : 
~Parameter Information Block
#_______________________________________________________________________________
#
#PARAMETER_NAME    .UNIT     VALUE                         : DESCRIPTION
#_______________________________________________________________________________
SET                .         D7031_D                       : 
OTHER              .         Kedr.exe версия 2.1.2.32      : 
OTHER_10           .         RGD. = 0.647457 * RGD. + 2.35279: 
OTHER_2            .         KedrData.dll версия 3.2.2.14  : 
OTHER_3            .         LasInf.dll версия 3.2.0.13    : 
OTHER_4            .         Драйвер версия 1.2.0.6        : 
OTHER_5            .         Прибор_ Расходомер            : 
OTHER_6            .         Номер прибора_ 963            : 
OTHER_7            .         Режим_ Расходомер             : 
OTHER_8            .         Форма_ Саня                   : 
OTHER_9            .         Тарировки_                    : 
PROJECT_UPGRADE_TIME .         2021-03-18T21_24_50           : 
TLFamily_DEPT      .         Measured Depth                : 
TLFamily_METKA     .                                       : 
TLFamily_RCOR      .                                       : 
TLFamily_RGD       .                                       : 
TLFamily_RGD_2     .                                       : 
TLFamily_SPID      .         Spontaneous Potential         : 
TLFamily_TIME      .         Time                          : 
group              .         prim                          : 
~Curve Information
#_______________________________________________________________________________
#
#LOGNAME           .UNIT     LOG_ID                        : DESCRIPTION
#_______________________________________________________________________________
DEPT               .M                                      : 1 Глубина, м -    0.0 см 
METKA              .                                       : 3 Метки,  -    0.0 см 
RCOR               .CM/KM                                  : 5 Коррекция по ролику, см/км -    0.0 см 
RGD                .                                       : 6 Расход, усл.ед. -   49.0 см 
RGD_2              .                                       : 7 Расход, м3/сут -   49.0 см 
SPID               .M/H                                    : 2 Скорость, м/час -    0.0 см 
TIME               .S                                      : 4 Время, сек -    0.0 см 
~Ascii
# ...
2727.1     0          0          22         16.45      -190       44404.63  
2727.2     0          0          30         21.86      -190       44402.63  
2727.3     0          0          27         19.89      -190       44400.51  
2727.4     0          0          21         16.06      -190       44398.63  
2727.5     0          0          27         19.56      -190       44396.5   
2727.6     0          0          21         15.91      -190       44394.63  
2727.7     0          0          19         14.48      -190       44392.63  
2727.8     0          0          29         20.84      -190       44390.49  
2727.9     0          0          23         17.18      -160       44388.63  
2728       0          0          27         19.67      -190       44386.63  
2728.1     0          0          16         12.71      -189       44384.74  
2728.2     0          0          22         16.76      -190       44382.74  
2728.3     0          0          28         20.55      -190       44380.76  
2728.4     0          0          23         17.09      -190       44378.75  
2728.5     0          0          22         16.35      -190       44376.75  
2728.6     0          0          30         21.56      -190       44374.74  
2728.7     0          0          27         19.67      -190       44372.75  
2728.8     0          0          37         26.34      -190       44370.74  
2728.9     0          0          33         23.79      -190       44368.74  
2729       0          0          36         25.7       -190       44366.74  
2729.1     0          0          34         24.2       -190       44364.73  
2729.2     0          0          20         15.3       -190       44362.75  
2729.3     0          0          32         22.84      -190       44360.75  
2729.4     0          0          46         31.9       -190       44358.75  
2729.5     0          0          15         12.06      -190       44356.74  
2729.6     0          0          22         16.3       -190       44354.73  
2729.7     0          0          25         18.43      -190       44352.62  
2729.8     0          0          17         13.25      -130       44350.49  
2729.9     1          0          26         19.04      -190       44348.61  
2730       0          0          19         14.43      -130       44344.25  
2730.1     0          0          23         17.28      -190       44342.23  
2730.2     0          0          37         26.28      -190       44340.24  
2730.3     0          0          27         20.15      -130       44338.24  
2730.4     0          0          26         18.99      -190       44336.23  
2730.5     0          0          25         18.45      -190       44334.23  
2730.6     0          0          23         17.04      -130       44332.22  
2730.7     0          0          19         14.6       -190       44330.23  
2730.8     0          0          27         20.13      -190       44328.24  
2730.9     0          0          25         18.78      -190       44326.24  
2731       0          0          34         24.26      -190       44324.23  
2731.1     0          0          22         16.87      -131       44322.23  
2731.2     0          0          32         22.83      -190       44320.23  
2731.3     0          0          25         18.72      -130       44318.23  
2731.4     0          0          22         16.55      -190       44316.23  
2731.5     0          0          28         20.26      -190       44314.22  
2731.6     0          0          32         23.34      -190       44312.23  
2731.7     0          0          20         15.17      -190       44310.23  
2731.8     0          0          33         23.49      -190       44308.23  
2731.9     0          0          34         24.55      -190       44306.23  
2732       0          0          25         18.39      -130       44304.23  
2732.1     0          0          44         30.9       -130       44302.22  
2732.2     0          0          47         32.55      -190       44300.22  
2732.3     0          0          34         24.49      -190       44298.22  
2732.4     0          0          41         28.85      -130       44296.23  
2732.5     0          0          29         21.36      -190       44294.23  
2732.6     0          0          30         22.09      -131       44292.23  
2732.7     0          0          34         24.61      -190       44290.23  
2732.8     0          0          30         22.03      -130       44288.23  
2732.9     0          0          46         32.39      -190       44286.22  
2733       0          0          35         24.81      -190       44284.35  
2733.1     0          0          24         18.17      -130       44282.34  
2733.2     0          0          43         29.94      -190       44280.34  
2733.3     0          0          61         41.91      -190       44278.35  
2733.4     0          0          29         21.06      -130       44276.23  
2733.5     0          0          38         27.28      -190       44274.34  
2733.6     0          0          30         21.67      -131       44272.46  
2733.7     0          0          29         20.91      -190       44270.35  
2733.8     0          0          25         18.78      -190       44268.34  
2733.9     0          0          24         18.07      -130       44266.34  
2734       0          0          31         22.33      -190       44264.47  
2734.1     0          0          29         21.04      -190       44262.46  
2734.2     0          0          30         21.85      -190       44260.46  
2734.3     0          0          32         22.76      -190       44258.46  
2734.4     0          0          32         23.3       -190       44256.46  
2734.5     0          0          44         30.76      -190       44254.46  
2734.6     0          0          28         20.62      -130       44252.46  
2734.7     0          0          29         20.85      -190       44250.47  
2734.8     0          0          35         25.08      -190       44248.47  
2734.9     0          0          38         27.07      -190       44246.34  
2735       0          0          37         26.16      -190       44244.46  
2735.1     0          0          29         21.42      -190       44242.45  
2735.2     0          0          35         25.1       -130       44240.46  
2735.3     0          0          47         32.71      -190       44238.45  
2735.4     0          0          32         23.31      -190       44236.47  
2735.5     0          0          37         26.04      -190       44234.47  
2735.6     0          0          35         24.79      -190       44232.2   
2735.7     0          0          38         27.17      -190       44230.2   
2735.8     0          0          32         22.9       -190       44228.22  
2735.9     0          0          39         27.33      -190       44226.21  
2736       0          0          42         29.52      -190       44224.21  
2736.1     0          0          27         19.58      -189       44222.2   
2736.2     0          0          32         23.03      -190       44220.21  
2736.3     0          0          37         26.56      -130       44218.2   
2736.4     0          0          35         24.95      -190       44216.2   
2736.5     0          0          61         41.68      -190       44214.2   
2736.6     0          0          43         30.2       -189       44212.19  
2736.7     0          0          41         29.05      -190       44210.21  
2736.8     0          0          45         31.7       -190       44208.21  
2736.9     0          0          41         29.02      -190       44206.21  
2737       0          0          40         28.04      -130       44204.2   
2737.1     0          0          47         32.7       -190       44202.2   
2737.2     0          0          34         24.63      -130       44200.2   
2737.3     0          0          44         30.86      -190       44198.2   
2737.4     0          0          38         27.04      -190       44196.19  
