~Version
 VERS              .         2.0                           : CWLS LOG ASCII STANDARD - VERSION 2.0
 WRAP              .         NO                            : ONE LINE PER DEPTH STEP
 DLM               .         SPACE                         : DELIMITING CHARACTER(SPACE TAB OR COMMA)
~Well Information
#_______________________________________________________________________________
#
#PARAMETER_NAME    .UNIT     VALUE                         : DESCRIPTION
#_______________________________________________________________________________
STRT               .M        2666.2                        : First reference value
STOP               .M        2778.8                        : Last reference value
STEP               .M        0.2000002                     : Step increment
NULL               .         -9999                         : Missing value
COMP               .                                       : Company
WELL               .         616                           : Well name
FLD                .                                       : Field
LOC                .                                       : Location
CNTY               .                                       : County
STAT               .                                       : State
CTRY               .                                       : Country
SRVC               .                                       : Service Company
DATE               .                                       : Date
API                .                                       : API number
PROJECT_UPGRADE_TIME .         2021-03-18T21_24_50           : 
group              .         Good                          : 
~Parameter Information Block
#_______________________________________________________________________________
#
#PARAMETER_NAME    .UNIT     VALUE                         : DESCRIPTION
#_______________________________________________________________________________
SET                .         D0400_D                       : 
OTHER              .         Прибор_ АКП4_90               : 
OTHER_2            .         Номер прибора_ 56             : 
OTHER_3            .         Режим_ АКП4_90 - все каналы   : 
OTHER_4            .         Форма_ Г-1                    : 
OTHER_5            .         Тарировки_                    : 
OTHER_6            .         TM.GRD = 0.00379*TM$.UE + 7.11: 
OTHER_7            .         MN.ATM = (8e-006*TM.GRD + 0.02)*(MN$.UE + -8*TM.GRD + -1800): 
OTHER_8            .         GK.MKR/H = GK$.UE / 57.17 + 0 : 
PROJECT_UPGRADE_TIME .         2021-03-18T21_24_49           : 
TLFamily_DEPT      .         Measured Depth                : 
TLFamily_GK        .         Gamma Ray                     : 
TLFamily_GK$       .                                       : 
TLFamily_LM        .         Casing Collar locator         : 
TLFamily_METKA     .                                       : 
TLFamily_METKA_1   .                                       : 
TLFamily_MN        .                                       : 
TLFamily_MN$       .                                       : 
TLFamily_RCOR      .                                       : 
TLFamily_SPID      .         Spontaneous Potential         : 
TLFamily_TIME      .         Time                          : 
TLFamily_TM        .         Temperature                   : 
TLFamily_TM$       .         Temperature                   : 
group              .         second                        : 
~Curve Information
#_______________________________________________________________________________
#
#LOGNAME           .UNIT     LOG_ID                        : DESCRIPTION
#_______________________________________________________________________________
DEPT               .M                                      : 1 Глубина, м -    0.0 см 
GK                 .MKR/H                                  : 12 Гамма-активность, мкр./ч -   65.0 см 
GK$                .UE                                     : 9 Гамма-активность, усл.ед. -   65.0 см 
LM                 .                                       : 8 Локатор муфт,  -   30.0 см 
METKA              .                                       : 3 Метки,  -    0.0 см 
METKA_1            .                                       : 13 Маркеры - 65 см 
MN                 .ATM                                    : 11 Давление, атм. -  140.0 см 
MN$                .UE                                     : 7 Давление, усл.ед. -  140.0 см 
RCOR               .CM/KM                                  : 5 Коррекция по ролику, см/км -    0.0 см 
SPID               .M/H                                    : 2 Скорость, м/час -    0.0 см 
TIME               .S                                      : 4 Время, сек -    0.0 см 
TM                 .GRD                                    : 10 Температура, °C -  145.0 см 
TM$                .UE                                     : 6 Температура, усл.ед. -  145.0 см 
~Ascii
# ...
2688.6     8.3        464        676        0          0          260.631    15078      0          -260       3387.06    83.376     20123     
2688.8     8.41       488        476        0          0          260.631    15078      0          -275       3384.46    83.39      20127     
2689       8.37       469        532        0          0          260.671    15080      0          -260       3381.94    83.398     20129     
2689.2     8.48       484        1015       0          0          260.705    15082      0          -280       3379.28    83.403     20130     
2689.4     8.48       488        456        0          0          260.691    15081      0          -320       3376.83    83.409     20132     
2689.6     8.54       464        446        0          0          260.722    15083      0          -305       3374.23    83.413     20133     
2689.8     8.89       475        523        1          0          260.773    15085      0          -260       3371.68    83.422     20135     
2690       9.35       501        535        0          0          260.772    15085      0          -280       3368.21    83.429     20137     
2690.2     9.79       528        559        0          0          260.777    15085      0          -260       3365.64    83.437     20139     
2690.4     10.07      570        701        0          0          260.843    15088      0          -280       3363.07    83.449     20142     
2690.6     9.77       623        436        0          0          260.846    15089      0          -280       3360.49    83.456     20144     
2690.8     8.63       573        482        0          0          260.833    15088      0          -260       3357.93    83.461     20145     
2691       7.61       492        511        0          0          260.868    15090      0          -320       3355.34    83.467     20147     
2691.2     6.6        428        499        0          0          260.914    15092      0          -280       3352.78    83.474     20149     
2691.4     6.18       367        402        0          0          260.927    15093      0          -260       3350.2     83.479     20150     
2691.6     5.94       339        509        0          0          260.975    15095      0          -280       3347.63    83.486     20152     
2691.8     5.96       329        458        0          0          260.947    15094      0          -300       3345.05    83.494     20154     
2692       6.15       354        515        0          0          260.982    15095      0          -260       3342.49    83.504     20157     
2692.2     6.11       349        435        0          0          261.036    15098      0          -280       3339.9     83.511     20159     
2692.4     6.12       353        452        0          0          261.043    15098      0          -300       3337.34    83.516     20160     
2692.6     6.02       364        453        0          0          261.035    15098      0          -320       3334.63    83.523     20162     
2692.8     5.75       332        503        0          0          261.076    15100      0          -260       3332.06    83.528     20163     
2693       5.76       314        489        0          0          261.096    15101      0          -260       3329.49    83.535     20165     
2693.2     5.98       332        505        0          0          261.11     15102      0          -280       3326.91    83.542     20167     
2693.4     6.16       331        452        0          0          261.117    15102      0          -320       3324.35    83.543     20167     
2693.6     6.46       351        463        0          0          261.172    15105      0          -260       3321.64    83.547     20168     
2693.8     6.69       368        468        0          0          261.178    15105      0          -260       3319.13    83.551     20169     
2694       6.95       367        501        0          0          261.164    15104      0          -260       3316.5     83.56      20171     
2694.2     7.25       405        414        0          0          261.218    15107      0          -320       3313.92    83.566     20173     
2694.4     7.26       430        488        0          0          261.239    15108      0          -260       3311.35    83.569     20174     
2694.6     7.09       416        504        0          0          261.231    15108      0          -300       3308.77    83.577     20176     
2694.8     7.23       384        469        0          0          261.238    15108      0          -260       3306.2     83.582     20177     
2695       7.63       398        521        0          0          261.3      15111      0          -260       3303.62    83.593     20180     
2695.2     7.88       437        530        0          0          261.31     15112      0          -260       3301.06    83.599     20182     
2695.4     7.88       461        438        0          0          261.299    15111      0          -320       3298.49    83.604     20183     
2695.6     7.77       455        441        0          0          261.34     15113      0          -300       3295.91    83.607     20184     
2695.8     7.68       445        527        0          0          261.401    15116      0          -260       3293.33    83.615     20186     
2696       7.87       423        539        0          0          261.38     15115      0          -260       3290.76    83.619     20187     
2696.2     7.84       464        540        0          0          261.38     15115      0          -260       3288.07    83.626     20189     
2696.4     7.44       473        1201       0          0          261.448    15118      0          -260       3285.61    83.634     20191     
2696.6     7.51       410        7276       0          0          261.475    15120      0          -319       3283.01    83.644     20194     
2696.8     7.77       415        3981       0          0          261.44     15118      0          -260       3280.32    83.652     20196     
2697       7.76       464        539        0          0          261.495    15121      0          -260       3277.73    83.657     20197     
2697.2     7.43       451        485        0          0          261.536    15123      0          -260       3275.17    83.66      20198     
2697.4     7.35       421        480        0          0          261.563    15124      0          -305       3272.68    83.674     20201     
2697.6     7.33       419        403        0          0          261.521    15122      0          -300       3270.02    83.683     20204     
2697.8     7.35       403        478        0          0          261.583    15125      0          -260       3267.45    83.695     20207     
2698       7.57       435        544        0          0          261.644    15128      0          -320       3264.86    83.698     20208     
2698.2     7.53       438        566        0          0          261.623    15127      0          -320       3262.3     83.702     20209     
2698.4     7.43       429        436        0          0          261.623    15127      0          -280       3259.72    83.713     20212     
2698.6     7.36       425        484        1          0          261.691    15130      0          -260       3257.15    83.719     20214     
2698.8     7.33       416        476        0          0          261.72     15132      0          -300       3254.57    83.725     20215     
2699       7.34       429        494        0          0          261.69     15130      0          -280       3252.01    83.732     20217     
2699.2     7.23       416        472        0          0          261.71     15131      0          -260       3249.44    83.739     20219     
2699.4     7.22       409        415        0          0          261.765    15134      0          -280       3246.86    83.744     20220     
2699.6     7.27       410        483        0          0          261.772    15134      0          -320       3244.28    83.751     20222     
