~Version
 VERS              .         2.0                           : CWLS LOG ASCII STANDARD - VERSION 2.0
 WRAP              .         NO                            : ONE LINE PER DEPTH STEP
 DLM               .         SPACE                         : DELIMITING CHARACTER(SPACE TAB OR COMMA)
~Well Information
#_______________________________________________________________________________
#
#PARAMETER_NAME    .UNIT     VALUE                         : DESCRIPTION
#_______________________________________________________________________________
STRT               .M        2667.8                        : First reference value
STOP               .M        2773.4                        : Last reference value
STEP               .M        0.1999997                     : Step increment
NULL               .         -9999                         : Missing value
COMP               .                                       : Company
WELL               .         616                           : Well name
FLD                .                                       : Field
LOC                .                                       : Location
CNTY               .                                       : County
STAT               .                                       : State
CTRY               .                                       : Country
SRVC               .                                       : Service Company
DATE               .                                       : Date
API                .                                       : API number
PROJECT_UPGRADE_TIME .         2021-03-18T21_24_50           : 
group              .         Good                          : 
~Parameter Information Block
#_______________________________________________________________________________
#
#PARAMETER_NAME    .UNIT     VALUE                         : DESCRIPTION
#_______________________________________________________________________________
SET                .         D0401_D                       : 
OTHER              .         Kedr.exe версия 2.1.2.32      : 
OTHER_10           .         TM.GRD = 0.00379*TM$.UE + 7.11: 
OTHER_11           .         MN.ATM = (8e-006*TM.GRD + 0.02)*(MN$.UE + -8*TM.GRD + -1800): 
OTHER_12           .         GK.MKR/H = GK$.UE / 57.17 + 0 : 
OTHER_2            .         KedrData.dll версия 3.2.2.14  : 
OTHER_3            .         LasInf.dll версия 3.2.0.13    : 
OTHER_4            .         Драйвер версия 1.2.0.4        : 
OTHER_5            .         Прибор_ АКП4_90               : 
OTHER_6            .         Номер прибора_ 56             : 
OTHER_7            .         Режим_ АКП4_90 - все каналы   : 
OTHER_8            .         Форма_ Г-1                    : 
OTHER_9            .         Тарировки_                    : 
PROJECT_UPGRADE_TIME .         2021-03-18T21_24_49           : 
TLFamily_DEPT      .         Measured Depth                : 
TLFamily_GK        .         Gamma Ray                     : 
TLFamily_GK$       .                                       : 
TLFamily_LM        .         Casing Collar locator         : 
TLFamily_METKA     .                                       : 
TLFamily_METKA_1   .                                       : 
TLFamily_MN        .                                       : 
TLFamily_MN$       .                                       : 
TLFamily_RCOR      .                                       : 
TLFamily_SPID      .         Spontaneous Potential         : 
TLFamily_TIME      .         Time                          : 
TLFamily_TM        .         Temperature                   : 
TLFamily_TM$       .         Temperature                   : 
group              .         second                        : 
~Curve Information
#_______________________________________________________________________________
#
#LOGNAME           .UNIT     LOG_ID                        : DESCRIPTION
#_______________________________________________________________________________
DEPT               .M                                      : 1 Глубина, м -    0.0 см 
GK                 .MKR/H                                  : 12 Гамма-активность, мкр./ч -   65.0 см 
GK$                .UE                                     : 9 Гамма-активность, усл.ед. -   65.0 см 
LM                 .                                       : 8 Локатор муфт,  -   30.0 см 
METKA              .                                       : 3 Метки,  -    0.0 см 
METKA_1            .                                       : 13 Маркеры - 65 см 
MN                 .ATM                                    : 11 Давление, атм. -  140.0 см 
MN$                .UE                                     : 7 Давление, усл.ед. -  140.0 см 
RCOR               .CM/KM                                  : 5 Коррекция по ролику, см/км -    0.0 см 
SPID               .M/H                                    : 2 Скорость, м/час -    0.0 см 
TIME               .S                                      : 4 Время, сек -    0.0 см 
TM                 .GRD                                    : 10 Температура, °C -  145.0 см 
TM$                .UE                                     : 6 Температура, усл.ед. -  145.0 см 
~Ascii
2667.8000488 -9999      -9999      -9999      -9999      0          -9999      -9999      -9999      -9999      -9999      -9999      -9999     
2668       -9999      -9999      -9999      -9999      0          -9999      -9999      -9999      -9999      -9999      -9999      -9999     
2668.2     -9999      -9999      -9999      0          0          -9999      -9999      0          -237       6618.91    -9999      -9999     
2668.4     -9999      -9999      -9999      0          0          -9999      -9999      0          -320       6616.07    -9999      -9999     
2668.6     -9999      -9999      371        0          0          -9999      -9999      0          -260       6613.25    -9999      -9999     
2668.8     6.02       362        360        0          0          -9999      -9999      0          -260       6610.54    -9999      -9999     
2669       5.56       318        346        0          0          -9999      -9999      0          -260       6607.71    -9999      -9999     
2669.2     5.55       326        360        0          0          -9999      -9999      0          -260       6604.9     -9999      -9999     
2669.4     5.44       310        369        0          0          -9999      -9999      0          -260       6602.05    -9999      -9999     
2669.6     5.48       302        415        0          0          258.581    14977      0          -260       6599.23    82.815     19975     
2669.8     5.66       310        331        1          0          258.601    14978      0          -260       6596.41    82.819     19976     
2670       5.95       309        471        0          0          258.635    14980      0          -260       6592.8     82.824     19977     
2670.2     6.05       353        458        0          0          258.641    14980      0          -260       6589.96    82.834     19980     
2670.4     6.06       340        528        0          0          258.662    14981      0          -260       6587.13    82.838     19981     
2670.6     6.2        364        456        0          0          258.682    14982      0          -260       6584.3     82.846     19983     
2670.8     6.01       347        400        0          0          258.702    14983      0          -260       6581.59    82.848     19984     
2671       6.01       341        890        0          0          258.723    14984      0          -260       6578.77    82.853     19985     
2671.2     5.93       354        1502       0          0          258.743    14985      0          -260       6575.95    82.857     19986     
2671.4     5.74       346        448        0          0          258.784    14987      0          -260       6573.11    82.865     19988     
2671.6     5.58       334        403        0          0          258.797    14988      0          -260       6570.27    82.872     19990     
2671.8     5.29       305        423        0          0          258.804    14988      0          -260       6567.45    82.876     19991     
2672       5.32       277        436        0          0          258.838    14990      0          -260       6564.74    82.887     19994     
2672.2     5.74       309        642        0          0          258.865    14991      0          -320       6561.92    82.891     19995     
2672.4     5.83       355        1385       0          0          258.865    14991      0          -260       6559.14    82.895     19996     
2672.6     5.58       330        400        0          0          258.906    14993      0          -260       6556.37    82.899     19997     
2672.8     5.62       307        403        0          0          258.912    14993      0          -260       6553.53    82.904     19999     
2673       5.87       308        423        0          0          258.96     14996      0          -260       6550.71    82.914     20001     
2673.2     6.23       321        438        0          0          258.967    14996      0          -260       6547.89    82.914     20001     
2673.4     6.29       359        367        0          0          259.008    14998      0          -260       6545.06    82.921     20003     
2673.6     6.32       347        489        0          0          258.994    14997      0          -260       6542.21    82.925     20004     
2673.8     6.51       372        499        0          0          259.028    14999      0          -260       6539.46    82.929     20005     
2674       6.49       377        478        0          0          259.041    15000      0          -260       6536.57    82.933     20006     
2674.2     6.42       370        693        0          0          259.069    15001      0          -190       6533.86    82.937     20007     
2674.4     6.45       362        552        0          0          259.096    15002      0          -260       6531.03    82.94      20008     
2674.6     6.9        336        6788       0          0          259.109    15003      0          -260       6528.29    82.948     20010     
2674.8     7.35       396        4475       0          0          259.15     15005      0          -260       6525.47    82.952     20011     
2675       7.39       409        530        0          0          259.15     15005      0          -260       6522.63    82.959     20013     
2675.2     7.63       428        416        0          0          259.181    15007      0          -260       6519.81    82.962     20014     
2675.4     7.72       446        411        0          0          259.19     15007      0          -260       6516.98    82.967     20015     
2675.6     7.67       438        544        0          0          259.211    15008      0          -260       6514.13    82.976     20017     
2675.8     7.62       445        889        0          0          259.245    15010      0          -260       6511.31    82.98      20019     
2676       7.32       456        524        0          0          259.258    15010      0          -260       6508.55    82.986     20020     
2676.2     7.11       414        365        0          0          259.293    15012      0          -233       6505.77    82.99      20021     
2676.4     7.2        400        370        0          0          259.313    15013      0          -260       6502.82    82.993     20022     
2676.6     7.25       413        383        0          0          259.319    15013      0          -260       6500.06    82.997     20023     
2676.8     7.25       419        396        0          0          259.353    15015      0          -260       6497.3     83.009     20026     
2677       7.19       406        508        0          0          259.373    15016      0          -260       6494.46    83.02      20029     
2677.2     7.29       407        456        0          0          259.401    15017      0          -260       6491.63    83.024     20030     
2677.4     7.43       414        461        0          0          259.414    15018      0          -280       6488.8     83.031     20032     
2677.6     7.59       420        402        0          0          259.441    15019      0          -260       6485.96    83.035     20033     
2677.8     7.71       432        424        0          0          259.462    15020      0          -214       6483.14    83.039     20034     
2678       7.55       449        314        0          0          259.485    15021      0          -255       6480.37    83.041     20035     
2678.2     7.22       424        409        0          0          259.502    15022      0          -260       6477.47    83.05      20037     
2678.4     7.04       402        431        0          0          259.515    15023      0          -260       6474.78    83.058     20039     
2678.6     7.09       391        458        0          0          259.557    15025      0          -260       6471.94    83.062     20040     
2678.8     7.28       406        539        0          0          259.577    15026      0          -260       6469.18    83.065     20041     
