~Version
 VERS              .         2.0                           : CWLS LOG ASCII STANDARD - VERSION 2.0
 WRAP              .         NO                            : ONE LINE PER DEPTH STEP
 DLM               .         SPACE                         : DELIMITING CHARACTER(SPACE TAB OR COMMA)
~Well Information
#_______________________________________________________________________________
#
#PARAMETER_NAME    .UNIT     VALUE                         : DESCRIPTION
#_______________________________________________________________________________
STRT               .M        827.6                         : First reference value
STOP               .M        1707.2                        : Last reference value
STEP               .M        0.2                           : Step increment
NULL               .         -9999                         : Missing value
COMP               .                                       : Company
WELL               .         616                           : Well name
FLD                .                                       : Field
LOC                .                                       : Location
CNTY               .                                       : County
STAT               .                                       : State
CTRY               .                                       : Country
SRVC               .                                       : Service Company
DATE               .                                       : Date
API                .                                       : API number
PROJECT_UPGRADE_TIME .         2021-03-18T21_24_50           : 
group              .         Good                          : 
~Parameter Information Block
#_______________________________________________________________________________
#
#PARAMETER_NAME    .UNIT     VALUE                         : DESCRIPTION
#_______________________________________________________________________________
SET                .         616_8                         : 
CONF               .         00                            : 
END                .         0                             : 
ERR                .         0                             : 
GS00               .M        1705.33                       : 
GS01               .M        0825.11                       : 
MM00               .M        0210.00                       : 
NOKG               .         0                             : 
NPR                .         980615                        : 
PART               .         Бутенко                       : 
PROJECT_UPGRADE_TIME .         2021-03-18T21_24_49           : 
PRZK               .         Шакиров                       : 
TLFamily_AZIMUTH   .         True Dip Azimuth              : 
TLFamily_DEPTH     .         Measured Depth                : 
TLFamily_METKA     .                                       : 
TLFamily_ROLL      .                                       : 
TLFamily_SPEED     .         Spontaneous Potential         : 
TLFamily_ZENIT     .                                       : 
VPRG               .         310                           : 
WAY                .         UP                            : 
group              .         prim                          : 
~Curve Information
#_______________________________________________________________________________
#
#LOGNAME           .UNIT     LOG_ID                        : DESCRIPTION
#_______________________________________________________________________________
DEPTH              .M                                      :  
AZIMUTH            .DEG                                    :  
METKA              .                                       :  
ROLL               .DEG                                    :  
SPEED              .M/H                                    :  
ZENIT              .DEG                                    :  
~Ascii
# ...
1340       261.34     0          202.67     576        34.09     
1340.2     255.43     0          202.65     648        32.76     
1340.4     262.51     0          202.69     612        33.7      
1340.6     251.54     0          203.57     648        32.94     
1340.8     241.43     0          205.82     612        33.71     
1341       215.11     0          207.59     648        33.51     
1341.2     232.46     0          208.12     612        33.01     
1341.4     232.44     0          208.59     648        33.72     
1341.6     213.08     0          208.34     648        33.09     
1341.8     198.66     0          207.35     648        33.6      
1342       114.26     0          207.94     612        33.33     
1342.2     1.61       1          215.81     648        33.09     
1342.4     346.11     0          233.47     648        32.25     
1342.6     11.67      0          246.39     612        34.79     
1342.8     357.67     0          261.25     648        33.01     
1343       342.81     0          280.22     612        34.33     
1343.2     337.59     0          302.78     612        34.74     
1343.4     339.45     0          324.25     648        34.43     
1343.6     13.37      0          353.07     612        33.13     
1343.8     78.31      0          23.15      648        32.59     
1344       14.15      0          46.07      648        33        
1344.2     44.96      0          66.26      612        32.91     
1344.4     23.96      0          84.35      648        32.57     
1344.6     20.52      0          98.78      576        33        
1344.8     42.18      0          109.11     648        32.68     
1345       29.62      0          118.34     612        33.72     
1345.2     18.66      0          127.78     612        33.35     
1345.4     16.01      0          143.74     612        32.75     
1345.6     359.26     0          153.74     648        33.79     
1345.8     359.06     0          156.77     648        32.97     
1346       346.51     0          157.42     648        33.25     
1346.2     356.79     0          157.22     612        33.29     
1346.4     4.39       0          156.93     648        32.68     
1346.6     4.26       0          156.35     648        34.52     
1346.8     0.22       0          155.38     576        32.11     
1347       3.49       0          154.82     648        33.61     
1347.2     17.95      0          154.81     612        33.12     
1347.4     3.24       0          154.7      648        33.36     
1347.6     10.07      0          154.76     612        33.19     
1347.8     3.12       0          155.24     648        32.87     
1348       15.03      0          155.41     648        33.93     
1348.2     13.9       0          155.34     648        32.57     
1348.4     23.71      0          155.14     612        33.29     
1348.6     4.22       0          154.83     648        33.17     
1348.8     319.69     0          154.3      648        33.12     
1349       355.04     0          153.72     576        33.34     
1349.2     0.14       0          153.07     612        32.55     
1349.4     20.76      0          152.43     612        33.87     
1349.6     8.66       0          151.89     648        32.69     
1349.8     357.74     0          151.38     648        33.35     
1350       17.66      0          151.07     612        33.22     
1350.2     355.01     0          151.06     612        33.15     
1350.4     2.74       0          151.16     648        33.64     
1350.6     10.71      0          151.22     648        32.29     
1350.8     11.47      0          151.1      648        33.9      
1351       7.31       0          150.96     612        33        
1351.2     8.75       0          151.16     612        33.3      
1351.4     14.35      0          151.63     612        33.36     
1351.6     7.15       0          151.99     648        33.14     
1351.8     356.45     0          152.26     612        33.62     
1352       356.59     0          151.93     648        32.64     
1352.2     9.29       1          151.26     648        33.39     
1352.4     6.88       0          151.1      612        33.39     
1352.6     5.3        0          151.46     648        33.03     
1352.8     359.22     0          152.29     612        33.48     
1353       0.97       0          153.19     648        32.79     
1353.2     354.88     0          153.81     648        34.05     
1353.4     17.3       0          154.25     612        32.4      
1353.6     26.1       0          155.34     612        33.9      
1353.8     45.3       0          156.14     648        33.39     
1354       18.95      0          156.61     612        33.43     
1354.2     4.79       0          156.87     648        33.53     
1354.4     357.89     0          157.15     648        32.93     
1354.6     358.92     0          156.87     612        34.16     
1354.8     359.18     0          156.94     648        32.92     
1355       27.78      0          157.74     612        33.77     
1355.2     192.97     0          158.19     648        33.96     
1355.4     217.94     0          158.04     612        33.55     
1355.6     293.63     0          157.73     612        34.34     
1355.8     349.99     0          157.43     648        32.95     
1356       10.45      0          157.05     612        33.43     
1356.2     358.16     0          156.12     612        32.51     
1356.4     351.75     0          155.11     648        32.57     
1356.6     325.57     0          154.88     612        33.13     
1356.8     343.78     0          155.1      648        32.5      
1357       351.86     0          154.85     612        33.44     
1357.2     19.49      0          153.65     612        32.12     
1357.4     351.33     0          150.18     648        33.62     
1357.6     0.76       0          150.67     648        32.35     
1357.8     13.2       0          153.9      576        32.54     
1358       340.46     0          154.45     648        33.37     
1358.2     2.32       0          154.27     612        32.82     
1358.4     348.74     0          153.79     648        33.39     
1358.6     346.73     0          152.93     612        32.82     
1358.8     346.53     0          152.12     648        33.21     
1359       333.7      0          151.96     612        33.31     
1359.2     4.52       0          152.22     648        32.56     
1359.4     353.37     0          151.94     612        33.53     
1359.6     5.56       0          151.3      648        32.67     
1359.8     8.17       0          151.14     648        33.56     
1360       17.01      0          151.31     648        32.65     
1360.2     13.98      0          151.34     576        33.46     
1360.4     12.49      0          150.97     612        33.24     
1360.6     344.51     0          149.94     648        32.87     
1360.8     337.74     0          148.88     612        33.29     
1361       331.75     0          148        612        32.74     
1361.2     346.18     0          147.19     648        33.3      
1361.4     15.35      0          146.54     612        32.57     
1361.6     4.45       0          146.12     648        33.27     
1361.8     30.64      0          145.66     612        33.39     
1362       1.44       1          145.08     648        32.87     
1362.2     12.39      0          144.92     684        33.35     
1362.4     0.26       0          145.42     576        33.01     
1362.6     357.96     0          146.5      648        33.35     
1362.8     9.69       0          147.99     612        32.88     
1363       338.27     0          148.98     648        32.83     
1363.2     7.39       0          149.68     648        33.86     
1363.4     351.49     0          150.29     612        32.46     
1363.6     14.67      0          151.57     648        33.88     
1363.8     340.42     0          153.71     612        32.85     
1364       337.89     0          155.74     648        33.39     
1364.2     358        0          156.26     648        32.96     
