~Version
 VERS              .         2.0                           : CWLS LOG ASCII STANDARD - VERSION 2.0
 WRAP              .         NO                            : ONE LINE PER DEPTH STEP
 DLM               .         SPACE                         : DELIMITING CHARACTER(SPACE TAB OR COMMA)
~Well Information
#_______________________________________________________________________________
#
#PARAMETER_NAME    .UNIT     VALUE                         : DESCRIPTION
#_______________________________________________________________________________
STRT               .M        11                            : First reference value
STOP               .M        2775.8                        : Last reference value
STEP               .M        0.2                           : Step increment
NULL               .         -9999                         : Missing value
COMP               .                                       : Company
WELL               .         616                           : Well name
FLD                .                                       : Field
LOC                .                                       : Location
CNTY               .                                       : County
STAT               .                                       : State
CTRY               .                                       : Country
SRVC               .                                       : Service Company
DATE               .                                       : Date
API                .                                       : API number
PROJECT_UPGRADE_TIME .         2021-03-18T21_24_50           : 
group              .         Good                          : 
~Parameter Information Block
#_______________________________________________________________________________
#
#PARAMETER_NAME    .UNIT     VALUE                         : DESCRIPTION
#_______________________________________________________________________________
SET                .         D1813_D                       : 
OTHER              .         Программное обеспечение станции MONITOR-386EX 25/12/99 15_08_10   BGF V52 22/08/01 16_56_30   3.1_SNGF___BGF_N_092049: 
OTHER_10           .         Тарировки_                    : 
OTHER_11           .         TM.GRD = 0.00403*TM$.UE + -1.07: 
OTHER_12           .         MN.ATM = (9.34907e-006*TM.GRD + 0.02171)*(MN$.UE + -7.93*TM.GRD + -1787): 
OTHER_13           .         GK.MKR/H = LM. / 42.4676      : 
OTHER_14           .         GK.FLT = 0.1*GK.MKR/H[-1] + (1-0.1)*GK.MKR/H[0]: 
OTHER_2            .         Kedr.exe версия 3.4.2.51      : 
OTHER_3            .         KedrData.dll версия 3.4.2.24  : 
OTHER_4            .         Драйвер версия 2.1.1.3        : 
OTHER_5            .         Мнемоники версия 3.3 S        : 
OTHER_6            .         Прибор_ КСА-Т4                : 
OTHER_7            .         Номер прибора_ 03             : 
OTHER_8            .         Режим_ КСА-Т4                 : 
OTHER_9            .         Форма_ КВА.                   : 
PROJECT_UPGRADE_TIME .         2021-03-18T21_24_49           : 
TLFamily_DEPT      .         Measured Depth                : 
TLFamily_GK        .         Gamma Ray                     : 
TLFamily_GK$       .                                       : 
TLFamily_GK_2      .         Gamma Ray                     : 
TLFamily_LM        .         Casing Collar locator         : 
TLFamily_METKA     .                                       : 
TLFamily_MN        .                                       : 
TLFamily_MN$       .                                       : 
TLFamily_RCOR      .                                       : 
TLFamily_SPID      .         Spontaneous Potential         : 
TLFamily_TENS      .         Cable Tension                 : 
TLFamily_TIME      .         Time                          : 
TLFamily_TM        .         Temperature                   : 
TLFamily_TM$       .         Temperature                   : 
group              .         prim                          : 
~Curve Information
#_______________________________________________________________________________
#
#LOGNAME           .UNIT     LOG_ID                        : DESCRIPTION
#_______________________________________________________________________________
DEPT               .M                                      : 1 Глубина, м -    0.0 см 
GK                 .MKR/H                                  : 13 Гамма-активность, мкр./ч -  110.0 см 
GK$                .UE                                     : 10 Гамма-активность, усл.ед. -  110.0 см 
GK_2               .FLT                                    : 14 Гамма-активность фильтрованная, мкр./ч -  110.0 см 
LM                 .                                       : 9 Локатор муфт,  -   20.0 см 
METKA              .                                       : 3 Метки,  -    0.0 см 
MN                 .ATM                                    : 12 Давление, атм. -  160.0 см 
MN$                .UE                                     : 8 Давление, усл.ед. -  160.0 см 
RCOR               .CM/KM                                  : 5 Коррекция по ролику, см/км -    0.0 см 
SPID               .M/H                                    : 2 Скорость, м/час -    0.0 см 
TENS               .T                                      : 6 Натяжение кабеля, т -    0.0 см 
TIME               .S                                      : 4 Время, сек -    0.0 см 
TM                 .GRD                                    : 11 Температура, °C -  170.0 см 
TM$                .UE                                     : 7 Температура, усл.ед. -  170.0 см 
~Ascii
# ...
1851.8     7.54       320        7.53       2228       0          165.104    9635       -1112      -2387      0.07       9263.76    51.407     13021     
1852       7.51       319        7.51       2558       0          165.061    9633       -1112      -2388      0.07       9263.47    51.409     13022     
1852.2     7.51       319        7.51       2378       0          165.089    9634       -1112      -2384      0.07       9263.14    51.409     13022     
1852.4     7.51       319        7.51       2610       0          165.155    9637       -1112      -2380      0.07       9262.86    51.416     13024     
1852.6     7.51       319        7.51       2547       0          165.172    9638       -1112      -2379      0.07       9262.56    51.419     13025     
1852.8     7.51       319        7.52       2547       0          165.191    9639       -1112      -2378      0.07       9262.26    51.421     13025     
1853       7.51       319        7.52       2741       0          165.207    9640       -1112      -2374      0.07       9261.97    51.423     13026     
1853.2     7.53       320        7.54       2420       0          165.224    9640       -1112      -2369      0.07       9261.66    51.429     13027     
1853.4     7.56       321        7.56       1639       0          165.247    9641       -1112      -2367      0.07       9261.35    51.429     13027     
1853.6     7.56       321        7.56       1609       0          165.28     9643       -1112      -2367      0.07       9261.06    51.431     13028     
1853.8     7.56       321        7.56       1609       0          165.28     9643       -1112      -2367      0.07       9260.76    51.435     13028     
1854       7.56       321        7.56       1384       0          165.294    9644       -1112      -2366      0.07       9260.43    51.438     13029     
1854.2     7.56       321        7.57       1445       0          165.32     9645       -1112      -2361      0.07       9260.15    51.441     13030     
1854.4     7.56       321        7.58       1549       0          165.351    9646       -1112      -2364      0.07       9259.84    51.444     13031     
1854.6     7.56       321        7.59       1430       0          165.368    9647       -1112      -2369      0.07       9259.54    51.447     13032     
1854.8     7.56       321        7.63       1430       0          165.386    9648       -1112      -2372      0.07       9259.23    51.451     13032     
1855       7.71       328        7.74       1260       0          165.403    9649       -1112      -2367      0.07       9258.93    51.454     13033     
1855.2     7.79       331        7.8        1395       0          165.42     9649       -1112      -2367      0.07       9258.65    51.457     13034     
1855.4     7.79       331        7.8        1651       0          165.437    9650       -1112      -2367      0.07       9258.34    51.46      13035     
1855.6     7.79       331        7.8        1969       0          165.456    9651       -1112      -2364      0.07       9258.04    51.466     13036     
1855.8     7.79       331        7.82       1969       0          165.473    9652       -1112      -2358      0.07       9257.75    51.469     13037     
1856       7.79       331        7.85       2139       0          165.49     9653       -1112      -2352      0.07       9257.44    51.471     13037     
1856.2     7.79       331        7.91       2952       0          165.507    9653       -1112      -2345      0.07       9257.15    51.477     13039     
1856.4     7.9        335        8.04       3346       0          165.525    9654       -1112      -2346      0.07       9256.84    51.481     13040     
1856.6     8.29       352        8.29       1096       0          165.545    9655       -1112      -2347      0.07       9256.53    51.481     13040     
1856.8     8.29       352        8.29       1096       0          165.577    9657       -1112      -2345      0.07       9256.23    51.485     13041     
1857       8.29       352        8.29       1083       0          165.599    9658       -1112      -2343      0.07       9255.94    51.49      13042     
1857.2     8.29       352        8.29       1241       0          165.607    9658       -1112      -2340      0.07       9255.63    51.493     13043     
1857.4     8.29       352        8.29       1378       0          165.611    9658       -1112      -2343      0.07       9255.32    51.497     13044     
1857.6     8.29       352        8.3        1481       0          165.63     9659       -1112      -2347      0.07       9255.02    51.5       13045     
1857.8     8.29       352        8.31       1481       0          165.664    9661       -1112      -2348      0.07       9254.71    51.501     13045     
1858       8.29       352        8.34       1409       0          165.686    9662       -1112      -2347      0.07       9254.42    51.503     13045     
1858.2     8.36       355        8.4        1414       0          165.704    9662       -1112      -2344      0.07       9254.11    51.509     13047     
1858.4     8.45       359        8.45       1542       0          165.722    9663       -1112      -2342      0.07       9253.81    51.509     13047     
1858.6     8.45       359        8.45       1579       0          165.738    9664       -1112      -2340      0.07       9253.49    51.515     13048     
1858.8     8.45       359        8.45       1390       0          165.757    9665       -1112      -2342      0.07       9253.18    51.517     13049     
1859       8.45       359        8.45       1390       0          165.775    9666       -1112      -2351      0.07       9252.89    51.519     13049     
1859.2     8.45       359        8.45       1545       0          165.792    9667       -1112      -2361      0.07       9252.56    51.522     13050     
1859.4     8.45       359        8.44       1447       0          165.81     9667       -1112      -2355      0.07       9252.28    51.525     13051     
1859.6     8.45       359        8.41       1484       0          165.829    9668       -1112      -2352      0.07       9251.97    51.528     13052     
1859.8     8.45       359        8.37       1524       0          165.865    9670       -1112      -2351      0.07       9251.67    51.532     13053     
1860       8.27       351        8.25       1524       2          165.869    9670       -1111      -2349      0.07       9251.36    51.534     13053     
1860.2     8.22       349        8.22       1466       0          165.881    9671       -1109      -2348      0.07       9251.01    51.534     13053     
1860.4     8.22       349        8.22       1484       0          165.899    9671       -1109      -2353      0.07       9250.72    51.538     13054     
1860.6     8.22       349        8.22       1482       0          165.916    9672       -1109      -2351      0.07       9250.41    51.544     13056     
1860.8     8.22       349        8.22       1711       0          165.935    9673       -1109      -2349      0.07       9250.08    51.548     13057     
1861       8.22       349        8.23       2114       0          165.952    9674       -1109      -2348      0.07       9249.78    51.55      13057     
1861.2     8.22       349        8.25       2114       0          165.969    9675       -1109      -2346      0.07       9249.48    51.551     13057     
1861.4     8.29       352        8.3        2057       0          165.987    9675       -1109      -2344      0.07       9249.17    51.558     13059     
1861.6     8.34       354        8.34       2102       0          166.005    9676       -1109      -2348      0.07       9248.89    51.558     13059     
1861.8     8.34       354        8.34       2873       0          166.03     9677       -1109      -2347      0.07       9248.56    51.561     13060     
1862       8.34       354        8.34       4147       0          166.063    9679       -1109      -2345      0.07       9248.24    51.569     13062     
