~Version
 VERS              .         2.0                           : CWLS LOG ASCII STANDARD - VERSION 2.0
 WRAP              .         NO                            : ONE LINE PER DEPTH STEP
 DLM               .         SPACE                         : DELIMITING CHARACTER(SPACE TAB OR COMMA)
~Well Information
#_______________________________________________________________________________
#
#PARAMETER_NAME    .UNIT     VALUE                         : DESCRIPTION
#_______________________________________________________________________________
STRT               .M        2648.8                        : First reference value
STOP               .M        2754.8                        : Last reference value
STEP               .M        0.2                           : Step increment
NULL               .         -9999                         : Missing value
COMP               .                                       : Company
WELL               .         616                           : Well name
FLD                .                                       : Field
LOC                .                                       : Location
CNTY               .                                       : County
STAT               .                                       : State
CTRY               .                                       : Country
SRVC               .                                       : Service Company
DATE               .                                       : Date
API                .                                       : API number
PROJECT_UPGRADE_TIME .         2021-03-18T21_24_50           : 
group              .         Good                          : 
~Parameter Information Block
#_______________________________________________________________________________
#
#PARAMETER_NAME    .UNIT     VALUE                         : DESCRIPTION
#_______________________________________________________________________________
SET                .         D7019_D                       : 
OTHER              .         Kedr.exe версия 2.1.2.32      : 
OTHER_10           .         TM.GRD = 0.00404*TM$.UE + 0.07: 
OTHER_11           .         MN.ATM = (6.33279e-006*TM.GRD + 0.02401)*(MN$.UE + 2.72*TM.GRD + -2018): 
OTHER_12           .         GK.MKR/H = GK$.UE / 43.5489 + 0: 
OTHER_13           .         RES.SM = 0.00476*CRES.UE - 1.51709: 
OTHER_14           .         PL.GSM3 = 0 + 0 * (PL.UE / 1) +  0 * (PL.UE / 1)^2: 
OTHER_15           .         Постоянная времени ГГП = 6 сек: 
OTHER_16           .         Постоянная времени ГК = 6 сек : 
OTHER_2            .         KedrData.dll версия 3.2.2.14  : 
OTHER_3            .         LasInf.dll версия 3.2.0.13    : 
OTHER_4            .         Драйвер версия 1.2.0.5        : 
OTHER_5            .         Прибор_ КСА-M1                : 
OTHER_6            .         Номер прибора_ 155+р204       : 
OTHER_7            .         Режим_ КСА-М1 + ГГП + Резистивиметр: 
OTHER_8            .         Форма_ 223\2                  : 
OTHER_9            .         Тарировки_                    : 
PROJECT_UPGRADE_TIME .         2021-03-18T21_24_50           : 
TLFamily_CRES      .                                       : 
TLFamily_DEPT      .         Measured Depth                : 
TLFamily_GK        .         Gamma Ray                     : 
TLFamily_GK$       .                                       : 
TLFamily_LM        .         Casing Collar locator         : 
TLFamily_METKA     .                                       : 
TLFamily_MN        .                                       : 
TLFamily_MN$       .                                       : 
TLFamily_PL        .                                       : 
TLFamily_PL_2      .                                       : 
TLFamily_RCOR      .                                       : 
TLFamily_RES       .         Mud Resistivity               : 
TLFamily_SPID      .         Spontaneous Potential         : 
TLFamily_STD       .                                       : 
TLFamily_TIME      .         Time                          : 
TLFamily_TM        .         Temperature                   : 
TLFamily_TM$       .         Temperature                   : 
TLFamily_VGD       .         Gas Volume                    : 
group              .         prim                          : 
~Curve Information
#_______________________________________________________________________________
#
#LOGNAME           .UNIT     LOG_ID                        : DESCRIPTION
#_______________________________________________________________________________
DEPT               .M                                      : 1 Глубина, м -    0.0 см 
CRES               .UE                                     : 9 Проводимость, усл.ед. -  222.0 см 
GK                 .MKR/H                                  : 16 Гамма-активность, мкр./ч -  106.0 см 
GK$                .UE                                     : 13 Гамма-активность, усл.ед. -  106.0 см 
LM                 .                                       : 11 Локатор муфт,  -   16.0 см 
METKA              .                                       : 3 Метки,  -    0.0 см 
MN                 .ATM                                    : 15 Давление, атм. -  160.0 см 
MN$                .UE                                     : 7 Давление, усл.ед. -  160.0 см 
PL                 .UE                                     : 10 Плотность, усл.ед. -  270.0 см 
PL_2               .GSM3                                   : 18 Плотность, г./см3 -  270.0 см 
RCOR               .CM/KM                                  : 5 Коррекция по ролику, см/км -    0.0 см 
RES                .SM                                     : 17 Проводимость,  -  222.0 см 
SPID               .M/H                                    : 2 Скорость, м/час -    0.0 см 
STD                .                                       : 12 Приток,  -  170.0 см 
TIME               .S                                      : 4 Время, сек -    0.0 см 
TM                 .GRD                                    : 14 Температура, °C -  180.0 см 
TM$                .UE                                     : 6 Температура, усл.ед. -  180.0 см 
VGD                .                                       : 8 Влагомер,  -  170.0 см 
~Ascii
# ...
2714.4     1202       7.57       321        2761       0          249.58     12163      15         0          0          4.2028     580        9012       10696.71   46.024     11375      6664      
2714.6     1200       7.06       284        2774       0          249.588    12163      15         0          0          4.1965     545        9010       10697.98   46.021     11374      6661      
2714.8     1204       6.79       284        1068       0          249.628    12165      13         0          0          4.2159     580        9009       10699.3    46.021     11374      6662      
2715       1205       6.66       284        259        0          249.625    12165      14         0          0          4.2187     580        9009       10700.55   46.019     11374      6662      
2715.2     1205       6.79       329        283        0          249.653    12166      13         0          0          4.2187     533        9009       10701.86   46.021     11374      6663      
2715.4     1207       7.17       329        193        0          249.689    12168      14         0          0          4.2282     533        9007       10703.16   46.021     11374      6665      
2715.6     1207       7.45       351        204        0          249.698    12168      13         0          0          4.2306     580        9007       10704.41   46.021     11374      6657      
2715.8     1208       7.93       367        87         0          249.702    12168      14         0          0          4.233      568        9007       10705.72   46.024     11375      6663      
2716       1206       8.2        372        63         0          249.751    12170      13         0          0          4.2235     580        9006       10707.01   46.021     11374      6663      
2716.2     1207       8.37       372        64         0          249.774    12171      13         0          0          4.2282     510        9007       10708.3    46.024     11375      6662      
2716.4     1207       8.12       321        96         0          249.799    12172      13         0          0          4.2282     580        9008       10709.6    46.019     11374      6664      
2716.6     1207       7.75       321        62         0          249.799    12172      13         0          0          4.2283     534        9012       10710.91   46.02      11374      6662      
2716.8     1208       7.56       320        56         0          249.832    12173      15         0          0          4.2338     510        9014       10712.19   46.025     11375      6665      
2717       1209       7.46       320        56         0          249.847    12174      14         0          0          4.2354     580        9014       10713.46   46.024     11375      6664      
2717.2     1209       7.57       344        75         0          249.868    12175      13         0          0          4.2364     580        9013       10714.77   46.021     11374      6664      
2717.4     1209       7.73       344        117        0          249.872    12175      14         0          0          4.2377     510        9014       10716.1    46.021     11374      6664      
2717.6     1208       7.72       333        3342       0          249.897    12176      14         0          0          4.233      580        9012       10717.42   46.022     11374      6663      
2717.8     1208       7.68       333        939        0          249.921    12177      13         0          0          4.233      580        9010       10718.65   46.029     11376      6663      
2718       1208       8.11       394        253        0          249.921    12177      14         0          0          4.233      533        9012       10719.97   46.025     11375      6662      
2718.2     1208       8.58       394        91         0          249.962    12179      14         0          0          4.233      510        9012       10721.28   46.025     11375      6665      
2718.4     1208       9.46       464        58         0          249.945    12178      14         0          0          4.233      510        9013       10722.6    46.026     11375      6664      
2718.6     1207       10.06      464        48         0          249.998    12180      14         0          0          4.2282     580        9013       10723.92   46.027     11376      6664      
2718.8     1208       10.61      489        125        0          250.019    12181      14         0          0          4.233      580        9012       10725.16   46.029     11376      6663      
2719       1207       10.92      489        233        0          250.044    12182      14         0          0          4.2273     580        9013       10726.43   46.029     11376      6663      
2719.2     1207       10.39      419        1043       0          250.048    12182      15         0          0          4.2259     510        9011       10727.73   46.033     11377      6663      
2719.4     1207       10         419        684        0          250.093    12184      13         0          0          4.2274     580        9010       10729.03   46.036     11378      6662      
2719.6     1208       8.38       294        435        0          250.101    12184      14         0          0          4.2307     580        9009       10730.34   46.041     11379      6649      
2719.8     1207       7.57       287        416        0          250.127    12185      14         0          0          4.2306     580        9008       10731.59   46.043     11379      6650      
2720       1208       7.01       281        760        0          250.144    12186      13         0          0          4.2314     580        9011       10732.92   46.052     11382      6660      
2720.2     1208       6.72       279        941        1          250.17     12187      13         0          0          4.233      580        9011       10734.82   46.057     11383      6647      
2720.4     1210       6.44       267        3376       0          250.195    12188      13         0          0          4.2425     580        9012       10736.08   46.069     11386      6651      
2720.6     1205       6.23       254        2132       0          250.221    12189      13         0          0          4.2187     537        9015       10737.45   46.078     11388      6661      
2720.8     1215       5.96       247        946        0          250.222    12189      14         0          0          4.2663     510        9015       10738.76   46.088     11391      6646      
2721       1214       5.91       266        246        0          250.246    12190      13         0          0          4.2615     557        9014       10740.08   46.098     11393      6657      
2721.2     1215       6.04       266        113        0          250.262    12191      14         0          0          4.2656     580        9016       10741.39   46.098     11393      6661      
2721.4     1217       6.17       278        112        0          250.288    12192      13         0          0          4.2765     580        9017       10742.71   46.091     11391      6657      
2721.6     1217       6.28       278        100        0          250.295    12192      13         0          0          4.2758     530        9017       10744      46.078     11388      6656      
2721.8     1219       6.47       291        88         0          250.361    12195      14         0          0          4.2838     545        9014       10745.27   46.065     11385      6659      
2722       1224       6.56       288        83         0          250.338    12194      14         0          0          4.3115     580        9014       10746.59   46.045     11380      6653      
2722.2     1225       6.51       281        84         0          250.371    12196      13         0          0          4.3147     580        9013       10747.9    46.024     11375      6650      
2722.4     1229       6.48       281        93         0          250.402    12197      13         0          0          4.333      538        9010       10749.17   46.001     11369      6658      
