~Version
 VERS              .         2.0                           : CWLS LOG ASCII STANDARD - VERSION 2.0
 WRAP              .         NO                            : ONE LINE PER DEPTH STEP
 DLM               .         SPACE                         : DELIMITING CHARACTER(SPACE TAB OR COMMA)
~Well Information
#_______________________________________________________________________________
#
#PARAMETER_NAME    .UNIT     VALUE                         : DESCRIPTION
#_______________________________________________________________________________
STRT               .M        2648.8                        : First reference value
STOP               .M        2754.8                        : Last reference value
STEP               .M        0.2                           : Step increment
NULL               .         -9999                         : Missing value
COMP               .                                       : Company
WELL               .         616                           : Well name
FLD                .                                       : Field
LOC                .                                       : Location
CNTY               .                                       : County
STAT               .                                       : State
CTRY               .                                       : Country
SRVC               .                                       : Service Company
DATE               .                                       : Date
API                .                                       : API number
PROJECT_UPGRADE_TIME .         2021-03-18T21_24_50           : 
group              .         Good                          : 
~Parameter Information Block
#_______________________________________________________________________________
#
#PARAMETER_NAME    .UNIT     VALUE                         : DESCRIPTION
#_______________________________________________________________________________
SET                .         D7019_D                       : 
OTHER              .         Kedr.exe версия 2.1.2.32      : 
OTHER_10           .         TM.GRD = 0.00404*TM$.UE + 0.07: 
OTHER_11           .         MN.ATM = (6.33279e-006*TM.GRD + 0.02401)*(MN$.UE + 2.72*TM.GRD + -2018): 
OTHER_12           .         GK.MKR/H = GK$.UE / 43.5489 + 0: 
OTHER_13           .         RES.SM = 0.00476*CRES.UE - 1.51709: 
OTHER_14           .         PL.GSM3 = 0 + 0 * (PL.UE / 1) +  0 * (PL.UE / 1)^2: 
OTHER_15           .         Постоянная времени ГГП = 6 сек: 
OTHER_16           .         Постоянная времени ГК = 6 сек : 
OTHER_2            .         KedrData.dll версия 3.2.2.14  : 
OTHER_3            .         LasInf.dll версия 3.2.0.13    : 
OTHER_4            .         Драйвер версия 1.2.0.5        : 
OTHER_5            .         Прибор_ КСА-M1                : 
OTHER_6            .         Номер прибора_ 155+р204       : 
OTHER_7            .         Режим_ КСА-М1 + ГГП + Резистивиметр: 
OTHER_8            .         Форма_ 223\2                  : 
OTHER_9            .         Тарировки_                    : 
PROJECT_UPGRADE_TIME .         2021-03-18T21_24_50           : 
TLFamily_CRES      .                                       : 
TLFamily_DEPT      .         Measured Depth                : 
TLFamily_GK        .         Gamma Ray                     : 
TLFamily_GK$       .                                       : 
TLFamily_LM        .         Casing Collar locator         : 
TLFamily_METKA     .                                       : 
TLFamily_MN        .                                       : 
TLFamily_MN$       .                                       : 
TLFamily_PL        .                                       : 
TLFamily_PL_2      .                                       : 
TLFamily_RCOR      .                                       : 
TLFamily_RES       .         Mud Resistivity               : 
TLFamily_SPID      .         Spontaneous Potential         : 
TLFamily_STD       .                                       : 
TLFamily_TIME      .         Time                          : 
TLFamily_TM        .         Temperature                   : 
TLFamily_TM$       .         Temperature                   : 
TLFamily_VGD       .         Gas Volume                    : 
group              .         prim                          : 
~Curve Information
#_______________________________________________________________________________
#
#LOGNAME           .UNIT     LOG_ID                        : DESCRIPTION
#_______________________________________________________________________________
DEPT               .M                                      : 1 Глубина, м -    0.0 см 
CRES               .UE                                     : 9 Проводимость, усл.ед. -  222.0 см 
GK                 .MKR/H                                  : 16 Гамма-активность, мкр./ч -  106.0 см 
GK$                .UE                                     : 13 Гамма-активность, усл.ед. -  106.0 см 
LM                 .                                       : 11 Локатор муфт,  -   16.0 см 
METKA              .                                       : 3 Метки,  -    0.0 см 
MN                 .ATM                                    : 15 Давление, атм. -  160.0 см 
MN$                .UE                                     : 7 Давление, усл.ед. -  160.0 см 
PL                 .UE                                     : 10 Плотность, усл.ед. -  270.0 см 
PL_2               .GSM3                                   : 18 Плотность, г./см3 -  270.0 см 
RCOR               .CM/KM                                  : 5 Коррекция по ролику, см/км -    0.0 см 
RES                .SM                                     : 17 Проводимость,  -  222.0 см 
SPID               .M/H                                    : 2 Скорость, м/час -    0.0 см 
STD                .                                       : 12 Приток,  -  170.0 см 
TIME               .S                                      : 4 Время, сек -    0.0 см 
TM                 .GRD                                    : 14 Температура, °C -  180.0 см 
TM$                .UE                                     : 6 Температура, усл.ед. -  180.0 см 
VGD                .                                       : 8 Влагомер,  -  170.0 см 
~Ascii
# ...
2706.2     1207       12.87      563        51         0          248.717    12127      14         0          0          4.2282     510        9029       10642.76   46.108     11395      6665      
2706.4     1208       12.8       539        43         0          248.741    12128      14         0          0          4.233      580        9030       10644.07   46.11      11396      6662      
2706.6     1209       11.22      420        41         0          248.764    12129      14         0          0          4.2378     580        9031       10645.39   46.105     11395      6660      
2706.8     1210       10.46      420        45         0          248.788    12130      14         0          0          4.2409     580        9031       10646.7    46.098     11393      6665      
2707       1210       9.93       409        37         0          248.811    12131      15         0          0          4.2409     580        9031       10648      46.098     11393      6666      
2707.2     1209       9.68       414        48         0          248.823    12131      13         0          0          4.2378     580        9030       10649.31   46.09      11391      6666      
2707.4     1208       9.7        423        52         0          248.835    12132      13         0          0          4.2354     580        9029       10650.57   46.088     11391      6665      
2707.6     1209       9.58       395        54         0          248.859    12133      14         0          0          4.237      580        9028       10651.91   46.083     11389      6666      
2707.8     1207       9.33       395        51         0          248.882    12134      14         0          0          4.2299     570        9027       10653.2    46.078     11388      6666      
2708       1209       9.27       410        59         0          248.907    12135      14         0          0          4.2362     580        9028       10654.51   46.075     11387      6666      
2708.2     1208       9.43       418        58         0          248.931    12136      13         0          0          4.2346     580        9029       10655.81   46.078     11388      6667      
2708.4     1208       9.63       440        71         0          248.955    12137      14         0          0          4.233      510        9032       10657.12   46.073     11387      6666      
2708.6     1206       9.87       440        87         0          248.971    12138      14         0          0          4.2235     580        9033       10658.42   46.072     11387      6661      
2708.8     1206       9.65       397        83         0          248.954    12137      14         0          0          4.2235     510        9033       10659.75   46.069     11386      6663      
2709       1206       9.39       397        79         1          249.002    12139      14         0          0          4.2235     580        9033       10661.06   46.065     11385      6650      
2709.2     1206       9.47       432        86         0          249.027    12140      14         0          0          4.2219     580        9033       10662.38   46.064     11385      6654      
2709.4     1204       9.69       432        67         0          249.092    12143      14         0          0          4.2155     580        9032       10663.63   46.063     11384      6659      
2709.6     1205       10.12      470        64         0          249.079    12142      14         0          0          4.2187     580        9034       10664.94   46.058     11383      6659      
2709.8     1202       10.46      470        50         0          249.087    12143      15         0          0          4.2044     580        9034       10666.26   46.061     11384      6657      
2710       1203       10.36      444        61         0          249.099    12143      13         0          0          4.2085     510        9034       10667.57   46.061     11384      6656      
2710.2     1202       10.28      444        60         1          249.123    12144      14         0          0          4.2044     522        9032       10669.47   46.057     11383      6665      
2710.4     1202       9.9        407        91         0          249.122    12144      13         0          0          4.2036     545        9027       10670.78   46.053     11382      6666      
2710.6     1203       9.63       407        111        0          249.167    12146      14         0          0          4.2116     580        9024       10672.1    46.049     11381      6658      
2710.8     1202       9.61       419        106        0          249.215    12148      14         0          0          4.2044     510        9020       10673.35   46.049     11381      6661      
2711       1201       9.61       417        89         0          249.219    12148      15         0          0          4.2013     580        9018       10674.66   46.045     11380      6662      
2711.2     1203       9.53       413        122        0          249.234    12149      14         0          0          4.2092     557        9016       10675.96   46.044     11380      6664      
2711.4     1203       9.39       394        113        0          249.243    12149      13         0          0          4.2084     510        9013       10677.27   46.038     11378      6661      
2711.6     1202       9.22       394        70         1          249.265    12150      15         0          0          4.2044     556        9011       10678.59   46.041     11379      6664      
2711.8     1202       9.51       440        75         0          249.31     12152      14         0          0          4.2028     580        9011       10679.84   46.029     11376      6663      
2712       1200       9.8        440        112        0          249.327    12153      14         0          0          4.1949     522        9011       10681.15   46.032     11377      6664      
2712.2     1201       10.2       477        115        0          249.363    12154      13         0          0          4.1997     568        9009       10682.46   46.035     11378      6654      
2712.4     1201       10.58      477        167        0          249.362    12154      15         0          0          4.199      580        9008       10683.77   46.034     11377      6663      
2712.6     1199       10.87      489        186        1          249.386    12155      13         0          0          4.1878     566        9008       10685.07   46.025     11375      6657      
2712.8     1200       11.04      489        337        0          249.394    12155      14         0          0          4.1949     510        9008       10686.33   46.025     11375      6655      
2713       1200       11         476        187        0          249.435    12157      14         0          0          4.1935     580        9007       10687.64   46.026     11375      6662      
2713.2     1198       10.97      476        184        0          249.46     12158      14         0          0          4.1854     550        9007       10688.92   46.029     11376      6662      
2713.4     1202       10.21      396        92         0          249.459    12158      14         0          0          4.206      580        9006       10690.21   46.029     11376      6665      
2713.6     1202       9.67       396        93         0          249.483    12159      14         0          0          4.2029     580        9010       10691.52   46.027     11375      6662      
2713.8     1203       8.7        332        333        0          249.487    12159      14         0          0          4.2092     545        9011       10692.84   46.025     11375      6662      
2714       1202       8.15       328        2956       0          249.532    12161      14         0          0          4.2044     522        9012       10694.15   46.022     11374      6663      
2714.2     1200       7.76       321        1981       0          249.551    12162      13         0          0          4.1949     510        9013       10695.42   46.023     11374      6664      
