~Version
 VERS              .         2.0                           : CWLS LOG ASCII STANDARD - VERSION 2.0
 WRAP              .         NO                            : ONE LINE PER DEPTH STEP
 DLM               .         SPACE                         : DELIMITING CHARACTER(SPACE TAB OR COMMA)
~Well Information
#_______________________________________________________________________________
#
#PARAMETER_NAME    .UNIT     VALUE                         : DESCRIPTION
#_______________________________________________________________________________
STRT               .M        2338.9                        : First reference value
STOP               .M        2799.2                        : Last reference value
STEP               .M        0.1                           : Step increment
NULL               .         -9999                         : Missing value
COMP               .                                       : Company
WELL               .         616                           : Well name
FLD                .                                       : Field
LOC                .                                       : Location
CNTY               .                                       : County
STAT               .                                       : State
CTRY               .                                       : Country
SRVC               .                                       : Service Company
DATE               .                                       : Date
API                .                                       : API number
PROJECT_UPGRADE_TIME .         2021-03-18T21_24_50           : 
group              .         Good                          : 
~Parameter Information Block
#_______________________________________________________________________________
#
#PARAMETER_NAME    .UNIT     VALUE                         : DESCRIPTION
#_______________________________________________________________________________
SET                .         D2662_D                       : 
OTHER              .         Программное обеспечение станции MONITOR-386EX 25/12/99 15_08_10   BGF V50 26/12/00 07_26_01   3.1_SNGF___BGF_N_092085: 
OTHER_10           .         Тарировки_                    : 
OTHER_11           .         IK1.GRD = IK1$.UE - -5.96     : 
OTHER_12           .         IK5.GRD = IK5$.UE - -0.74     : 
OTHER_13           .         IK4.GRD = IK4$.UE - -0.9      : 
OTHER_14           .         IK3.GRD = IK3$.UE - -1.28     : 
OTHER_15           .         IK2.GRD = IK2$.UE - -3.55     : 
OTHER_2            .         Kedr.exe версия 3.3.2.32      : 
OTHER_3            .         KedrData.dll версия 3.3.2.17  : 
OTHER_4            .         Драйвер версия 2.1.0.4        : 
OTHER_5            .         Мнемоники версия 3.3 S        : 
OTHER_6            .         Прибор_ Викиз                 : 
OTHER_7            .         Номер прибора_ 0006012        : 
OTHER_8            .         Режим_ Викиз                  : 
OTHER_9            .         Форма_ ВИКИЗ                  : 
PROJECT_UPGRADE_TIME .         2021-03-18T21_24_49           : 
TLFamily_DEPT      .         Measured Depth                : 
TLFamily_IK1       .         Extra Shallow Resistivity     : 
TLFamily_IK1$      .         Extra Shallow Resistivity     : 
TLFamily_IK2       .         Shallow Resistivity           : 
TLFamily_IK2$      .         Shallow Resistivity           : 
TLFamily_IK3       .         Medium Resistivity            : 
TLFamily_IK3$      .         Medium Resistivity            : 
TLFamily_IK4       .         Deep Resistivity              : 
TLFamily_IK4$      .         Deep Resistivity              : 
TLFamily_IK5       .         Resistivity 20                : 
TLFamily_IK5$      .         Resistivity 20                : 
TLFamily_METKA     .                                       : 
TLFamily_PS        .         Spontaneous Potential         : 
TLFamily_RCOR      .                                       : 
TLFamily_SPID      .         Spontaneous Potential         : 
TLFamily_TENS      .         Cable Tension                 : 
TLFamily_TIME      .         Time                          : 
group              .         prim                          : 
~Curve Information
#_______________________________________________________________________________
#
#LOGNAME           .UNIT     LOG_ID                        : DESCRIPTION
#_______________________________________________________________________________
DEPT               .M                                      : 1 Глубина, м -    0.0 см 
IK1                .GRD                                    : 13 3Ф0.5, град. -  226.0 см 
IK1$               .UE                                     : 7 3Ф0.5, усл.ед. -  226.0 см 
IK2                .GRD                                    : 17 3Ф0.7, град. -  240.0 см 
IK2$               .UE                                     : 11 3Ф0.7, усл.ед. -  240.0 см 
IK3                .GRD                                    : 16 3Ф1.0, град. -  260.0 см 
IK3$               .UE                                     : 10 3Ф1.0, усл.ед. -  260.0 см 
IK4                .GRD                                    : 15 3Ф1.4, град. -  288.0 см 
IK4$               .UE                                     : 9 3Ф1.4, усл.ед. -  288.0 см 
IK5                .GRD                                    : 14 3Ф2.0, град. -  328.0 см 
IK5$               .UE                                     : 8 3Ф2.0, усл.ед. -  328.0 см 
METKA              .                                       : 3 Метки,  -    0.0 см 
PS                 .mV                                     : 12 ПС, мВ -  372.0 см 
RCOR               .CM/KM                                  : 5 Коррекция по ролику, см/км -    0.0 см 
SPID               .M/H                                    : 2 Скорость, м/час -    0.0 см 
TENS               .T                                      : 6 Натяжение кабеля, т -    0.0 см 
TIME               .S                                      : 4 Время, сек -    0.0 см 
~Ascii
# ...
2519.5     20.37      14.41      19.41      15.86      19.23      17.95      18.9       18         18.84      18.1       0          315.04     -368       -1756      0          35140.29  
2519.6     20.44      14.48      19.45      15.9       19.3       18.02      19.01      18.11      18.95      18.21      0          314.83     -368       -1759      0          35140.08  
2519.7     20.54      14.58      19.55      16         19.4       18.12      19.15      18.25      19.08      18.34      0          314.52     -368       -1767      0          35139.87  
2519.8     20.65      14.69      19.64      16.09      19.49      18.21      19.28      18.38      19.2       18.46      0          314.36     -368       -1775      0          35139.68  
2519.9     20.76      14.8       19.72      16.17      19.59      18.31      19.38      18.48      19.27      18.53      1          314.18     -368       -1786      0          35139.49  
2520       20.86      14.9       19.8       16.25      19.65      18.37      19.42      18.52      19.26      18.52      0          313.8      -368       -1802      0          35139.27  
2520.1     20.89      14.93      19.81      16.26      19.63      18.35      19.34      18.44      19.16      18.42      0          313.5      -367       -1817      0          35139.05  
2520.2     20.76      14.8       19.69      16.14      19.42      18.14      19.06      18.16      18.91      18.17      0          312.95     -367       -1824      0          35138.86  
2520.3     20.49      14.53      19.36      15.81      19.03      17.75      18.58      17.68      18.47      17.73      0          312.33     -367       -1833      0          35138.64  
2520.4     19.9       13.94      18.69      15.14      18.4       17.12      17.9       17         17.89      17.15      0          311.68     -367       -1834      0          35138.44  
2520.5     18.75      12.79      17.73      14.18      17.37      16.09      16.95      16.05      17.23      16.49      0          310.79     -367       -1827      0          35138.24  
2520.6     17.44      11.48      16.53      12.98      16.25      14.97      16.04      15.14      16.33      15.59      0          310.03     -367       -1818      0          35138.03  
2520.7     15.88      9.92       15.03      11.48      15.27      13.99      15.24      14.34      15.64      14.9       0          309.61     -367       -1808      0          35137.85  
2520.8     14.69      8.73       14.27      10.72      14.64      13.36      14.63      13.73      15.15      14.41      0          309.37     -367       -1796      0          35137.66  
2520.9     14.42      8.46       14.09      10.54      14.45      13.17      14.47      13.57      14.85      14.11      0          308.83     -367       -1779      0          35137.45  
2521       14.46      8.5        14.14      10.59      14.49      13.21      14.5       13.6       14.76      14.02      0          308.05     -367       -1776      0          35137.25  
2521.1     14.68      8.72       14.23      10.68      14.55      13.27      14.54      13.64      14.74      14         0          307.44     -367       -1773      0          35137.07  
2521.2     14.96      9          14.27      10.72      14.47      13.19      14.47      13.57      14.67      13.93      0          307.47     -367       -1769      0          35136.88  
2521.3     15.12      9.16       14.15      10.6       14.25      12.97      14.29      13.39      14.54      13.8       0          307.91     -367       -1780      0          35136.66  
2521.4     15.19      9.23       14.05      10.5       13.97      12.69      14         13.1       14.37      13.63      0          308.47     -367       -1793      0          35136.46  
2521.5     15.27      9.31       14.05      10.5       13.69      12.41      13.7       12.8       14.16      13.42      0          308.77     -367       -1804      0          35136.27  
2521.6     15.25      9.29       14.07      10.52      13.5       12.22      13.46      12.56      13.94      13.2       0          308.91     -367       -1808      0          35136.04  
2521.7     15.02      9.06       14         10.45      13.33      12.05      13.23      12.33      13.79      13.05      0          308.95     -367       -1812      0          35135.86  
2521.8     14.84      8.88       13.96      10.41      13.26      11.98      13.02      12.12      13.67      12.93      0          308.83     -367       -1810      0          35135.66  
2521.9     14.71      8.75       13.9       10.35      13.27      11.99      12.91      12.01      13.58      12.84      0          308.62     -367       -1798      0          35135.47  
2522       14.57      8.61       13.76      10.21      13.3       12.02      12.84      11.94      13.53      12.79      0          308.47     -367       -1780      0          35135.26  
2522.1     14.4       8.44       13.55      10         13.32      12.04      12.82      11.92      13.51      12.77      0          308.57     -367       -1773      0          35135.07  
2522.2     14.14      8.18       13.38      9.83       13.33      12.05      12.87      11.97      13.52      12.78      0          308.94     -367       -1769      0          35134.88  
2522.3     13.95      7.99       13.33      9.78       13.44      12.16      13.06      12.16      13.59      12.85      0          309.45     -367       -1763      0          35134.66  
2522.4     14.05      8.09       13.55      10         13.71      12.43      13.38      12.48      13.75      13.01      0          309.92     -367       -1769      0          35134.47  
2522.5     14.47      8.51       14.08      10.53      14.15      12.87      13.87      12.97      13.97      13.23      0          310.39     -367       -1778      0          35134.28  
2522.6     15.14      9.18       14.72      11.17      14.85      13.57      14.42      13.52      14.3       13.56      0          310.63     -367       -1790      0          35134.06  
2522.7     15.96      10         15.53      11.98      15.57      14.29      14.93      14.03      14.64      13.9       0          310.53     -367       -1790      0          35133.87  
2522.8     16.67      10.71      16         12.45      16.01      14.73      15.38      14.48      14.9       14.16      0          310.26     -367       -1790      0          35133.67  
2522.9     17.06      11.1       16.24      12.69      16.29      15.01      15.69      14.79      15.13      14.39      0          310.21     -367       -1790      0          35133.46  
2523       17.38      11.42      16.47      12.92      16.45      15.17      15.88      14.98      15.27      14.53      0          310.06     -367       -1790      0          35133.26  
2523.1     17.69      11.73      16.7       13.15      16.6       15.32      16.01      15.11      15.35      14.61      0          310.01     -367       -1790      0          35133.07  
2523.2     18.02      12.06      16.95      13.4       16.76      15.48      16.14      15.24      15.42      14.68      0          310.02     -367       -1790      0          35132.88  
2523.3     18.23      12.27      17.18      13.63      16.85      15.57      16.2       15.3       15.45      14.71      0          309.89     -367       -1791      0          35132.65  
2523.4     18.27      12.31      17.23      13.68      16.85      15.57      16.18      15.28      15.44      14.7       0          309.68     -367       -1791      0          35132.46  
2523.5     18.11      12.15      17.12      13.57      16.71      15.43      16.07      15.17      15.37      14.63      0          309.41     -367       -1791      0          35132.27  
2523.6     17.84      11.88      16.9       13.35      16.54      15.26      15.92      15.02      15.27      14.53      0          309.23     -367       -1791      0          35132.04  
2523.7     17.55      11.59      16.65      13.1       16.37      15.09      15.79      14.89      15.18      14.44      0          308.79     -367       -1791      0          35131.86  
