~Version
 VERS              .         2.0                           : CWLS LOG ASCII STANDARD - VERSION 2.0
 WRAP              .         NO                            : ONE LINE PER DEPTH STEP
 DLM               .         SPACE                         : DELIMITING CHARACTER(SPACE TAB OR COMMA)
~Well Information
#_______________________________________________________________________________
#
#PARAMETER_NAME    .UNIT     VALUE                         : DESCRIPTION
#_______________________________________________________________________________
STRT               .M        2701                          : First reference value
STOP               .M        2765.600097                   : Last reference value
STEP               .M        0.2000003                     : Step increment
NULL               .         -9999                         : Missing value
COMP               .                                       : Company
WELL               .         616                           : Well name
FLD                .                                       : Field
LOC                .                                       : Location
CNTY               .                                       : County
STAT               .                                       : State
CTRY               .                                       : Country
SRVC               .                                       : Service Company
DATE               .                                       : Date
API                .                                       : API number
PROJECT_UPGRADE_TIME .         2021-03-18T21_24_50           : 
group              .         Good                          : 
~Parameter Information Block
#_______________________________________________________________________________
#
#PARAMETER_NAME    .UNIT     VALUE                         : DESCRIPTION
#_______________________________________________________________________________
SET                .         D7018_D_2                     : 
NPR                .         155                           : Номер прибора
OTHER              .         Kedr.exe версия 2.1.2.32      : 
OTHER_10           .         TM.GRD = 0.00404*TM$.UE + 0.07: 
OTHER_11           .         MN.ATM = (6.33279e-006*TM.GRD + 0.02401)*(MN$.UE + 2.72*TM.GRD + -2018): 
OTHER_12           .         GK.MKR/H = GK$.UE / 43.5489 + 0: 
OTHER_13           .         RES.SM = 0.00476*CRES.UE - 1.51709: 
OTHER_14           .         PL.GSM3 = 0 + 0 * (PL.UE / 1) +  0 * (PL.UE / 1)^2: 
OTHER_15           .         Постоянная времени ГГП = 6 сек: 
OTHER_16           .         Постоянная времени ГК = 6 сек : 
OTHER_2            .         KedrData.dll версия 3.2.2.14  : 
OTHER_3            .         LasInf.dll версия 3.2.0.13    : 
OTHER_4            .         Драйвер версия 1.2.0.5        : 
OTHER_5            .         Прибор_ КСА-M1                : 
OTHER_6            .         Номер прибора_ 155+р204       : 
OTHER_7            .         Режим_ КСА-М1 + ГГП + Резистивиметр: 
OTHER_8            .         Форма_ 223\2                  : 
OTHER_9            .         Тарировки_                    : 
PR                 .         КСА-Т7 М1                     : Тип прибора
PROJECT_UPGRADE_TIME .         2021-03-18T21_24_50           : 
PRTY               .         ПП-223_2                      : Номер партии
SRV                .         ЦКРС                          : Заказчик
SRVC               .         Лузин  А.Б.                   : Начальник партии
TLFamily_DEPT      .         Measured Depth                : 
TLFamily_LM        .         Casing Collar locator         : 
TLFamily_MN        .                                       : 
TLFamily_SPID      .         Spontaneous Potential         : 
TLFamily_TM        .         Temperature                   : 
group              .         second                        : 
~Curve Information
#_______________________________________________________________________________
#
#LOGNAME           .UNIT     LOG_ID                        : DESCRIPTION
#_______________________________________________________________________________
DEPT               .M                                      : Depth curve 
LM                 .е.ацп                                  : Локация муфт 
MN                 .атм                                    : Манометрия, атм 
SPID               .м/ч                                    : Скорость записи,м/час 
TM                 .град.С                                 : Термометрия,град.С 
~Ascii
# ...
2729.800043 412        250.02     -260       46.1      
2730.000044 181.001    250.04     -300       46.11     
2730.200044 510        250.05     -320       46.11     
2730.400044 658        250.03     -320       46.11     
2730.600044 623.999    250.11     -260       46.11     
2730.800045 150        250.09     -260       46.11     
2731.000045 172        250.11     -260       46.1      
2731.200045 131        250.16     -260       46.08     
2731.400046 153        250.09     -190       46.05     
2731.600046 190        250.18     -300       46.05     
2731.800046 145        250.26     -253       46.05     
2732.000046 134        250.12     -280       46.05     
2732.200047 149        250.17     -260       46.05     
2732.400047 107        250.19     -260       46.05     
2732.600047 98         250.21     -260       46.05     
2732.800048 274        250.22     -260       46.07     
2733.000048 123        250.22     -260       46.09     
2733.200048 124        250.26     -260       46.11     
2733.400049 106        250.25     -260       46.12     
2733.600049 300.001    250.28     -280       46.13     
2733.800049 691.999    250.3      -260       46.15     
2734.000049 119        250.33     -260       46.17     
2734.20005 272        250.34     -190       46.2      
2734.40005 267        250.34     -260       46.23     
2734.60005 143        250.34     -260       46.24     
2734.800051 142        250.35     -260       46.27     
2735.000051 143.002    250.38     -260       46.3      
2735.200051 846.009    250.41     -260       46.34     
2735.400052 4536.989   250.43     -260       46.4      
2735.600052 149        250.44     -213       46.41     
2735.800052 171        250.45     -232       46.43     
2736.000053 171        250.47     -260       46.44     
2736.200053 165        250.47     -260       46.48     
2736.400053 195        250.5      -260       46.53     
2736.600053 169        250.51     -260       46.58     
2736.800054 167        250.54     -260       46.62     
2737.000054 140        250.55     -260       46.67     
2737.200054 155        250.59     -213       46.79     
2737.400055 156        250.59     -260       46.84     
2737.600055 162        250.61     -260       46.89     
2737.800055 184        250.63     -320       46.9      
2738.000056 195        250.61     -260       46.95     
2738.200056 158        250.66     -260       47.05     
2738.400056 165        250.7      -260       47.13     
2738.600056 143        250.69     -260       47.18     
2738.800057 166        250.71     -260       47.27     
2739.000057 169        250.75     -260       47.41     
2739.200057 180        250.73     -260       47.52     
2739.400058 181        250.78     -280       47.53     
2739.600058 165        250.79     -260       47.59     
2739.800058 164        250.82     -260       47.7      
2740.000058 163        250.83     -260       47.78     
2740.200059 200        250.83     -260       47.84     
2740.400059 198        250.87     -260       47.9      
2740.600059 230        250.85     -190       47.93     
2740.80006 198        250.88     -260       47.94     
2741.00006 157        250.9      -260       47.99     
2741.20006 181        250.89     -320       48.08     
2741.400061 231        250.95     -320       48.13     
2741.600061 197        250.95     -260       48.13     
2741.800061 206        250.99     -260       48.19     
2742.000061 149        250.97     -260       48.21     
2742.200062 191        250.98     -260       48.24     
2742.400062 231        251.05     -260       48.37     
2742.600062 184        251.03     -260       48.49     
2742.800063 153        251.06     -260       48.51     
2743.000063 173        251.08     -260       48.55     
2743.200063 201        251.12     -260       48.65     
2743.400064 212        251.12     -260       48.84     
2743.600064 156        251.12     -260       48.9      
2743.800064 169        251.16     -260       48.96     
2744.000065 203        251.16     -260       49.01     
2744.200065 230        251.21     -223       49.14     
2744.400065 159        251.21     -260       49.22     
2744.600065 196        251.23     -260       49.26     
2744.800066 211        251.26     -260       49.33     
2745.000066 161        251.29     -260       49.49     
2745.200066 200        251.3      -260       49.59     
2745.400067 210        251.31     -260       49.64     
2745.600067 177        251.31     -213       49.71     
2745.800067 266        251.37     -260       49.88     
2746.000068 253        251.37     -260       49.94     
2746.200068 139.005    251.38     -300       49.98     
2746.400068 1538.015   251.43     -277       50.1      
2746.600068 5995.98    251.45     -260       50.26     
2746.800069 225        251.49     -260       50.33     
2747.000069 203        251.49     -260       50.43     
2747.200069 171        251.52     -260       50.58     
2747.40007 203        251.53     -260       50.59     
2747.60007 162        251.55     -260       50.66     
2747.80007 186        251.57     -260       50.74     
2748.000071 197        251.61     -280       50.88     
2748.200071 161        251.62     -260       51.11     
2748.400071 233        251.65     -260       51.16     
2748.600071 193        251.67     -260       51.32     
2748.800072 194        251.73     -237       51.41     
2749.000072 146        251.75     -260       51.67     
2749.200072 220.012    251.8      -260       51.76     
2749.400073 3520.988   251.82     -260       51.99     
2749.600073 324        251.84     -260       52.16     
2749.800073 201        251.87     -260       52.26     
2750.000073 221        251.87     -260       52.34     
2750.200074 182        251.91     -260       52.43     
2750.400074 189        251.93     -260       52.56     
2750.600074 190        251.97     -190       52.62     
2750.800075 251        252.01     -260       52.79     
2751.000075 195        252.02     -260       52.83     
2751.200075 207.001    252.04     -260       52.94     
2751.400076 421.012    252.08     -260       53.06     
2751.600076 3618.987   252.09     -260       53.2      
2751.800076 211        252.15     -260       53.43     
2752.000076 205        252.2      -213       53.52     
2752.200077 210        252.23     -190       53.73     
2752.400077 219        252.26     -320       53.95     
2752.600077 198        252.28     -320       54.03     
2752.800078 203        252.35     -300       54.15     
2753.000078 242        252.38     -260       54.28     
2753.200078 221        252.46     -260       54.41     
2753.400079 201        252.5      -260       54.76     
2753.600079 237        252.52     -233       54.88     
2753.800079 261        252.59     -260       55.07     
2754.00008 239        252.64     -260       55.22     
2754.20008 211        252.66     -260       55.39     
2754.40008 199        252.72     -260       55.56     
2754.60008 186        252.74     -190       55.82     
2754.800081 179        252.81     -260       56.02     
2755.000081 200.001    252.86     -260       56.18     
2755.200081 336.008    252.89     -260       56.34     
2755.400082 2399.991   252.94     -260       56.49     
2755.600082 208        252.96     -280       56.57     
2755.800082 205        252.99     -260       56.63     
2756.000083 199        253.03     -237       56.7      
2756.200083 215.001    253.11     -260       56.88     
2756.400083 390.013    253.15     -260       57.14     
2756.600083 3583.991   253.18     -260       57.24     
2756.800084 1404.997   253.25     -320       57.44     
2757.000084 712.008    253.29     -260       57.61     
2757.200084 2562.992   253.33     -260       57.68     
2757.400085 750.009    253.39     -260       57.77     
2757.600085 2863.013   253.44     -260       57.93     
2757.800085 5975.977   253.51     -260       58.08     
2758.000085 588.999    253.54     -260       58.27     
2758.200086 360.014    253.58     -260       58.38     
2758.400086 3739.987   253.67     -280       58.49     
