~Version
 VERS              .         2.0                           : CWLS LOG ASCII STANDARD - VERSION 2.0
 WRAP              .         NO                            : ONE LINE PER DEPTH STEP
 DLM               .         SPACE                         : DELIMITING CHARACTER(SPACE TAB OR COMMA)
~Well Information
#_______________________________________________________________________________
#
#PARAMETER_NAME    .UNIT     VALUE                         : DESCRIPTION
#_______________________________________________________________________________
STRT               .M        2656                          : First reference value
STOP               .M        2756.3999                     : Last reference value
STEP               .M        0.1999998                     : Step increment
NULL               .         -9999                         : Missing value
COMP               .                                       : Company
WELL               .         616                           : Well name
FLD                .                                       : Field
LOC                .                                       : Location
CNTY               .                                       : County
STAT               .                                       : State
CTRY               .                                       : Country
SRVC               .                                       : Service Company
DATE               .                                       : Date
API                .                                       : API number
PROJECT_UPGRADE_TIME .         2021-03-18T21_24_50           : 
group              .         Good                          : 
~Parameter Information Block
#_______________________________________________________________________________
#
#PARAMETER_NAME    .UNIT     VALUE                         : DESCRIPTION
#_______________________________________________________________________________
SET                .         D4404_D                       : 
OTHER              .         Запись производится в присутствии: 
OTHER_10           .         Максимальная температура      : 
OTHER_11           .         Тип промывочной жидкости      : 
OTHER_12           .         Сопротивление ПЖ (Ом*м) при 20°C: 
OTHER_13           .         Плотность ПЖ(г/см3)           : 
OTHER_14           .         Вязкость ПЖ(с)                : 
OTHER_15           .         Водоотдача ПЖ(см3/30мин)      : 
OTHER_16           .         Уровень ПЖ                    : 
OTHER_17           .         Нефть ПЖ (%)                  : 
OTHER_18           .         Барит ПЖ (%)                  : 
OTHER_19           .         Гематит ПЖ (%)                : 
OTHER_2            .         Заказчик ННСН  ЦДНГ-1         : 
OTHER_20           .         КМЦ ПЖ (%)                    : 
OTHER_21           .         Разгазирование ПЖ (да,нет)    : 
OTHER_22           .         Подъемник                     : 
OTHER_23           .         Лаборатория                   : 
OTHER_24           .         Тип кабеля                    : 
OTHER_25           .         Длина кабеля (м)              : 
OTHER_26           .         Цена последней метки          : 
OTHER_27           .         Цена контрольной метки        : 
OTHER_28           .         Диаметр долота (мм)           : 
OTHER_29           .         Глубина бурения (м)           : 
OTHER_3            .         Площадь                       : 
OTHER_30           .         Искусственный забой (м)       : 
OTHER_31           .         Диаметр колонны (мм)          : 
OTHER_32           .         Толщина колонны (мм)          : 
OTHER_33           .         Башмак колонны (м)            : 
OTHER_34           .         Диаметр НКТ (мм)              : 
OTHER_35           .         Толщина НКТ (мм)              : 
OTHER_36           .         Воронка НКТ (м)               : 
OTHER_37           .         Дата цементожа                : 
OTHER_38           .         Тип, количество(т) и плотность цемента: 
OTHER_39           .         Интервалы перфорации (м)      : 
OTHER_4            .         Категория                     : 
OTHER_40           .         Направление, диаметр (мм)     : 
OTHER_41           .         Направление, глубина (м)      : 
OTHER_42           .         Кондуктор, диаметр (мм)       : 
OTHER_43           .         Кондуктор, глубина (м)        : 
OTHER_44           .         Техническая колонна, диаметр (мм): 
OTHER_45           .         Техническая колонна, глубина (м): 
OTHER_46           .         Эксплуатационная колонна, диаметр (мм): 
OTHER_47           .         Эксплуатационная колонна, глубина (м): 
OTHER_48           .         Программа Кедр-02 версия 3.4  : 
OTHER_49           .         Операционная система Windows NT 5.1 build 2600 Service Pack 2: 
OTHER_5            .         Назначение исследований       : 
OTHER_50           .         Программное обеспечение станции MONITOR-386EX 25/12/99 15_08_10   BGF V54 20/09/05 15_32_17   3.3__BGF_9030071: 
OTHER_51           .         Kedr.exe версия 3.4.2.74      : 
OTHER_52           .         KedrData.dll версия 3.4.2.29  : 
OTHER_53           .         Мнемоники версия 3.18 S       : 
OTHER_54           .         Драйвер версия 2.1.1.4        : 
OTHER_55           .         LasInf.dll 4.3.0.35           : 
OTHER_56           .         Прибор_ КСА-Т4                : 
OTHER_57           .         Номер прибора_ 160            : 
OTHER_58           .         Режим_ КСА-Т4                 : 
OTHER_59           .         Форма_ С.А.Б.                 : 
OTHER_6            .         Альтитуда стола ротора        : 
OTHER_60           .         Тарировки_                    : 
OTHER_61           .         <_techsia_sc_> Дата тарировки температуры 25.05.2010: 
OTHER_62           .         Ручной ввод коэффициентов     : 
OTHER_63           .         TM.DEGC = 0.00402*RTM.E.ACP + -0.994: 
OTHER_64           .         <_techsia_sc_> Дата тарировки давления 25.05.2010: 
OTHER_65           .         Ручной ввод коэффициентов     : 
OTHER_66           .         MN.ATM = (2.27521e-006*TM.DEGC + 0.02078)*(RMN.E.ACP + 6.2*TM.DEGC + -1688): 
OTHER_67           .         <_techsia_sc_> Дата тарировки ГК 25.05.2010: 
OTHER_68           .         Ручной ввод коэффициентов     : 
OTHER_69           .         GR.UR/H = RGR.IMP/MIN / 45.5144: 
OTHER_7            .         Вид исследований 3  6         : 
OTHER_70           .         GK.FLT = 0.1*GR.UR/H[-1] + (1-0.1)*GR.UR/H[0]: 
OTHER_8            .         Начало бурения интервала каротажа: 
OTHER_9            .         Окончание бурения интервала каротажа: 
PROJECT_UPGRADE_TIME .         2021-03-18T21_24_50           : 
TLFamily_CCLC      .                                       : 
TLFamily_DEPT      .         Measured Depth                : 
TLFamily_GK        .         Gamma Ray                     : 
TLFamily_GR        .         Gamma Ray                     : 
TLFamily_METKA     .                                       : 
TLFamily_MN        .                                       : 
TLFamily_RCOR      .                                       : 
TLFamily_RGR       .                                       : 
TLFamily_RMN       .                                       : 
TLFamily_RTEN      .                                       : 
TLFamily_RTM       .                                       : 
TLFamily_SPEE      .         Cable Speed                   : 
TLFamily_TIME      .         Time                          : 
TLFamily_TM        .         Temperature                   : 
group              .         prim                          : 
~Curve Information
#_______________________________________________________________________________
#
#LOGNAME           .UNIT     LOG_ID                        : DESCRIPTION
#_______________________________________________________________________________
DEPT               .M                                      : 1 Глубина, м -    0.0 см 
CCLC               .E.ACP                                  : 9 Локатор муфт,  -   20.0 см 
GK                 .FLT                                    : 14 Гамма-активность фильтрованная, мкр./ч -  110.0 см 
GR                 .UR/H                                   : 13 Гамма-активность, мкр./ч -  110.0 см 
METKA              .CU                                     : 3 Метки,  -    0.0 см 
MN                 .ATM                                    : 12 Давление, атм. -  160.0 см 
RCOR               .CM/KM                                  : 5 Коррекция по ролику, см/км -    0.0 см 
RGR                .IMP/MIN                                : 10 Гамма-активность, усл.ед. -  110.0 см 
RMN                .E.ACP                                  : 8 Давление, усл.ед. -  160.0 см 
RTEN               .T                                      : 6 Натяжение кабеля, т -    0.0 см 
RTM                .E.ACP                                  : 7 Температура, усл.ед. -  170.0 см 
SPEE               .M/H                                    : 2 Скорость, м/час -    0.0 см 
TIME               .S                                      : 4 Время, сек -    0.0 см 
TM                 .DEGC                                   : 11 Температура, °C -  170.0 см 
~Ascii
# ...
2707.999948 113        9.97       9.97       0          242.758    -1112      454        12986      0.21       13050      563        323.13     51.469    
2708.199948 106        10.19      10.19      0          242.765    -1112      464        12987      0.21       13033      562        324.5      51.399    
2708.399948 69         10.19      10.19      0          242.77     -1112      464        12988      0.21       13006      561        325.75     51.289    
2708.599947 82         10.66      10.66      0          242.8      -1112      485        12990      0.21       12983      560        327.06     51.199    
2708.799947 87         10.85      10.85      0          242.81     -1112      494        12991      0.21       12966      561        328.3      51.129    
2708.999947 85         11.14      11.14      0          242.844    -1112      507        12993      0.21       12951      570        329.51     51.067    
2709.199947 80         11.27      11.27      0          242.86     -1112      513        12994      0.21       12940      576        330.75     51.025    
2709.399947 119        11.8       11.8       0          242.896    -1112      537        12996      0.21       12932      571        332.08     50.993    
2709.599946 76         11.63      11.63      0          242.922    -1112      529        12998      0.21       12923      568        333.35     50.958    
2709.799946 90         10.79      10.79      0          242.928    -1112      491        12998      0.21       12913      566        334.64     50.918    
2709.999946 73         10.42      10.42      0          242.961    -1112      474        13000      0.21       12903      564        335.95     50.877    
2710.199946 60         10.35      10.35      0          242.974    -1112      471        13001      0.21       12891      565        337.2      50.826    
2710.399946 97         10.48      10.48      0          243.012    -1112      477        13003      0.21       12883      574        338.39     50.797    
2710.599945 102        10.55      10.55      0          243.041    -1112      480        13005      0.21       12877      581        339.58     50.772    
2710.799945 109        10.88      10.88      0          243.064    -1112      495        13006      0.21       12872      584        340.85     50.753    
2710.999945 87         11.21      11.21      0          243.09     -1112      510        13007      0.21       12865      578        342.2      50.722    
2711.199945 95         11.97      11.97      0          243.119    -1112      545        13009      0.21       12856      572        343.45     50.687    
2711.399945 75         11.97      11.97      0          243.132    -1112      545        13010      0.21       12844      569        344.72     50.639    
2711.599944 48         11.33      11.33      0          243.161    -1112      516        13012      0.21       12832      566        346.03     50.593    
2711.799944 73         11.07      11.07      0          243.187    -1112      504        13013      0.21       12827      564        347.34     50.572    
2711.999944 119        10.15      10.15      0          243.228    -1112      462        13015      0.21       12822      563        348.66     50.549    
2712.199944 61         9.69       9.69       0          243.241    -1112      441        13016      0.21       12816      562        349.97     50.525    
2712.399944 47         9.84       9.84       0          243.27     -1112      448        13018      0.21       12806      562        351.22     50.486    
2712.599943 70         9.84       9.84       0          243.293    -1112      448        13019      0.21       12798      562        352.52     50.453    
2712.799943 94         12.61      12.61      0          243.323    -1112      574        13021      0.21       12790      563        353.84     50.422    
2712.999943 79         12.61      12.61      0          243.347    -1112      574        13022      0.21       12784      562        355.09     50.396    
2713.199943 54         13.14      13.14      0          243.374    -1112      598        13024      0.21       12776      561        356.41     50.367    
2713.399943 106        13.14      13.14      0          243.401    -1112      598        13025      0.21       12771      560        357.66     50.346    
2713.599942 166        12.15      12.15      0          243.431    -1112      553        13027      0.21       12766      561        358.97     50.325    
2713.799942 113        12.15      12.15      0          243.461    -1112      553        13028      0.21       12764      561        360.29     50.316    
2713.999942 98         13.89      13.89      0          243.483    -1112      632        13029      0.21       12758      561        361.53     50.293    
2714.199942 84         13.89      13.89      0          243.511    -1112      632        13031      0.21       12752      562        362.86     50.269    
2714.399942 2966       12.39      12.39      0          243.541    -1112      564        13032      0.21       12748      562        364.16     50.253    
2714.599941 2039       12.39      12.39      0          243.564    -1112      564        13034      0.21       12742      562        365.42     50.229    
2714.799941 391        8.39       8.39       0          243.588    -1112      382        13035      0.21       12735      572        366.6      50.199    
2714.999941 151        8.39       8.39       0          243.616    -1112      382        13037      0.21       12729      583        367.77     50.178    
2715.199941 103        7.78       7.78       0          243.644    -1112      354        13038      0.21       12724      582        369.05     50.155    
2715.399941 75         7.78       7.78       0          243.675    -1112      354        13040      0.21       12721      583        370.31     50.144    
2715.59994 64         8.06       8.06       0          243.7      -1112      367        13041      0.21       12719      581        371.56     50.136    
2715.79994 48         8.06       8.06       0          243.729    -1112      367        13042      0.21       12714      580        372.8      50.116    
2715.99994 45         8.52       8.52       2          243.757    -1109      388        13044      0.21       12711      580        373.88     50.104    
2716.19994 58         8.52       8.52       0          243.779    -1108      388        13045      0.21       12706      579        375.05     50.082    
2716.39994 77         12.22      12.22      0          243.818    -1108      556        13047      0.21       12701      580        376.3      50.063    
2716.599939 116        12.22      12.22      0          243.824    -1108      556        13047      0.21       12697      582        377.54     50.049    
2716.799939 166        13.86      13.86      0          243.851    -1108      631        13049      0.21       12692      581        378.75     50.028    
2716.999939 130        13.86      13.86      0          243.895    -1108      631        13051      0.21       12689      581        380        50.018    
2717.199939 92         10.96      10.96      0          243.902    -1108      499        13052      0.21       12685      582        381.29     50.001    
2717.399939 107        10.96      10.96      0          243.927    -1108      499        13053      0.21       12681      581        382.52     49.984    
2717.599938 82         9.71       9.71       0          243.951    -1108      442        13054      0.21       12678      581        383.77     49.972    
2717.799938 104        9.71       9.71       0          243.988    -1108      442        13056      0.21       12677      582        384.97     49.968    
2717.999938 91         9.65       9.65       0          244.01     -1108      439        13057      0.21       12674      582        386.3      49.955    
2718.199938 78         9.65       9.65       0          244.037    -1108      439        13058      0.21       12670      581        387.52     49.94     
