~Version
 VERS              .         2.0                           : CWLS LOG ASCII STANDARD - VERSION 2.0
 WRAP              .         NO                            : ONE LINE PER DEPTH STEP
 DLM               .         SPACE                         : DELIMITING CHARACTER(SPACE TAB OR COMMA)
~Well Information
#_______________________________________________________________________________
#
#PARAMETER_NAME    .UNIT     VALUE                         : DESCRIPTION
#_______________________________________________________________________________
STRT               .M        209.2                         : First reference value
STOP               .M        612.6                         : Last reference value
STEP               .M        0.2                           : Step increment
NULL               .         -9999                         : Missing value
COMP               .                                       : Company
WELL               .         616                           : Well name
FLD                .                                       : Field
LOC                .                                       : Location
CNTY               .                                       : County
STAT               .                                       : State
CTRY               .                                       : Country
SRVC               .                                       : Service Company
DATE               .                                       : Date
API                .                                       : API number
PROJECT_UPGRADE_TIME .         2021-03-18T21_24_50           : 
group              .         Good                          : 
~Parameter Information Block
#_______________________________________________________________________________
#
#PARAMETER_NAME    .UNIT     VALUE                         : DESCRIPTION
#_______________________________________________________________________________
SET                .         616_3                         : 
CONF               .         00                            : 
END                .         0                             : 
ERR                .         0                             : 
GS00               .M        0610.64                       : 
GS01               .M        0206.79                       : 
MM00               .M        0060.00                       : 
NOKG               .         1                             : 
NPR                .         980119                        : 
PART               .         Палагутин                     : 
PROJECT_UPGRADE_TIME .         2021-03-18T21_24_49           : 
PRZK               .         Шакиров                       : 
TLFamily_AZIMUTH   .         True Dip Azimuth              : 
TLFamily_DEPTH     .         Measured Depth                : 
TLFamily_METKA     .                                       : 
TLFamily_ROLL      .                                       : 
TLFamily_SPEED     .         Spontaneous Potential         : 
TLFamily_ZENIT     .                                       : 
VPRG               .         310                           : 
WAY                .         UP                            : 
group              .         prim                          : 
~Curve Information
#_______________________________________________________________________________
#
#LOGNAME           .UNIT     LOG_ID                        : DESCRIPTION
#_______________________________________________________________________________
DEPTH              .M                                      :  
AZIMUTH            .DEG                                    :  
METKA              .                                       :  
ROLL               .DEG                                    :  
SPEED              .M/H                                    :  
ZENIT              .DEG                                    :  
~Ascii
# ...
477.6      262.65     0          141.9      612        25.28     
477.8      264.55     0          141.92     648        25.76     
478        262.38     0          143.11     684        25.32     
478.2      262.93     0          145.25     648        25.49     
478.4      264.43     0          148.09     684        26.19     
478.6      264.57     0          151.76     684        25.26     
478.8      261.56     0          154.07     612        25.26     
479        263.74     0          155.1      684        25.47     
479.2      262.25     0          154.64     684        25.14     
479.4      262.59     0          154.24     684        25.37     
479.6      264.7      0          154.04     648        25.43     
479.8      264.35     0          152.91     684        25.45     
480        263.27     0          152.5      684        25.55     
480.2      262.88     0          152.56     684        25.47     
480.4      262.9      0          152.61     648        25.44     
480.6      264.11     0          152.38     648        25.64     
480.8      263.85     0          151.45     684        25.49     
481        263.06     0          150.06     648        25.4      
481.2      263.29     0          149.02     684        25.46     
481.4      263.45     0          149.26     648        25.71     
481.6      262.53     0          149.93     648        25.42     
481.8      262.98     0          150.23     684        25.56     
482        263.06     0          151.42     684        25.6      
482.2      262.23     1          153.13     648        25.35     
482.4      263.33     0          153.55     648        25.53     
482.6      262.94     0          153.12     648        25.45     
482.8      261.55     0          152.34     648        25.21     
483        263.96     0          151.64     684        25.79     
483.2      262.54     0          151.91     684        25.48     
483.4      262.28     0          152.68     612        25.41     
483.6      263.39     0          153.25     684        25.67     
483.8      262.57     0          153        684        25.42     
484        263.03     0          152.27     684        25.54     
484.2      263.48     0          151.7      648        25.71     
484.4      261.62     0          151.08     648        25.37     
484.6      262.81     0          150.12     684        25.62     
484.8      262.23     0          149.28     684        25.46     
485        261.89     0          148.94     684        25.43     
485.2      263.89     0          149.06     684        25.87     
485.4      262.69     0          149.44     684        25.62     
485.6      262.2      0          150.07     684        25.45     
485.8      264.68     0          149.99     684        25.89     
486        263.21     0          149.51     648        25.48     
486.2      264.01     0          147.93     684        25.54     
486.4      264.02     0          146.73     648        25.75     
486.6      262.77     0          147.18     648        25.49     
486.8      264.29     0          147.92     684        25.67     
487        265.78     0          148.61     648        25.77     
487.2      266.85     0          149.48     720        25.63     
487.4      271.24     0          150.06     684        25.67     
487.6      287.5      0          149.86     612        25.73     
487.8      336.65     0          148.95     612        25.58     
488        188.03     0          147.81     684        25.68     
488.2      205.67     0          146.65     648        25.6      
488.4      341.48     0          145.7      684        25.67     
488.6      288.93     0          145.14     648        25.84     
488.8      271.41     0          144.61     648        25.74     
489        266.52     0          143.24     684        25.59     
489.2      263.94     0          140.75     684        25.51     
489.4      261.94     0          139.09     612        25.45     
489.6      261.5      0          139.15     684        25.22     
489.8      262.85     0          139.37     720        25.45     
490        261.4      0          139.28     648        25.16     
490.2      261.84     0          140.2      684        25.38     
490.4      259.59     0          143.54     648        25.13     
490.6      261.57     0          146.52     684        25.34     
490.8      261.15     0          148.72     684        25.25     
491        263.17     0          149.78     648        25.52     
491.2      262.41     0          150.02     684        25.17     
491.4      262.64     0          150.1      612        25.34     
491.6      263.46     0          150.58     684        25.57     
491.8      263.24     0          150.72     684        25.32     
492        264        0          151.08     684        25.57     
492.2      262.84     1          151.88     648        25.54     
492.4      262.03     0          151.93     648        25.35     
492.6      262.73     0          152.53     648        25.85     
492.8      262.17     0          153.85     684        25.51     
493        261.18     0          153.92     684        25.3      
493.2      263.64     0          153.32     612        25.81     
493.4      262.2      0          151.85     612        25.44     
493.6      262.1      0          150.72     684        25.57     
493.8      262.45     0          150.83     684        25.68     
494        262.29     0          151.33     684        25.52     
494.2      262.48     0          152.93     684        25.64     
494.4      262.92     0          154.82     648        25.53     
494.6      263.05     0          155.28     648        25.53     
494.8      263.22     0          154.72     684        25.53     
495        263.17     0          153.65     684        25.63     
495.2      260.19     0          153.28     648        25.11     
495.4      260.92     0          154.1      648        25.33     
495.6      262.16     0          154.47     648        25.52     
495.8      261.7      0          155.57     684        25.44     
496        262.04     0          156.81     684        25.45     
496.2      262.57     0          156.77     648        25.5      
496.4      262.09     0          155.57     684        25.42     
496.6      262.45     0          153.94     648        25.51     
496.8      261.29     0          152.81     648        25.34     
497        260.97     0          152.28     720        25.22     
497.2      261.77     0          151.89     684        25.4      
497.4      261.41     0          151.1      612        25.33     
497.6      260.38     0          150.49     684        25.05     
497.8      263.18     0          150.3      648        25.64     
498        261.95     0          150.48     684        25.35     
498.2      261.73     0          151.09     648        25.31     
498.4      263.14     0          151.73     684        25.61     
498.6      261.53     0          152.26     648        25.26     
498.8      262.87     0          152.79     684        25.51     
499        263.04     0          153.61     612        25.55     
499.2      262.17     0          154.63     684        25.24     
499.4      266.56     0          155.48     648        25.8      
499.6      270        0          155.63     684        25.65     
499.8      283.26     0          155.47     720        25.56     
500        330.8      0          155.26     648        25.77     
500.2      179.99     0          154.96     684        25.51     
500.4      171.29     0          154.41     648        25.28     
500.6      310.88     0          153.78     684        25.83     
500.8      280.38     0          153.98     684        25.59     
501        268.49     0          155.05     648        25.65     
501.2      265.33     0          155.75     684        25.76     
501.4      263.31     0          154.54     612        25.56     
501.6      262.16     0          153.31     684        25.5      
501.8      261.87     0          152.44     684        25.35     
