~Version
 VERS              .         2.0                           : CWLS LOG ASCII STANDARD - VERSION 2.0
 WRAP              .         NO                            : ONE LINE PER DEPTH STEP
 DLM               .         SPACE                         : DELIMITING CHARACTER(SPACE TAB OR COMMA)
~Well Information
#_______________________________________________________________________________
#
#PARAMETER_NAME    .UNIT     VALUE                         : DESCRIPTION
#_______________________________________________________________________________
STRT               .M        0.2                           : First reference value
STOP               .M        2774.2                        : Last reference value
STEP               .M        0.2                           : Step increment
NULL               .         -9999                         : Missing value
COMP               .                                       : Company
WELL               .         616                           : Well name
FLD                .                                       : Field
LOC                .                                       : Location
CNTY               .                                       : County
STAT               .                                       : State
CTRY               .                                       : Country
SRVC               .                                       : Service Company
DATE               .                                       : Date
API                .                                       : API number
PROJECT_UPGRADE_TIME .         2021-03-18T21_24_50           : 
group              .         Good                          : 
~Parameter Information Block
#_______________________________________________________________________________
#
#PARAMETER_NAME    .UNIT     VALUE                         : DESCRIPTION
#_______________________________________________________________________________
SET                .         D1799_D_2                     : 
NPR                .                                       : 
OTHER              .         Программное обеспечение станции MONITOR-386EX 25/12/99 15_08_10   BGF V52 22/08/01 16_56_30   3.1_SNGF___BGF_N_092049: 
OTHER_10           .         Тарировки_                    : 
OTHER_11           .         TM.GRD = 0.00403*TM$.UE + -1.07: 
OTHER_12           .         MN.ATM = (9.34907e-006*TM.GRD + 0.02171)*(MN$.UE + -7.93*TM.GRD + -1787): 
OTHER_13           .         GK.MKR/H = LM. / 42.4676      : 
OTHER_14           .         GK.FLT = 0.1*GK.MKR/H[-1] + (1-0.1)*GK.MKR/H[0]: 
OTHER_2            .         Kedr.exe версия 3.4.2.51      : 
OTHER_3            .         KedrData.dll версия 3.4.2.24  : 
OTHER_4            .         Драйвер версия 2.1.1.3        : 
OTHER_5            .         Мнемоники версия 3.3 S        : 
OTHER_6            .         Прибор_ КСА-Т4                : 
OTHER_7            .         Номер прибора_ 03             : 
OTHER_8            .         Режим_ КСА-Т4                 : 
OTHER_9            .         Форма_ КВА.                   : 
PR                 .                                       : 
PROJECT_UPGRADE_TIME .         2021-03-18T21_24_49           : 
PRTY               .         ПП-603-1                      : N партии
SRV                .                                       : 
SRVC               .         Карпов                        : Начальник партии
TLFamily_DEPT      .         Measured Depth                : 
TLFamily_LM        .         Casing Collar locator         : 
TLFamily_MN        .                                       : 
TLFamily_TM        .         Temperature                   : 
group              .         second                        : 
~Curve Information
#_______________________________________________________________________________
#
#LOGNAME           .UNIT     LOG_ID                        : DESCRIPTION
#_______________________________________________________________________________
DEPT               .M                                      : Depth curve 
LM                 .е.ацп                                  : Локатор муфт,е.ацп 
MN                 .атм                                    : Манометрия, атм 
TM                 .град.C                                 : Термограмма по стволу скважины,град.C 
~Ascii
# ...
2002.2     585        178.668    55.492    
2002.4     585.001    178.673    55.496    
2002.6     593.997    178.705    55.498    
2002.8     571.001    178.733    55.496    
2003       577.001    178.74     55.499    
2003.2     582.994    178.752    55.499    
2003.4     542.996    178.773    55.503    
2003.6     517.004    178.795    55.503    
2003.8     545.996    178.816    55.503    
2004       518.001    178.828    55.507    
2004.2     525.005    178.846    55.511    
2004.4     556.012    178.879    55.511    
2004.6     634.577    178.9      55.511    
2004.8     4496.144   178.916    55.514    
2005       5460.703   178.922    55.515    
2005.2     3472.818   178.943    55.515    
2005.4     2256.892   178.962    55.518    
2005.6     1536.934   178.985    55.519    
2005.8     1093.96    179.007    55.519    
2006       826.98     179.026    55.521    
2006.2     691.989    179.026    55.523    
2006.4     619.99     179.066    55.525    
2006.6     556        179.07     55.529    
2006.8     558.995    179.088    55.531    
2007       528        179.109    55.531    
2007.2     528.005    179.13     55.531    
2007.4     559.994    179.152    55.532    
2007.6     517.997    179.172    55.536    
2007.8     496.007    179.194    55.539    
2008       543.997    179.215    55.539    
2008.2     526.003    179.236    55.54     
2008.4     546        179.257    55.543    
2008.6     546        179.269    55.543    
2008.8     543.002    179.278    55.547    
2009       558.998    179.299    55.547    
2009.2     543.005    179.321    55.551    
2009.4     574.992    179.341    55.551    
2009.6     524.005    179.362    55.555    
2009.8     559.994    179.384    55.556    
2010       519.001    179.401    55.558    
2010.2     524.002    179.405    55.56     
2010.4     540.002    179.445    55.56     
2010.6     554.001    179.468    55.56     
2010.8     558        179.489    55.562    
2011       559.998    179.489    55.564    
2011.2     546        179.508    55.565    
2011.4     545        179.531    55.568    
2011.6     548        179.551    55.568    
2011.8     547.997    179.573    55.569    
2012       524.999    179.592    55.573    
2012.2     515.006    179.599    55.576    
2012.4     553.994    179.614    55.576    
2012.6     516.004    179.647    55.58     
2012.8     544.022    179.665    55.58     
2013       689.991    179.677    55.58     
2013.2     631.999    179.698    55.58     
2013.4     623.004    179.719    55.584    
2013.6     652.994    179.74     55.584    
2013.8     610.993    179.76     55.587    
2014       562.007    179.783    55.591    
2014.2     606.999    179.805    55.592    
2014.4     600.993    179.825    55.592    
2014.6     552.005    179.842    55.595    
2014.8     581.993    179.845    55.596    
2015       538.016    179.866    55.598    
2015.2     643.995    179.887    55.602    
2015.4     608.009    179.909    55.604    
2015.6     669.738    179.931    55.604    
2015.8     5583.693   179.951    55.606    
2016       3538.827   179.971    55.61     
2016.2     2383.932   179.993    55.612    
2016.4     1931.941   179.996    55.612    
2016.6     1537       180.031    55.613    
2016.8     1536.961   180.04     55.616    
2017       1280.003   180.056    55.617    
2017.2     1302.993   180.077    55.62     
2017.4     1256.984   180.098    55.62     
2017.6     1147.986   180.119    55.62     
2017.8     1051.975   180.14     55.624    
2018       885.977    180.162    55.624    
2018.2     733.018    180.182    55.624    
2018.4     856.003    180.194    55.628    
2018.6     873        180.211    55.628    
2018.8     871.99     180.238    55.632    
2019       805.998    180.245    55.636    
2019.2     790.99     180.266    55.636    
2019.4     725.019    180.289    55.627    
2019.6     850.006    180.309    55.636    
2019.8     892.987    180.329    55.643    
2020       808        180.351    55.644    
2020.2     806.012    180.37     55.647    
2020.4     884.991    180.373    55.648    
2020.6     822.979    180.398    55.651    
2020.8     681.989    180.436    55.652    
2021       611.995    180.437    55.654    
2021.2     576.995    180.458    55.656    
2021.4     545.997    180.478    55.656    
2021.6     524.999    180.5      55.658    
2021.8     521.013    180.523    55.66     
2022       606        180.543    55.66     
2022.2     605.997    180.564    55.66     
2022.4     587.993    180.585    55.661    
2022.6     540.003    180.606    55.664    
2022.8     558.003    180.613    55.664    
2023       575.002    180.641    55.664    
2023.2     590.996    180.619    55.665    
2023.4     566.999    180.637    55.668    
2023.6     560.999    180.689    55.668    
2023.8     556.998    180.711    55.672    
2024       541        180.732    55.672    
2024.2     543.005    180.753    55.676    
2024.4     572.994    180.776    55.676    
2024.6     531.005    180.796    55.676    
2024.8     566.997    180.817    55.676    
2025       549        180.833    55.679    
2025.2     546.996    180.837    55.68     
2025.4     521.997    180.859    55.683    
2025.6     499.996    180.88     55.684    
2025.8     474.997    180.9      55.687    
2026       455.002    180.923    55.689    
2026.2     465.005    180.942    55.69     
2026.4     500.004    180.963    55.693    
2026.6     527.812    180.966    55.693    
2026.8     5902.667   180.984    55.694    
2027       3699       181.005    55.697    
2027.2     3698.8     181.027    55.697    
2027.4     2375.877   181.048    55.698    
2027.6     1558.935   181.069    55.701    
2027.8     1131.955   181.09     55.705    
2028       835.984    181.098    55.705    
2028.2     732.998    181.122    55.705    
2028.4     717.994    181.142    55.709    
2028.6     676.999    181.162    55.709    
2028.8     667.992    181.186    55.709    
2029       614.998    181.193    55.712    
2029.2     601.006    181.221    55.713    
2029.4     639.999    181.252    55.716    
2029.6     635.004    181.257    55.717    
2029.8     658.998    181.278    55.717    
2030       643.994    181.3      55.719    
2030.2     603.996    181.32     55.723    
2030.4     575.002    181.343    55.725    
2030.6     586.011    181.366    55.725    
2030.8     661.999    181.385    55.727    
2031       657.999    181.407    55.729    
2031.2     652.988    181.406    55.731    
2031.4     576.999    181.447    55.733    
2031.6     569.995    181.451    55.733    
2031.8     535.001    181.469    55.733    
2032       540        181.49     55.734    
2032.2     540        181.512    55.738    
2032.4     540.011    181.533    55.741    
2032.6     610.998    181.539    55.741    
2032.8     600.992    181.565    55.741    
2033       549.996    181.583    55.745    
2033.2     523.005    181.596    55.745    
2033.4     554.012    181.616    55.749    
2033.6     631.998    181.637    55.749    
2033.8     616.99     181.659    55.749    
2034       548.999    181.671    55.753    
2034.2     544        181.679    55.753    
2034.4     541.997    181.7      55.753    
2034.6     519.014    181.721    55.756    
2034.8     610.025    181.743    55.757    
2035       773.988    181.769    55.76     
2035.2     695.997    181.804    55.761    
2035.4     672.99     181.806    55.764    
2035.6     604.992    181.827    55.765    
2035.8     552.004    181.849    55.765    
2036       578.004    181.869    55.767    
2036.2     606.994    181.891    55.769    
2036.4     568.006    181.911    55.771    
2036.6     606.989    181.914    55.773    
2036.8     536.997    181.931    55.775    
2037       516        181.954    55.777    
2037.2     515.997    181.975    55.777    
2037.4     493        181.995    55.778    
2037.6     493.008    182.017    55.781    
2037.8     547.074    182.038    55.782    
2038       1034.193   182.059    55.785    
2038.2     8892.5     182.08     55.785    
2038.4     5600.695   182.101    55.785    
