~Version
 VERS              .         2.0                           : CWLS LOG ASCII STANDARD - VERSION 2.0
 WRAP              .         NO                            : ONE LINE PER DEPTH STEP
 DLM               .         SPACE                         : DELIMITING CHARACTER(SPACE TAB OR COMMA)
~Well Information
#_______________________________________________________________________________
#
#PARAMETER_NAME    .UNIT     VALUE                         : DESCRIPTION
#_______________________________________________________________________________
STRT               .M        827.6                         : First reference value
STOP               .M        1707.2                        : Last reference value
STEP               .M        0.2                           : Step increment
NULL               .         -9999                         : Missing value
COMP               .                                       : Company
WELL               .         616                           : Well name
FLD                .                                       : Field
LOC                .                                       : Location
CNTY               .                                       : County
STAT               .                                       : State
CTRY               .                                       : Country
SRVC               .                                       : Service Company
DATE               .                                       : Date
API                .                                       : API number
PROJECT_UPGRADE_TIME .         2021-03-18T21_24_50           : 
group              .         Good                          : 
~Parameter Information Block
#_______________________________________________________________________________
#
#PARAMETER_NAME    .UNIT     VALUE                         : DESCRIPTION
#_______________________________________________________________________________
SET                .         616_8                         : 
CONF               .         00                            : 
END                .         0                             : 
ERR                .         0                             : 
GS00               .M        1705.33                       : 
GS01               .M        0825.11                       : 
MM00               .M        0210.00                       : 
NOKG               .         0                             : 
NPR                .         980615                        : 
PART               .         Бутенко                       : 
PROJECT_UPGRADE_TIME .         2021-03-18T21_24_49           : 
PRZK               .         Шакиров                       : 
TLFamily_AZIMUTH   .         True Dip Azimuth              : 
TLFamily_DEPTH     .         Measured Depth                : 
TLFamily_METKA     .                                       : 
TLFamily_ROLL      .                                       : 
TLFamily_SPEED     .         Spontaneous Potential         : 
TLFamily_ZENIT     .                                       : 
VPRG               .         310                           : 
WAY                .         UP                            : 
group              .         prim                          : 
~Curve Information
#_______________________________________________________________________________
#
#LOGNAME           .UNIT     LOG_ID                        : DESCRIPTION
#_______________________________________________________________________________
DEPTH              .M                                      :  
AZIMUTH            .DEG                                    :  
METKA              .                                       :  
ROLL               .DEG                                    :  
SPEED              .M/H                                    :  
ZENIT              .DEG                                    :  
~Ascii
# ...
998.4      254.67     0          158.66     648        31.92     
998.6      253.07     0          158.47     684        31.58     
998.8      254.62     0          158.5      648        31.91     
999        252.17     0          158.55     648        31.31     
999.2      254.78     0          158.31     648        31.88     
999.4      253.6      0          158.02     684        31.41     
999.6      254.49     0          158.04     648        31.38     
999.8      259.48     0          158.15     648        31.97     
1000       264.59     0          157.55     648        31.62     
1000.2     290.29     0          157.55     684        31.59     
1000.4     289.33     0          157.66     612        31.87     
1000.6     196.56     0          158.04     648        31.69     
1000.8     134.87     1          158.34     684        32.16     
1001       60.61      0          158.31     828        31.63     
1001.2     327.71     0          158.23     684        31.89     
1001.4     271.46     0          158.79     648        32.23     
1001.6     257.33     0          160.72     648        31.75     
1001.8     245.11     0          171.68     648        32.14     
1002       255.7      0          187.28     684        31.58     
1002.2     251.77     1          194.29     684        30.91     
1002.4     255.12     0          196.5      648        31.63     
1002.6     254.22     0          199.7      648        31.35     
1002.8     254.82     0          202.8      612        31.69     
1003       253.28     0          205.23     648        31.4      
1003.2     253.23     0          206.3      684        31.38     
1003.4     254.4      0          206.51     684        31.65     
1003.6     253.07     0          206.58     648        31.32     
1003.8     254.86     0          206.28     648        31.84     
1004       252.88     0          205.59     684        31.41     
1004.2     254.23     0          204.94     648        31.73     
1004.4     254.63     0          203.9      648        31.89     
1004.6     252.12     0          204.42     648        31.4      
1004.8     254.55     0          206.41     648        31.88     
1005       253.22     0          206.94     648        31.66     
1005.2     253.91     0          206.43     648        31.81     
1005.4     254.17     0          205.42     648        31.85     
1005.6     252.33     0          204.02     684        31.45     
1005.8     252.87     0          202.7      684        32.16     
1006       250.19     0          202.23     648        31.37     
1006.2     254.11     0          203.3      648        31.76     
1006.4     253.88     0          205        648        31.9      
1006.6     251.99     0          206.06     648        31.45     
1006.8     254.25     0          205.91     648        31.89     
1007       253.79     0          205.58     684        31.76     
1007.2     252.76     0          205.44     612        31.54     
1007.4     253.79     0          205.35     648        31.83     
1007.6     251.93     0          205.36     648        31.52     
1007.8     255.49     0          205.35     684        32.27     
1008       252.1      0          205.56     648        31.51     
1008.2     255.62     0          206.04     684        32.03     
1008.4     254.21     0          206.64     648        31.85     
1008.6     253.18     0          206.84     648        31.54     
1008.8     254.02     0          206.73     648        31.87     
1009       253.39     0          206.49     648        31.74     
1009.2     253.45     0          206.16     684        31.72     
1009.4     254.12     0          206.16     612        31.88     
1009.6     251.99     0          206.55     648        31.41     
1009.8     255.08     0          206.58     648        32.06     
1010       253.06     0          206.43     684        31.58     
1010.2     253.22     0          206.31     648        31.65     
1010.4     254.83     0          206.53     684        31.98     
1010.6     252.93     0          206.94     648        31.47     
1010.8     253.96     0          207.24     648        31.74     
1011       253.65     0          207.16     648        31.63     
1011.2     253.45     0          206.77     684        31.63     
1011.4     255.43     0          206.4      648        32.02     
1011.6     254.73     0          206.28     612        31.63     
1011.8     258.48     0          205.9      684        32.2      
1012       257.38     0          204.91     648        31.49     
1012.2     266.13     1          203.57     648        31.95     
1012.4     295.76     0          202.77     648        32.4      
1012.6     305.74     0          202.93     648        31.68     
1012.8     195.46     0          203.11     684        32.18     
1013       220.96     0          203.31     648        32.07     
1013.2     303.34     0          202.98     684        32.27     
1013.4     289.07     0          202.4      648        32.31     
1013.6     263.84     0          204.1      648        31.87     
1013.8     260.54     0          206.95     648        32.5      
1014       255.11     0          208.07     612        31.99     
1014.2     254.35     0          207.44     648        32.01     
1014.4     255.75     0          206.31     648        32.2      
1014.6     252.58     0          205.37     648        31.36     
1014.8     254.97     0          204.11     648        31.96     
1015       252.81     0          202.81     684        31.63     
1015.2     253.48     0          203.72     648        31.6      
1015.4     254.58     0          206.06     684        31.87     
1015.6     252.58     0          207.1      648        31.65     
1015.8     254.13     0          208.65     648        32.04     
1016       256.18     0          208.86     684        31.71     
1016.2     252.3      0          208.51     648        31.21     
1016.4     256.04     0          208.43     648        32.26     
1016.6     252.12     0          207.1      648        31.43     
1016.8     251.71     0          208.24     648        32.21     
1017       253.04     0          207.61     648        31.86     
1017.2     253.29     0          206.58     684        31.89     
1017.4     253.36     0          206.12     648        31.88     
1017.6     253.23     0          204.07     684        31.58     
1017.8     253.49     0          201.25     648        31.94     
1018       252.38     0          201.9      648        31.77     
1018.2     253.43     0          205.44     648        31.54     
1018.4     255.47     0          206.96     648        32.38     
1018.6     253.63     0          207.44     648        31.85     
1018.8     254.35     0          207.24     648        32.06     
1019       252.85     0          206.69     648        31.64     
1019.2     253.27     0          206.23     684        31.73     
1019.4     253.75     0          205.57     648        31.91     
1019.6     252.33     0          204.96     648        31.55     
1019.8     254.12     0          205.01     684        32.11     
1020       253.56     0          205.26     648        31.95     
1020.2     252.22     0          204.64     684        31.49     
1020.4     254.61     0          204.82     612        32.12     
1020.6     251.86     0          205.58     648        31.55     
1020.8     253.57     0          206.07     648        31.95     
1021       253        0          206.77     648        31.75     
1021.2     253.59     0          207.15     684        31.85     
1021.4     254.07     0          207.29     648        31.9      
1021.6     252.92     0          207.54     648        31.66     
1021.8     254.38     0          207.15     648        31.98     
1022       253.19     0          206.53     684        31.67     
1022.2     253.79     1          206.24     684        31.81     
1022.4     254.6      0          206.13     684        32.09     
1022.6     251.4      0          206.31     612        31.43     
