~Version
 VERS              .         2.0                           : CWLS LOG ASCII STANDARD - VERSION 2.0
 WRAP              .         NO                            : ONE LINE PER DEPTH STEP
 DLM               .         SPACE                         : DELIMITING CHARACTER(SPACE TAB OR COMMA)
~Well Information
#_______________________________________________________________________________
#
#PARAMETER_NAME    .UNIT     VALUE                         : DESCRIPTION
#_______________________________________________________________________________
STRT               .M        44.8                          : First reference value
STOP               .M        2755.2                        : Last reference value
STEP               .M        0.2                           : Step increment
NULL               .         -9999                         : Missing value
COMP               .                                       : Company
WELL               .         616                           : Well name
FLD                .                                       : Field
LOC                .                                       : Location
CNTY               .                                       : County
STAT               .                                       : State
CTRY               .                                       : Country
SRVC               .                                       : Service Company
DATE               .                                       : Date
API                .                                       : API number
PROJECT_UPGRADE_TIME .         2021-03-18T21_24_50           : 
group              .         Good                          : 
~Parameter Information Block
#_______________________________________________________________________________
#
#PARAMETER_NAME    .UNIT     VALUE                         : DESCRIPTION
#_______________________________________________________________________________
SET                .         D4390_D_2                     : 
COMM               .                                       : 
OTHER              .         Запись производится в присутствии: 
OTHER_10           .         Максимальная температура      : 
OTHER_100          .         GK.FLT = 0.1*GR.UR/H[-1] + (1-0.1)*GR.UR/H[0]: 
OTHER_11           .         Тип промывочной жидкости      : 
OTHER_12           .         Сопротивление ПЖ (Ом*м) при 20°C: 
OTHER_13           .         Плотность ПЖ(г/см3)           : 
OTHER_14           .         Вязкость ПЖ(с)                : 
OTHER_15           .         Водоотдача ПЖ(см3/30мин)      : 
OTHER_16           .         Уровень ПЖ                    : 
OTHER_17           .         Нефть ПЖ (%)                  : 
OTHER_18           .         Барит ПЖ (%)                  : 
OTHER_19           .         Гематит ПЖ (%)                : 
OTHER_2            .         Заказчик ННСН  ЦДНГ-1         : 
OTHER_20           .         КМЦ ПЖ (%)                    : 
OTHER_21           .         Разгазирование ПЖ (да,нет)    : 
OTHER_22           .         Подъемник                     : 
OTHER_23           .         Лаборатория                   : 
OTHER_24           .         Тип кабеля                    : 
OTHER_25           .         Длина кабеля (м)              : 
OTHER_26           .         Цена последней метки          : 
OTHER_27           .         Цена контрольной метки        : 
OTHER_28           .         Диаметр долота (мм)           : 
OTHER_29           .         Глубина бурения (м)           : 
OTHER_3            .         Площадь                       : 
OTHER_30           .         Искусственный забой (м)       : 
OTHER_31           .         Диаметр колонны (мм)          : 
OTHER_32           .         Толщина колонны (мм)          : 
OTHER_33           .         Башмак колонны (м)            : 
OTHER_34           .         Диаметр НКТ (мм)              : 
OTHER_35           .         Толщина НКТ (мм)              : 
OTHER_36           .         Воронка НКТ (м)               : 
OTHER_37           .         Дата цементожа                : 
OTHER_38           .         Тип, количество(т) и плотность цемента: 
OTHER_39           .         Интервалы перфорации (м)      : 
OTHER_4            .         Категория                     : 
OTHER_40           .         Направление, диаметр (мм)     : 
OTHER_41           .         Направление, глубина (м)      : 
OTHER_42           .         Кондуктор, диаметр (мм)       : 
OTHER_43           .         Кондуктор, глубина (м)        : 
OTHER_44           .         Техническая колонна, диаметр (мм): 
OTHER_45           .         Техническая колонна, глубина (м): 
OTHER_46           .         Эксплуатационная колонна, диаметр (мм): 
OTHER_47           .         Эксплуатационная колонна, глубина (м): 
OTHER_48           .         Программа Кедр-02 версия 3.4  : 
OTHER_49           .         Операционная система Windows NT 5.1 build 2600 Service Pack 2: 
OTHER_5            .         Назначение исследований       : 
OTHER_50           .         Программное обеспечение станции MONITOR-386EX 25/12/99 15_08_10   BGF V54 20/09/05 15_32_17   3.3__BGF_9030071: 
OTHER_51           .         Kedr.exe версия 3.4.2.74      : 
OTHER_52           .         KedrData.dll версия 3.4.2.29  : 
OTHER_53           .         Мнемоники версия 3.18 S       : 
OTHER_54           .         Драйвер версия 2.1.1.4        : 
OTHER_55           .         LasInf.dll 4.3.0.35           : 
OTHER_56           .         Прибор_ КСА-Т4                : 
OTHER_57           .         Номер прибора_ 160            : 
OTHER_58           .         Режим_ КСА-Т4                 : 
OTHER_59           .         Форма_ С.А.Б.                 : 
OTHER_6            .         Альтитуда стола ротора        : 
OTHER_60           .         Тарировки_                    : 
OTHER_61           .         <_techsia_sc_> Дата тарировки температуры 25.05.2010: 
OTHER_62           .         Ручной ввод коэффициентов     : 
OTHER_63           .         TM.DEGC = 0.00402*RTM.E.ACP + -0.994: 
OTHER_64           .         <_techsia_sc_> Дата тарировки давления 25.05.2010: 
OTHER_65           .         Ручной ввод коэффициентов     : 
OTHER_66           .         MN.ATM = (2.27521e-006*TM.DEGC + 0.02078)*(RMN.E.ACP + 6.2*TM.DEGC + -1688): 
OTHER_67           .         <_techsia_sc_> Дата тарировки ГК 25.05.2010: 
OTHER_68           .         Ручной ввод коэффициентов     : 
OTHER_69           .         GR.UR/H = RGR.IMP/MIN / 45.5144: 
OTHER_7            .         Вид исследований 3  6         : 
OTHER_70           .         GK.FLT = 0.1*GR.UR/H[-1] + (1-0.1)*GR.UR/H[0]: 
OTHER_71           .         <_techsia_sc_> Дата тарировки температуры 25.05.2010: 
OTHER_72           .         Ручной ввод коэффициентов     : 
OTHER_73           .         TM.DEGC = 0.00402*RTM.E.ACP + -0.994: 
OTHER_74           .         <_techsia_sc_> Дата тарировки давления 25.05.2010: 
OTHER_75           .         Ручной ввод коэффициентов     : 
OTHER_76           .         MN.ATM = (2.27521e-006*TM.DEGC + 0.02078)*(RMN.E.ACP + 6.2*TM.DEGC + -1688): 
OTHER_77           .         <_techsia_sc_> Дата тарировки ГК 25.05.2010: 
OTHER_78           .         Ручной ввод коэффициентов     : 
OTHER_79           .         GR.UR/H = RGR.IMP/MIN / 45.5144: 
OTHER_8            .         Начало бурения интервала каротажа: 
OTHER_80           .         GK.FLT = 0.1*GR.UR/H[-1] + (1-0.1)*GR.UR/H[0]: 
OTHER_81           .         <_techsia_sc_> Дата тарировки температуры 25.05.2010: 
OTHER_82           .         Ручной ввод коэффициентов     : 
OTHER_83           .         TM.DEGC = 0.00402*RTM.E.ACP + -0.994: 
OTHER_84           .         <_techsia_sc_> Дата тарировки давления 25.05.2010: 
OTHER_85           .         Ручной ввод коэффициентов     : 
OTHER_86           .         MN.ATM = (2.27521e-006*TM.DEGC + 0.02078)*(RMN.E.ACP + 6.2*TM.DEGC + -1688): 
OTHER_87           .         <_techsia_sc_> Дата тарировки ГК 25.05.2010: 
OTHER_88           .         Ручной ввод коэффициентов     : 
OTHER_89           .         GR.UR/H = RGR.IMP/MIN / 45.5144: 
OTHER_9            .         Окончание бурения интервала каротажа: 
OTHER_90           .         GK.FLT = 0.1*GR.UR/H[-1] + (1-0.1)*GR.UR/H[0]: 
OTHER_91           .         <_techsia_sc_> Дата тарировки температуры 25.05.2010: 
OTHER_92           .         Ручной ввод коэффициентов     : 
OTHER_93           .         TM.DEGC = 0.00402*RTM.E.ACP + -0.994: 
OTHER_94           .         <_techsia_sc_> Дата тарировки давления 25.05.2010: 
OTHER_95           .         Ручной ввод коэффициентов     : 
OTHER_96           .         MN.ATM = (2.27521e-006*TM.DEGC + 0.02078)*(RMN.E.ACP + 6.2*TM.DEGC + -1688): 
OTHER_97           .         <_techsia_sc_> Дата тарировки ГК 25.05.2010: 
OTHER_98           .         Ручной ввод коэффициентов     : 
OTHER_99           .         GR.UR/H = RGR.IMP/MIN / 45.5144: 
PROJECT_UPGRADE_TIME .         2021-03-18T21_24_50           : 
PRTY               .         ПП-601-1                      : N партии
SRVC               .         Барковский                    : Начальник партии
TLFamily_DEPT      .         Measured Depth                : 
TLFamily_LM        .         Casing Collar locator         : 
TLFamily_METKA     .                                       : 
TLFamily_MN        .                                       : 
TLFamily_TM        .         Temperature                   : 
group              .         second                        : 
~Curve Information
#_______________________________________________________________________________
#
#LOGNAME           .UNIT     LOG_ID                        : DESCRIPTION
#_______________________________________________________________________________
DEPT               .M                                      : Depth curve 
LM                 .е.ацп                                  : Локатор муфт,е.ацп 
METKA              .е.ацп                                  : Магнитные метки,е.ацп 
MN                 .атм                                    : 12 Давление, атм. -  160.0 см 
TM                 .град.C                                 : Термограмма по стволу скважины,град.C 
~Ascii
# ...
2731.2     216.992    0          245.827    49.418    
2731.4     174.995    0          245.851    49.395    
2731.6     150.998    0          245.875    49.373    
2731.8     138.997    0          245.899    49.345    
2732       122.004    0          245.902    49.319    
2732.2     139.995    0          245.934    49.296    
2732.4     112.036    0          245.953    49.283    
2732.6     293.985    0          245.971    49.267    
2732.8     215.986    0          245.989    49.252    
2733       143.009    0          246.008    49.235    
2733.2     190.994    0          246.033    49.217    
2733.4     159.059    0          246.066    49.208    
2733.6     457.971    0          246.065    49.198    
2733.8     308.964    0          246.105    49.188    
2734       124.028    0          246.125    49.184    
2734.2     267.983    0          246.145    49.174    
2734.4     181.987    0          246.17     49.161    
2734.6     115        0          246.183    49.151    
2734.8     116.004    2          246.204    49.146    
2735       134.953    0          246.23     49.137    
2735.2     4978.457   0          246.255    49.131    
2735.4     2218.693   0          246.283    49.122    
2735.6     657.907    0          246.29     49.115    
2735.8     183.985    0          246.318    49.115    
2736       109.999    0          246.345    49.115    
2736.2     105.996    0          246.366    49.115    
2736.4     83.997     0          246.387    49.115    
2736.6     68.001     0          246.409    49.119    
2736.8     72         0          246.452    49.123    
2737       72.001     0          246.461    49.131    
2737.2     76         0          246.489    49.139    
2737.4     74.003     0          246.518    49.145    
2737.6     91.003     0          246.541    49.159    
2737.8     106.998    0          246.564    49.168    
2738       95.999     0          246.587    49.181    
2738.2     88.999     0          246.617    49.198    
2738.4     83.001     0          246.634    49.212    
2738.6     88.997     0          246.678    49.232    
2738.8     76.001     0          246.688    49.247    
2739       82.001     0          246.718    49.264    
2739.2     86.999     0          246.75     49.285    
2739.4     81.997     0          246.774    49.307    
2739.6     65.005     0          246.798    49.324    
2739.8     91         0          246.822    49.347    
2740       92.999     0          246.846    49.367    
2740.2     87         0          246.872    49.393    
2740.4     86.997     0          246.896    49.42     
2740.6     72.001     0          246.92     49.443    
2740.8     75.001     0          246.945    49.465    
2741       80.999     0          246.97     49.492    
2741.2     78         0          246.995    49.519    
2741.4     76.008     0          247.02     49.541    
2741.6     115.995    0          247.047    49.57     
2741.8     89.997     0          247.074    49.61     
2742       76.999     0          247.099    49.646    
2742.2     71.999     0          247.126    49.676    
2742.4     68.998     0          247.161    49.718    
2742.6     59.008     0          247.183    49.775    
2742.8     101.995    0          247.23     49.813    
2743       77.998     0          247.235    49.843    
2743.2     69.001     0          247.26     49.87     
2743.4     71.999     0          247.289    49.913    
2743.6     65         0          247.318    49.966    
2743.8     64         0          247.348    50.016    
2744       62.008     0          247.379    50.076    
2744.2     105.016    0          247.417    50.148    
2744.4     183.99     0          247.437    50.196    
2744.6     134.989    0          247.482    50.235    
2744.8     78         0          247.497    50.285    
2745       79.003     0          247.523    50.339    
2745.2     94.001     0          247.556    50.398    
2745.4     98.999     0          247.588    50.482    
2745.6     92.997     0          247.617    50.54     
2745.8     75.999     0          247.644    50.597    
2746       71.108     0          247.662    50.665    
2746.2     619.145    0          247.711    50.739    
2746.4     6416.103   0          247.74     50.79     
2746.6     1871.705   0          247.753    50.85     
2746.8     378.955    0          247.801    50.91     
2747       149.987    0          247.826    50.967    
2747.2     85.01      0          247.846    51.025    
2747.4     136.991    0          247.879    51.082    
2747.6     90.999     0          247.896    51.127    
2747.8     87         0          247.925    51.172    
2748       89.007     0          247.954    51.224    
2748.2     122.988    0          247.978    51.268    
2748.4     62.993     0          248.009    51.314    
2748.6     26         0          248.021    51.35     
2748.8     28.001     0          248.06     51.383    
2749       35         0          248.068    51.406    
2749.2     36.001     0          248.096    51.426    
2749.4     41.001     0          248.124    51.439    
2749.6     44.998     0          248.151    51.439    
2749.8     34.002     0          248.151    51.439    
2750       42.999     0          248.185    51.434    
2750.2     40.001     0          248.189    51.425    
2750.4     43.001     0          248.214    51.412    
2750.6     48.001     0          248.227    51.399    
2750.8     52         0          248.248    51.393    
2751       53.001     0          248.268    51.387    
2751.2     58.999     0          248.268    51.387    
2751.4     55.998     0          248.288    51.384    
2751.6     44.002     0          248.31     51.387    
2751.8     56.008     0          248.331    51.391    
2752       95.99      0          248.354    51.396    
2752.2     43.999     0          248.363    51.407    
2752.4     39         0          248.379    51.423    
2752.6     37         0          248.403    51.44     
2752.8     37         0          248.426    51.454    
2753       38         0          248.45     51.472    
2753.2     38         0          248.452    51.488    
2753.4     38         0          248.476    51.506    
2753.6     38         0          248.472    51.523    
2753.8     38         0          248.479    51.545    
2754       39         -9999      248.45     51.566    
2754.2     -9999      -9999      248.488    51.584    
2754.4     -9999      -9999      248.45     51.605    
2754.6     -9999      -9999      248.46     51.625    
2754.8     -9999      -9999      248.475    51.649    
2755       -9999      -9999      248.462    51.676    
2755.2     -9999      -9999      248.455    51.703    
