~Version
 VERS              .         2.0                           : CWLS LOG ASCII STANDARD - VERSION 2.0
 WRAP              .         NO                            : ONE LINE PER DEPTH STEP
 DLM               .         SPACE                         : DELIMITING CHARACTER(SPACE TAB OR COMMA)
~Well Information
#_______________________________________________________________________________
#
#PARAMETER_NAME    .UNIT     VALUE                         : DESCRIPTION
#_______________________________________________________________________________
STRT               .M        5.8                           : First reference value
STOP               .M        2774.6                        : Last reference value
STEP               .M        0.2                           : Step increment
NULL               .         -9999                         : Missing value
COMP               .                                       : Company
WELL               .         616                           : Well name
FLD                .                                       : Field
LOC                .                                       : Location
CNTY               .                                       : County
STAT               .                                       : State
CTRY               .                                       : Country
SRVC               .                                       : Service Company
DATE               .                                       : Date
API                .                                       : API number
PROJECT_UPGRADE_TIME .         2021-03-18T21_24_50           : 
group              .         Good                          : 
~Parameter Information Block
#_______________________________________________________________________________
#
#PARAMETER_NAME    .UNIT     VALUE                         : DESCRIPTION
#_______________________________________________________________________________
SET                .         D1747_D                       : 
OTHER              .         Программное обеспечение станции MONITOR-386EX 25/12/99 15_08_10   BGF V52 22/08/01 16_56_30   3.1_SNGF___BGF_N_111239: 
OTHER_10           .         Тарировки_                    : 
OTHER_11           .         <_techsia_sc_> Постоянная времени фильтра ГК  3.0 сек, kf=0.016529: 
OTHER_12           .         <_techsia_sc_> Постоянная времени фильтра ННК  3.0 сек, kf=0.016529: 
OTHER_13           .         GK.MKR/H = GK$.IMP/476        : 
OTHER_14           .         WSAT.PERC = -12.5 + 78.0 * (NKT2$.IMP / NKT1$.IMP) * 1731/33716: 
OTHER_15           .         NKT2.PRIV = NKT2$.IMP/33716   : 
OTHER_16           .         NKT1.PRIV = NKT1$.IMP/1731    : 
OTHER_2            .         Kedr.exe версия 3.3.2.32      : 
OTHER_3            .         KedrData.dll версия 3.3.2.17  : 
OTHER_4            .         Драйвер версия 2.1.1.9        : 
OTHER_5            .         Мнемоники версия 3.2 S        : 
OTHER_6            .         Прибор_ СРК-73Ц-1N            : 
OTHER_7            .         Номер прибора_ 906            : 
OTHER_8            .         Режим_ с локатором            : 
OTHER_9            .         Форма_ 623-1                  : 
PROJECT_UPGRADE_TIME .         2021-03-18T21_24_49           : 
TLFamily_DEPT      .         Measured Depth                : 
TLFamily_GK        .         Gamma Ray                     : 
TLFamily_GK$       .                                       : 
TLFamily_LM        .         Casing Collar locator         : 
TLFamily_METKA     .                                       : 
TLFamily_NKT1      .         Neutron Far                   : 
TLFamily_NKT1$     .         Neutron Far                   : 
TLFamily_NKT2      .         Neutron Near                  : 
TLFamily_NKT2$     .         Neutron Near                  : 
TLFamily_RCOR      .                                       : 
TLFamily_SPID      .         Spontaneous Potential         : 
TLFamily_TENS      .         Cable Tension                 : 
TLFamily_TIME      .         Time                          : 
TLFamily_WSAT      .         Neutron Porosity              : 
group              .         prim                          : 
~Curve Information
#_______________________________________________________________________________
#
#LOGNAME           .UNIT     LOG_ID                        : DESCRIPTION
#_______________________________________________________________________________
DEPT               .M                                      : 1 Глубина, м -    0.0 см 
GK                 .MKR/H                                  : 11 Гамма-активность, мкр./ч -   97.0 см 
GK$                .IMP                                    : 9 Гамма-активность, имп/мин -   97.0 см 
LM                 .                                       : 10 Локатор муфт,  -   27.0 см 
METKA              .                                       : 3 Метки,  -    0.0 см 
NKT1               .PRIV                                   : 14 Большой зонд приведенный,  -  278.0 см 
NKT1$              .IMP                                    : 8 Большой зонд, имп/мин -  278.0 см 
NKT2               .PRIV                                   : 13 Малый зонд приведенный,  -  289.0 см 
NKT2$              .IMP                                    : 7 Малый зонд, имп/мин -  289.0 см 
RCOR               .CM/KM                                  : 5 Коррекция по ролику, см/км -    0.0 см 
SPID               .M/H                                    : 2 Скорость, м/час -    0.0 см 
TENS               .T                                      : 6 Натяжение кабеля, т -    0.0 см 
TIME               .S                                      : 4 Время, сек -    0.0 см 
WSAT               .PERC                                   : 12 Водонасыщенная пористость, % -  284.0 см 
~Ascii
5.8        -9999      -9999      -9999      -9999      -9999      -9999      -9999      -9999      -9999      -9999      -9999      -9999      -9999     
6          -9999      -9999      -9999      0          -9999      -9999      -9999      -9999      -442       -553       0          30040.68   -9999     
6.2        -9999      -9999      -9999      0          -9999      -9999      -9999      -9999      -442       -580       0          30039.42   -9999     
6.4        -9999      -9999      12         0          -9999      -9999      -9999      -9999      -442       -581       0          30038.21   -9999     
6.6        -9999      -9999      42         0          -9999      -9999      -9999      -9999      -442       -581       0          30037.01   -9999     
6.8        -9999      -9999      25         0          -9999      -9999      -9999      -9999      -442       -638       0          30035.81   -9999     
7          1.58       753        56         0          -9999      -9999      -9999      -9999      -442       -583       0          30034.66   -9999     
7.2        1.47       702        32         0          -9999      -9999      -9999      -9999      -442       -585       0          30033.46   -9999     
7.4        1.49       709        36         0          -9999      -9999      -9999      -9999      -442       -580       0          30032.26   -9999     
7.6        1.51       721        35         0          -9999      -9999      -9999      -9999      -442       -580       0          30031.05   -9999     
7.8        1.42       674        66         0          -9999      -9999      -9999      -9999      -442       -633       0          30029.8    -9999     
8          1.56       745        33         0          -9999      -9999      -9999      -9999      -442       -640       0          30028.65   -9999     
8.2        1.65       783        36         0          -9999      -9999      -9999      -9999      -442       -639       0          30027.45   -9999     
8.4        1.81       863        54         0          -9999      -9999      -9999      -9999      -442       -638       0          30026.3    -9999     
8.6        1.58       754        32         0          -9999      -9999      -9999      -9999      -442       -637       0          30025.14   -9999     
8.8        1.66       788        26         0          4.91       8495.35    -9999      -9999      -442       -636       0          30023.94   8.87      
9          1.54       734        55         0          4.82       8338.53    1.17       39550.55   -442       -634       0          30022.79   8.92      
9.2        1.65       787        25         0          4.68       8103       1.19       40242.96   -442       -628       0          30021.59   10.6      
9.4        1.32       628        28         0          4.88       8444.56    1.19       40104.34   -442       -580       0          30020.39   8.29      
9.6        1.38       655        56         0          4.82       8344.93    1.19       40257.42   -442       -640       0          30019.19   8.76      
9.8        1.45       691        74         0          4.95       8570.37    1.19       39992.35   -442       -580       0          30018.04   8.26      
10         1.46       697        35         0          4.93       8535.8     1.19       39963.27   -442       -638       0          30016.78   8.12      
10.2       1.52       726        44         0          4.98       8620.45    1.2        40352.33   -442       -583       0          30015.58   7.4       
10.4       1.57       748        29         0          4.91       8500.56    1.2        40403.8    -442       -587       0          30014.38   8.11      
10.6       1.8        858        30         0          5.01       8672.85    1.2        40483.82   -442       -588       0          30013.24   7.84      
10.8       1.77       845        41         0          5.01       8671.93    1.19       40232.92   -442       -597       0          30012.06   7.65      
11         1.94       922        22         1          5.07       8769.55    1.17       39603.31   -442       -603       0          30010.88   7.31      
11.2       2.05       976        39         0          5          8647.64    1.17       39537.55   -442       -600       0          30009.71   7.46      
11.4       2.03       966        48         0          4.88       8453.92    1.16       39049.04   -442       -581       0          30008.55   8.27      
11.6       1.91       910        22         0          4.92       8511.11    1.16       39034.41   -442       -581       0          30007.36   8.79      
11.8       2.05       978        28         1          4.75       8229.42    1.15       38661.34   -442       -581       0          30006.18   8.45      
12         1.91       910        53         0          4.75       8220.44    1.11       37441.88   -442       -578       0          30005.01   7.48      
12.2       2.04       973        23         1          4.78       8279.91    1.09       36890.27   -442       -634       0          30003.76   7.05      
12.4       1.92       914        50         0          4.7        8135.16    1.1        37207.97   -442       -621       0          30002.5    6.94      
12.6       1.86       885        20         1          4.63       8015.53    1.11       37417.06   -442       -621       0          30001.35   8         
12.8       2.03       964        47         0          4.55       7881.77    1.13       38006.73   -442       -619       0          30000.15   8.57      
13         1.86       884        23         0          4.42       7659.43    1.1        37202.64   -442       -587       0          29999.01   8.48      
13.2       1.68       800        59         0          4.35       7531.69    1.1        37068.55   -442       -581       0          29997.79   8.97      
13.4       1.57       748        44         0          4.17       7213.48    1.1        37026.68   -442       -580       0          29996.64   10.16     
13.6       1.41       672        186        0          4.02       6953.7     1.05       35336.18   -442       -638       0          29995.44   10.12     
13.8       1.43       679        576        1          3.84       6648.11    1.04       34914.12   -442       -636       0          29994.27   11.13     
14         1.4        665        1280       0          4.02       6951.98    1.02       34442.21   -442       -630       0          29993.04   10.64     
14.2       1.47       700        1635       1          4.38       7574.54    1.1        36996.27   -442       -640       0          29991.89   10.67     
14.4       1.39       662        57         0          4.45       7703.41    1.1        37141.76   -442       -543       0          29990.74   9.03      
14.6       1.61       768        59         0          4.48       7761.31    1.08       36320.54   -442       -612       0          29989.53   9.07      
14.8       1.6        761        48         1          4.29       7433.31    1.07       36162.24   -442       -581       0          29988.33   9.38      
15         1.82       866        77         0          4.27       7388.75    1.07       35918.26   -442       -581       0          29987.13   9.02      
15.2       1.85       882        130        0          4.37       7560.09    1.05       35255.91   -442       -580       0          29985.93   9.07      
15.4       1.91       909        58         0          4.43       7663.68    1.04       35232.25   -442       -636       0          29984.73   9         
15.6       1.99       948        169        0          4.29       7429.82    1.05       35542.27   -442       -586       0          29983.58   8.82      
15.8       1.66       790        179        0          4.35       7522.11    1.07       35968.45   -442       -592       0          29982.37   8.64      
16         1.52       724        40         0          4.38       7583.56    1.08       36449.94   -442       -601       0          29981.22   8.72      
