~Version
 VERS              .         2.0                           : CWLS LOG ASCII STANDARD - VERSION 2.0
 WRAP              .         NO                            : ONE LINE PER DEPTH STEP
 DLM               .         SPACE                         : DELIMITING CHARACTER(SPACE TAB OR COMMA)
~Well Information
#_______________________________________________________________________________
#
#PARAMETER_NAME    .UNIT     VALUE                         : DESCRIPTION
#_______________________________________________________________________________
STRT               .M        21.55                         : First reference value
STOP               .M        2764.75                       : Last reference value
STEP               .M        0.2                           : Step increment
NULL               .         -9999                         : Missing value
COMP               .                                       : Company
WELL               .         616                           : Well name
FLD                .                                       : Field
LOC                .                                       : Location
CNTY               .                                       : County
STAT               .                                       : State
CTRY               .                                       : Country
SRVC               .                                       : Service Company
DATE               .                                       : Date
API                .                                       : API number
PROJECT_UPGRADE_TIME .         2021-03-18T21_24_50           : 
group              .         Good                          : 
~Parameter Information Block
#_______________________________________________________________________________
#
#PARAMETER_NAME    .UNIT     VALUE                         : DESCRIPTION
#_______________________________________________________________________________
SET                .         D7028_D_2                     : 
NPR                .         155                           : Номер прибора
OTHER              .         Kedr.exe версия 2.1.2.32      : 
OTHER_10           .         TM.GRD = 0.00404*TM$.UE + 0.07: 
OTHER_11           .         MN.ATM = (6.33279e-006*TM.GRD + 0.02401)*(MN$.UE + 2.72*TM.GRD + -2018): 
OTHER_12           .         GK.MKR/H = GK$.UE / 43.5489 + 0: 
OTHER_13           .         RES.SM = 0.00476*CRES.UE - 1.51709: 
OTHER_14           .         PL.GSM3 = 0 + 0 * (PL.UE / 1) +  0 * (PL.UE / 1)^2: 
OTHER_15           .         Постоянная времени ГГП = 6 сек: 
OTHER_16           .         Постоянная времени ГК = 6 сек : 
OTHER_2            .         KedrData.dll версия 3.2.2.14  : 
OTHER_3            .         LasInf.dll версия 3.2.0.13    : 
OTHER_4            .         Драйвер версия 1.2.0.5        : 
OTHER_5            .         Прибор_ КСА-M1                : 
OTHER_6            .         Номер прибора_ 155+р204       : 
OTHER_7            .         Режим_ КСА-М1 + ГГП + Резистивиметр: 
OTHER_8            .         Форма_ 223\2                  : 
OTHER_9            .         Тарировки_                    : 
PR                 .         КСА-Т7 М1                     : Тип прибора
PROJECT_UPGRADE_TIME .         2021-03-18T21_24_50           : 
PRTY               .         ПП-223_2                      : Номер партии
SRV                .         ЦКРС                          : Заказчик
SRVC               .         Лузин  А.Б.                   : Начальник партии
TLFamily_DEPT      .         Measured Depth                : 
TLFamily_LM        .         Casing Collar locator         : 
TLFamily_MN        .                                       : 
TLFamily_SPID      .         Spontaneous Potential         : 
TLFamily_TM        .         Temperature                   : 
group              .         second                        : 
~Curve Information
#_______________________________________________________________________________
#
#LOGNAME           .UNIT     LOG_ID                        : DESCRIPTION
#_______________________________________________________________________________
DEPT               .M                                      : Depth curve 
LM                 .е.ацп                                  : Локация муфт 
MN                 .атм                                    : Манометрия, атм 
SPID               .м/ч                                    : Скорость записи,м/час 
TM                 .град.С                                 : Термометрия,град.С 
~Ascii
# ...
2386.75    95.996     216.29     -1859.994  60.83     
2386.95    73.001     216.3      -1822.994  60.83     
2387.15    80.004     216.32     -1790.006  60.84     
2387.35    102.001    216.35     -1825      60.84     
2387.55    106.999    216.36     -1826.999  60.84     
2387.75    103.002    216.39     -1821.007  60.84     
2387.95    113        216.4      -1859.994  60.84     
2388.15    111.998    216.41     -1827.999  60.84     
2388.35    99.002     216.44     -1820.007  60.84     
2388.55    107.996    216.46     -1860      60.84     
2388.75    84.004     216.48     -1859.995  60.85     
2388.95    108        216.51     -1832.997  60.85     
2389.15    108.998    216.52     -1816.008  60.85     
2389.35    97.998     216.53     -1860      60.85     
2389.55    87.002     216.56     -1860      60.85     
2389.75    95.999     216.58     -1860      60.85     
2389.95    91.001     216.61     -1859.993  60.85     
2390.15    96.002     216.63     -1820.991  60.85     
2390.35    106.002    216.64     -1769.016  60.86     
2390.55    118.004    216.65     -1860      60.86     
2390.75    139.004    216.68     -1860      60.86     
2390.95    165.011    216.7      -1860      60.86     
2391.15    228.018    216.73     -1860      60.86     
2391.35    330.032    216.74     -1859.991  60.86     
2391.55    513.05     216.75     -1810.006  60.86     
2391.75    801.082    216.78     -1842.003  60.87     
2391.95    1278.13    216.8      -1859.991  60.87     
2392.15    2030.21    216.82     -1808.006  60.87     
2392.35    3244.351   216.83     -1839.995  60.87     
2392.55    5277.366   216.87     -1810.996  60.87     
2392.75    7393.74    216.89     -1790      60.87     
2392.95    106.998    216.9      -1790.008  60.87     
2393.15    93.002     216.93     -1836.004  60.88     
2393.35    105.997    216.96     -1860      60.88     
2393.55    88.999     216.98     -1860      60.88     
2393.75    84         216.99     -1860      60.88     
2393.95    85.997     217.01     -1860      60.88     
2394.15    71         217.03     -1859.993  60.88     
2394.35    70.002     217.06     -1817.995  60.88     
2394.55    78.999     217.06     -1790      60.88     
2394.75    72.003     217.08     -1790.007  60.88     
2394.95    86.998     217.1      -1829.998  60.88     
2395.15    75         217.13     -1820.995  60.88     
2395.35    76         217.15     -1790      60.88     
2395.55    76.002     217.17     -1790.006  60.89     
2395.75    87.004     217.19     -1826.999  60.89     
2395.95    108.999    217.2      -1820.995  60.89     
2396.15    102.998    217.22     -1790      60.89     
2396.35    90         217.25     -1790.006  60.89     
2396.55    89.003     217.27     -1827.006  60.89     
2396.75    104        217.3      -1859.994  60.89     
2396.95    106.001    217.31     -1822.989  60.89     
2397.15    109.001    217.32     -1757.008  60.89     
2397.35    113.001    217.35     -1802.01   60.9      
2397.55    119.993    217.37     -1860      60.9      
2397.75    80.003     217.4      -1859.993  60.9      
2397.95    95.001     217.41     -1819.995  60.9      
2398.15    100        217.42     -1790.006  60.9      
2398.35    100        217.44     -1827.006  60.9      
2398.55    98.996     217.47     -1860      60.9      
2398.75    74         217.48     -1860      60.9      
2398.95    75.004     217.51     -1859.994  60.9      
2399.15    96         217.53     -1827.999  60.9      
2399.35    93.995     217.54     -1820.007  60.9      
2399.55    64.999     217.57     -1860      60.9      
2399.75    61.001     217.59     -1859.995  60.9      
2399.95    69         217.6      -1829.993  60.91     
2400.15    71.001     217.61     -1790.005  60.91     
2400.35    78.002     217.64     -1818.007  60.91     
2400.55    89         217.66     -1859.996  60.91     
2400.75    89.998     217.69     -1835.992  60.91     
2400.95    79.999     217.71     -1790      60.91     
2401.15    76         217.72     -1790.008  60.91     
2401.35    75         217.74     -1837.004  60.91     
2401.55    73.007     217.76     -1859.99   60.91     
2401.75    111.007    217.78     -1801.008  60.91     
2401.95    154.009    217.81     -1846.992  60.91     
2402.15    205        217.83     -1800.998  60.91     
2402.35    205.018    217.85     -1790.01   60.91     
2402.55    306.079    217.86     -1846.002  60.91     
2402.75    762        217.88     -1860      60.91     
2402.95    762.08     217.91     -1860      60.91     
2403.15    1220.127   217.94     -1859.991  60.91     
2403.35    1950.201   217.94     -1810.005  60.92     
2403.55    3109.336   217.96     -1839.004  60.92     
2403.75    5044.984   217.99     -1859.993  60.92     
2403.95    4951.153   218.01     -1817.003  60.92     
2404.15    74.001     218.04     -1834.005  60.92     
2404.35    77.996     218.06     -1860      60.92     
2404.55    57.001     218.07     -1859.993  60.92     
2404.75    64.001     218.09     -1816.995  60.92     
2404.95    68.003     218.11     -1790.007  60.92     
2405.15    84.001     218.13     -1831.998  60.92     
2405.35    91.997     218.14     -1820.002  60.92     
2405.55    74.002     218.11     -1829.005  60.92     
2405.75    87.997     218.17     -1859.993  60.92     
2405.95    70.001     218.21     -1821.001  60.92     
2406.15    72.997     218.23     -1829.005  60.92     
2406.35    57         218.25     -1859.994  60.92     
2406.55    55.001     218.28     -1822.994  60.92     
2406.75    60.001     218.3      -1790      60.93     
2406.95    66.002     218.31     -1790      60.92     
2407.15    76.001     218.33     -1790.006  60.92     
2407.35    80.999     218.35     -1826.999  60.93     
2407.55    77.996     218.36     -1822.994  60.93     
2407.75    55.998     218.37     -1790      60.93     
2407.95    47.001     218.4      -1790      60.93     
2408.15    55.002     218.42     -1790.007  60.93     
2408.35    65.001     218.45     -1829.005  60.93     
2408.55    72.998     218.47     -1859.994  60.93     
2408.75    60.001     218.5      -1822.994  60.93     
2408.95    66.997     218.51     -1790      60.93     
2409.15    51.999     218.52     -1790      60.93     
2409.35    48.002     218.55     -1790.006  60.93     
2409.55    57.001     218.57     -1825.006  60.94     
2409.75    64         218.59     -1859.994  60.94     
2409.95    65.002     218.62     -1823.001  60.94     
2410.15    73.999     218.63     -1829.005  60.94     
2410.35    69         218.64     -1860      60.94     
2410.55    70.998     218.67     -1859.994  60.94     
2410.75    62.001     218.69     -1825      60.94     
2410.95    68         218.7      -1823.006  60.94     
2411.15    66.001     218.72     -1860      60.94     
2411.35    74.001     218.74     -1860      60.94     
2411.55    82         218.77     -1859.988  60.94     
2411.75    82.995     218.79     -1790      60.94     
2411.95    56.003     218.8      -1790.012  60.94     
2412.15    71.003     218.81     -1857.001  60.94     
2412.35    88.997     218.84     -1860      60.94     
2412.55    73.003     218.86     -1860      60.94     
2412.75    90.003     218.89     -1860      60.95     
2412.95    107.004    218.92     -1860      60.95     
2413.15    131.01     218.92     -1859.989  60.95     
2413.35    189.016    218.95     -1796.999  60.94     
2413.55    282.022    218.97     -1790.01   60.93     
2413.75    408.043    219        -1849.002  60.94     
2413.95    653.068    219.02     -1859.99   60.95     
2414.15    1043.108   219.05     -1800.009  60.95     
2414.35    1663       219.07     -1850.002  60.95     
2414.55    1663.465   219.07     -1859.99   60.95     
2414.75    4330.397   219.09     -1804.007  60.95     
2414.95    6601.867   219.12     -1845.993  60.95     
2415.15    110        219.14     -1803.998  60.95     
2415.35    109.998    219.16     -1790.009  60.95     
2415.55    97.003     219.17     -1841.994  60.95     
2415.75    113.002    219.19     -1807.997  60.95     
