~Version
 VERS              .         2.0                           : CWLS LOG ASCII STANDARD - VERSION 2.0
 WRAP              .         NO                            : ONE LINE PER DEPTH STEP
 DLM               .         SPACE                         : DELIMITING CHARACTER(SPACE TAB OR COMMA)
~Well Information
#_______________________________________________________________________________
#
#PARAMETER_NAME    .UNIT     VALUE                         : DESCRIPTION
#_______________________________________________________________________________
STRT               .M        2655.25                       : First reference value
STOP               .M        2763.850109                   : Last reference value
STEP               .M        0.2000002                     : Step increment
NULL               .         -9999                         : Missing value
COMP               .                                       : Company
WELL               .         616                           : Well name
FLD                .                                       : Field
LOC                .                                       : Location
CNTY               .                                       : County
STAT               .                                       : State
CTRY               .                                       : Country
SRVC               .                                       : Service Company
DATE               .                                       : Date
API                .                                       : API number
PROJECT_UPGRADE_TIME .         2021-03-18T21_24_50           : 
group              .         Good                          : 
~Parameter Information Block
#_______________________________________________________________________________
#
#PARAMETER_NAME    .UNIT     VALUE                         : DESCRIPTION
#_______________________________________________________________________________
SET                .         D7026_D_2                     : 
NPR                .         155                           : Номер прибора
OTHER              .         Kedr.exe версия 2.1.2.32      : 
OTHER_10           .         TM.GRD = 0.00404*TM$.UE + 0.07: 
OTHER_11           .         MN.ATM = (6.33279e-006*TM.GRD + 0.02401)*(MN$.UE + 2.72*TM.GRD + -2018): 
OTHER_12           .         GK.MKR/H = GK$.UE / 43.5489 + 0: 
OTHER_13           .         RES.SM = 0.00476*CRES.UE - 1.51709: 
OTHER_14           .         PL.GSM3 = 0 + 0 * (PL.UE / 1) +  0 * (PL.UE / 1)^2: 
OTHER_15           .         Постоянная времени ГГП = 6 сек: 
OTHER_16           .         Постоянная времени ГК = 6 сек : 
OTHER_2            .         KedrData.dll версия 3.2.2.14  : 
OTHER_3            .         LasInf.dll версия 3.2.0.13    : 
OTHER_4            .         Драйвер версия 1.2.0.5        : 
OTHER_5            .         Прибор_ КСА-M1                : 
OTHER_6            .         Номер прибора_ 155+р204       : 
OTHER_7            .         Режим_ КСА-М1 + ГГП + Резистивиметр: 
OTHER_8            .         Форма_ 223\2                  : 
OTHER_9            .         Тарировки_                    : 
PR                 .         КСА-Т7 М1                     : Тип прибора
PROJECT_UPGRADE_TIME .         2021-03-18T21_24_50           : 
PRTY               .         ПП-223_2                      : Номер партии
SRV                .         ЦКРС                          : Заказчик
SRVC               .         Лузин  А.Б.                   : Начальник партии
TLFamily_DEPT      .         Measured Depth                : 
TLFamily_LM        .         Casing Collar locator         : 
TLFamily_MN        .                                       : 
TLFamily_SPID      .         Spontaneous Potential         : 
TLFamily_TM        .         Temperature                   : 
group              .         second                        : 
~Curve Information
#_______________________________________________________________________________
#
#LOGNAME           .UNIT     LOG_ID                        : DESCRIPTION
#_______________________________________________________________________________
DEPT               .M                                      : Depth curve 
LM                 .е.ацп                                  : Локация муфт 
MN                 .атм                                    : Манометрия, атм 
SPID               .м/ч                                    : Скорость записи,м/час 
TM                 .град.С                                 : Термометрия,град.С 
~Ascii
# ...
2684.050029 101        245.99     580        56.91     
2684.250029 98         246.01     510        56.9      
2684.450029 74         246.03     557        56.89     
2684.650029 63         246.03     580        56.88     
2684.85003 65         246.08     580        56.87     
2685.05003 75         246.08     580        56.86     
2685.25003 117        246.11     580        56.85     
2685.45003 68         246.13     580        56.84     
2685.65003 111        246.15     522        56.83     
2685.850031 73         246.17     580        56.82     
2686.050031 101        246.2      580        56.81     
2686.250031 183        246.21     569        56.8      
2686.450031 104        246.22     510        56.79     
2686.650031 132        246.24     580        56.78     
2686.850032 125        246.25     580        56.77     
2687.050032 88         246.29     568        56.77     
2687.250032 98         246.29     570        56.75     
2687.450032 106        246.31     580        56.74     
2687.650032 74         246.33     557        56.73     
2687.850033 98         246.35     580        56.72     
2688.050033 67         246.38     580        56.7      
2688.250033 82         246.4      545        56.69     
2688.450033 127        246.42     530        56.68     
2688.650033 112        246.44     580        56.67     
2688.850034 84         246.47     580        56.66     
2689.050034 105        246.48     580        56.65     
2689.250034 100        246.49     569        56.64     
2689.450034 115        246.51     487        56.62     
2689.650034 129        246.54     545        56.61     
2689.850035 112        246.55     510        56.6      
2690.050035 70         246.57     580        56.6      
2690.250035 57         246.58     569        56.58     
2690.450035 57         246.6      580        56.56     
2690.650035 64         246.62     580        56.55     
2690.850036 43         246.64     557        56.53     
2691.050036 50         246.67     522        56.52     
2691.250036 62.004     246.66     580        56.5      
2691.450036 1377.999   246.69     557        56.48     
2691.650036 845.998    246.71     560        56.45     
2691.850037 138        246.73     580        56.43     
2692.050037 47         246.75     580        56.41     
2692.250037 33         246.78     580        56.4      
2692.450037 38         246.8      560        56.39     
2692.650037 29         246.8      510        56.38     
2692.850038 34         246.82     533        56.37     
2693.050038 27         246.84     533        56.35     
2693.250038 27         246.86     580        56.32     
2693.450038 34         246.88     580        56.31     
2693.650038 16         246.89     540        56.29     
2693.850039 15         246.93     522        56.28     
2694.050039 21         246.95     580        56.27     
2694.250039 28         246.97     534        56.25     
2694.450039 23         246.97     550        56.24     
2694.650039 24         247        510        56.22     
2694.85004 22         247.02     580        56.21     
2695.05004 19         247.04     580        56.2      
2695.25004 20         247.06     580        56.19     
2695.45004 38         247.08     510        56.18     
2695.65004 40         247.11     568        56.17     
2695.850041 31         247.13     580        56.16     
2696.050041 18         247.13     510        56.14     
2696.250041 13         247.17     580        56.13     
2696.450041 37         247.18     580        56.11     
2696.650041 38         247.2      580        56.1      
2696.850042 14         247.21     568        56.08     
2697.050042 97         247.24     510        56.06     
2697.250042 115        247.26     580        56.04     
2697.450042 90         247.26     580        56.02     
2697.650042 56         247.28     510        56        
2697.850043 55         247.3      580        55.98     
2698.050043 57         247.31     538        55.96     
2698.250043 68         247.35     533        55.94     
2698.450043 59         247.35     580        55.92     
2698.650043 48         247.37     522        55.91     
2698.850044 67         247.39     545        55.88     
2699.050044 48         247.41     580        55.84     
2699.250044 50         247.43     580        55.81     
2699.450044 35         247.45     580        55.79     
2699.650044 24         247.45     557        55.75     
2699.850045 16         247.48     580        55.72     
2700.050045 116        247.51     510        55.69     
2700.250045 57         247.5      510        55.64     
2700.450045 63         247.51     580        55.6      
2700.650045 62         247.51     580        55.56     
2700.850046 63         247.53     522        55.51     
2701.050046 61         247.55     580        55.48     
2701.250046 70         247.58     450        55.45     
2701.450046 70         247.6      568        55.43     
2701.650046 63         247.62     580        55.4      
2701.850047 73         247.64     580        55.39     
2702.050047 78.016     247.66     557        55.36     
2702.250047 4595.99    247.67     521        55.34     
2702.450047 1779.995   247.68     580        55.31     
2702.650047 440.999    247.7      538        55.29     
2702.850048 160        247.72     533        55.26     
2703.050048 92         247.74     580        55.23     
2703.250048 63         247.79     524        55.21     
2703.450048 73         247.79     580        55.2      
2703.650048 68         247.83     568        55.19     
2703.850049 148        247.83     580        55.17     
2704.050049 122        247.85     557        55.14     
2704.250049 84         247.86     580        55.11     
2704.450049 41         247.88     570        55.09     
2704.650049 33         247.92     568        55.06     
2704.85005 35         247.94     580        55.04     
2705.05005 44         247.97     557        55.03     
2705.25005 50         247.98     510        55.01     
2705.45005 47         247.98     560        54.98     
2705.65005 89         247.99     580        54.95     
2705.850051 86         248.01     580        54.92     
2706.050051 27         248.04     580        54.89     
2706.250051 21         248.06     580        54.87     
2706.450051 15         248.08     510        54.84     
2706.650051 14         248.1      580        54.83     
2706.850052 69         248.1      522        54.81     
2707.050052 71         248.12     510        54.78     
2707.250052 80         248.15     580        54.75     
2707.450052 57         248.18     522        54.72     
2707.650052 59         248.18     510        54.68     
2707.850053 46         248.2      580        54.65     
2708.050053 48         248.22     510        54.63     
2708.250053 49         248.22     510        54.62     
2708.450053 51         248.27     510        54.61     
2708.650053 39         248.29     580        54.6      
2708.850054 33         248.31     580        54.58     
2709.050054 35         248.32     510        54.55     
2709.250054 33         248.33     580        54.53     
2709.450054 39         248.35     580        54.51     
2709.650054 42         248.38     510        54.49     
2709.850055 37         248.4      510        54.47     
2710.050055 24         248.42     568        54.44     
2710.250055 36         248.44     580        54.42     
2710.450055 54         248.46     510        54.4      
2710.650055 42         248.46     580        54.38     
2710.850056 50         248.5      580        54.36     
2711.050056 41         248.52     580        54.34     
2711.250056 56         248.55     510        54.32     
2711.450056 47         248.57     510        54.29     
2711.650056 42         248.59     580        54.27     
2711.850057 58         248.6      580        54.25     
2712.050057 44         248.61     520        54.24     
2712.250057 51         248.63     580        54.21     
2712.450057 63         248.65     580        54.19     
2712.650057 51         248.67     533        54.16     
