~Version
 VERS              .         2.0                           : CWLS LOG ASCII STANDARD - VERSION 2.0
 WRAP              .         NO                            : ONE LINE PER DEPTH STEP
 DLM               .         SPACE                         : DELIMITING CHARACTER(SPACE TAB OR COMMA)
~Well Information
#_______________________________________________________________________________
#
#PARAMETER_NAME    .UNIT     VALUE                         : DESCRIPTION
#_______________________________________________________________________________
STRT               .M        2658                          : First reference value
STOP               .M        2762                          : Last reference value
STEP               .M        0.2                           : Step increment
NULL               .         -9999                         : Missing value
COMP               .                                       : Company
WELL               .         616                           : Well name
FLD                .                                       : Field
LOC                .                                       : Location
CNTY               .                                       : County
STAT               .                                       : State
CTRY               .                                       : Country
SRVC               .                                       : Service Company
DATE               .                                       : Date
API                .                                       : API number
PROJECT_UPGRADE_TIME .         2021-03-18T21_24_50           : 
group              .         Good                          : 
~Parameter Information Block
#_______________________________________________________________________________
#
#PARAMETER_NAME    .UNIT     VALUE                         : DESCRIPTION
#_______________________________________________________________________________
SET                .         D8103_D                       : 
OTHER              .         Программное обеспечение станции MONITOR-386EX 25/12/99 15_08_10   BGF V52 22/08/01 16_56_30   4_SNGF_BGF_N_011645: 
OTHER_10           .         Тарировки_                    : 
OTHER_11           .         TM.GRD = 0.00412*TM$.UE + -2.13: 
OTHER_12           .         MN.ATM = (5.87652e-006*TM.GRD + 0.01993)*(MN$.UE + -2.72*TM.GRD + -1925): 
OTHER_13           .         GK.MKR/H = GK$.UE / 57.4657   : 
OTHER_2            .         Kedr.exe версия 3.4.2.51      : 
OTHER_3            .         KedrData.dll версия 3.4.2.24  : 
OTHER_4            .         Драйвер версия 2.1.0.2        : 
OTHER_5            .         Мнемоники версия 3.3 S        : 
OTHER_6            .         Прибор_ АКП4-90               : 
OTHER_7            .         Номер прибора_ 53             : 
OTHER_8            .         Режим_ АКП4_90                : 
OTHER_9            .         Форма_ ПК-53ое                : 
PROJECT_UPGRADE_TIME .         2021-03-18T21_24_50           : 
TLFamily_DEPT      .         Measured Depth                : 
TLFamily_GK        .         Gamma Ray                     : 
TLFamily_GK$       .                                       : 
TLFamily_LM        .         Casing Collar locator         : 
TLFamily_METKA     .                                       : 
TLFamily_METKA_1   .                                       : 
TLFamily_MN        .                                       : 
TLFamily_MN$       .                                       : 
TLFamily_RCOR      .                                       : 
TLFamily_SPID      .         Spontaneous Potential         : 
TLFamily_TENS      .         Cable Tension                 : 
TLFamily_TIME      .         Time                          : 
TLFamily_TM        .         Temperature                   : 
TLFamily_TM$       .         Temperature                   : 
group              .         prim                          : 
~Curve Information
#_______________________________________________________________________________
#
#LOGNAME           .UNIT     LOG_ID                        : DESCRIPTION
#_______________________________________________________________________________
DEPT               .M                                      : 1 Глубина, м -    0.0 см 
GK                 .MKR/H                                  : 13 Гамма-активность, мкр./ч -   65.0 см 
GK$                .UE                                     : 10 Гамма-активность, усл.ед. -   65.0 см 
LM                 .                                       : 9 Локатор муфт,  -   30.0 см 
METKA              .                                       : 3 Метки,  -    0.0 см 
METKA_1            .                                       : 14 Маркеры - 65 см 
MN                 .ATM                                    : 12 Давление, атм. -  140.0 см 
MN$                .UE                                     : 8 Давление, усл.ед. -  140.0 см 
RCOR               .CM/KM                                  : 5 Коррекция по ролику, см/км -    0.0 см 
SPID               .M/H                                    : 2 Скорость, м/час -    0.0 см 
TENS               .T                                      : 6 Натяжение кабеля, т -    0.0 см 
TIME               .S                                      : 4 Время, сек -    0.0 см 
TM                 .GRD                                    : 11 Температура, °C -  145.0 см 
TM$                .UE                                     : 7 Температура, усл.ед. -  145.0 см 
~Ascii
# ...
2720.4     4.61       265        190        0          0          249.444    14441      -19        -338       0.84       3314.76    45.608     11587     
2720.6     4.45       256        65         2          0          249.504    14444      -16        -346       0.82       3312.32    45.584     11581     
2720.8     4.34       250        117        0          1          249.49     14443      -16        -342       0.82       3310.25    45.551     11573     
2721       3.64       209        307        0          0          249.524    14445      -16        -339       0.84       3308.09    45.512     11564     
2721.2     3.8        218        38         0          0          249.553    14447      -16        -335       0.84       3306.06    45.456     11550     
2721.4     4.02       231        32         0          0          249.563    14447      -16        -335       0.82       3303.97    45.402     11537     
2721.6     3.9        224        77         0          0          249.583    14448      -16        -342       0.84       3301.9     45.385     11533     
2721.8     4.05       232        227        0          0          249.603    14449      -16        -339       0.84       3299.8     45.369     11529     
2722       4.18       240        1338       0          0          249.623    14450      -16        -339       0.84       3297.58    45.347     11523     
2722.2     4.22       242        271        0          0          249.623    14450      -16        -345       0.84       3295.54    45.308     11514     
2722.4     4.13       237        262        0          0          249.683    14453      -16        -337       0.82       3293.44    45.282     11508     
2722.6     4.3        247        354        0          0          249.683    14453      -16        -338       0.82       3291.38    45.254     11501     
2722.8     4.63       266        414        0          1          249.703    14454      -16        -342       0.82       3289.28    45.238     11497     
2723       4.78       274        689        0          0          249.738    14456      -16        -343       0.82       3287.16    45.24      11497     
2723.2     4.88       280        493        0          0          249.73     14455      -16        -347       0.82       3285.03    45.229     11495     
2723.4     5.07       291        492        0          0          249.763    14457      -16        -341       0.82       3282.94    45.214     11491     
2723.6     4.87       280        169        0          0          249.776    14458      -16        -342       0.82       3280.87    45.219     11492     
2723.8     4.37       251        206        0          0          249.803    14459      -16        -341       0.83       3278.78    45.22      11493     
2724       4.74       272        187        0          0          249.808    14459      -16        -340       0.82       3276.65    45.207     11489     
2724.2     5.39       310        201        0          0          249.842    14461      -16        -344       0.84       3274.64    45.213     11491     
2724.4     5.45       313        346        0          0          249.862    14462      -16        -339       0.84       3272.52    45.215     11491     
2724.6     5.53       318        347        0          0          249.882    14463      -16        -339       0.82       3270.39    45.214     11491     
2724.8     5.32       306        188        0          0          249.922    14465      -16        -340       0.82       3268.29    45.225     11494     
2725       4.85       279        345        0          0          249.917    14465      -16        -343       0.82       3266.15    45.231     11496     
2725.2     4.4        253        340        0          0          249.949    14466      -16        -342       0.82       3264.01    45.238     11497     
2725.4     4.7        270        195        0          0          249.962    14467      -16        -334       0.82       3262       45.246     11499     
2725.6     5.08       292        452        0          0          249.962    14467      -16        -341       0.82       3259.85    45.25      11500     
2725.8     5.27       303        453        0          0          249.962    14467      -16        -338       0.82       3257.75    45.276     11506     
2726       5.36       308        262        0          0          249.956    14467      -16        -338       0.82       3255.62    45.288     11509     
2726.2     5.44       312        590        0          0          249.962    14467      -16        -343       0.82       3253.49    45.304     11513     
2726.4     5.63       324        383        0          0          249.982    14468      -16        -341       0.82       3251.49    45.324     11518     
2726.6     5.13       295        397        0          0          250.055    14472      -16        -335       0.82       3249.33    45.353     11525     
2726.8     4.68       269        478        0          0          250.062    14472      -16        -338       0.82       3247.23    45.363     11527     
2727       4.29       246        1150       0          0          250.102    14474      -16        -343       0.82       3245.09    45.402     11537     
2727.2     4.33       249        4728       0          0          250.121    14475      -16        -338       0.82       3243.05    45.435     11545     
2727.4     4.62       266        23039      0          0          250.121    14475      -16        -330       0.82       3240.89    45.454     11549     
2727.6     4.3        247        292        0          0          250.168    14477      -16        -339       0.83       3238.76    45.502     11561     
2727.8     4.3        247        70         0          0          250.181    14478      -16        -335       0.82       3236.66    45.54      11570     
2728       4.54       261        178        0          0          250.171    14477      -16        -332       0.82       3234.5     45.543     11571     
2728.2     4.68       269        312        0          0          250.208    14479      -16        -333       0.82       3232.5     45.592     11583     
2728.4     4.72       271        303        0          0          250.241    14481      -16        -335       0.82       3230.36    45.625     11591     
2728.6     4.74       273        293        0          0          250.256    14482      -16        -336       0.82       3228.21    45.67      11602     
2728.8     5.51       317        161        0          0          250.301    14484      -16        -338       0.83       3226.1     45.691     11607     
2729       6.07       349        165        0          0          250.294    14484      -16        -337       0.82       3224.02    45.735     11618     
2729.2     5.17       297        287        0          0          250.286    14483      -16        -337       0.82       3221.79    45.781     11629     
2729.4     4.87       280        219        0          0          250.341    14486      -16        -340       0.84       3219.67    45.825     11639     
2729.6     4.5        258        164        0          0          250.361    14487      -16        -338       0.82       3217.59    45.88      11653     
2729.8     4.91       282        402        0          0          250.361    14487      -16        -335       0.82       3215.42    45.919     11662     
2730       5.7        328        500        0          0          250.374    14488      -16        -330       0.82       3213.35    45.966     11674     
2730.2     6.84       393        155        0          0          250.401    14489      -16        -327       0.82       3211.17    46.045     11693     
2730.4     8.04       462        377        0          0          250.406    14489      -16        -322       0.83       3209.06    46.074     11700     
2730.6     8.39       482        297        2          0          250.447    14491      -13        -325       0.82       3206.54    46.14      11716     
