~Version
 VERS              .         2.0                           : CWLS LOG ASCII STANDARD - VERSION 2.0
 WRAP              .         NO                            : ONE LINE PER DEPTH STEP
 DLM               .         SPACE                         : DELIMITING CHARACTER(SPACE TAB OR COMMA)
~Well Information
#_______________________________________________________________________________
#
#PARAMETER_NAME    .UNIT     VALUE                         : DESCRIPTION
#_______________________________________________________________________________
STRT               .M        10.2                          : First reference value
STOP               .M        2753.6                        : Last reference value
STEP               .M        0.2                           : Step increment
NULL               .         -9999                         : Missing value
COMP               .                                       : Company
WELL               .         616                           : Well name
FLD                .                                       : Field
LOC                .                                       : Location
CNTY               .                                       : County
STAT               .                                       : State
CTRY               .                                       : Country
SRVC               .                                       : Service Company
DATE               .                                       : Date
API                .                                       : API number
PROJECT_UPGRADE_TIME .         2021-03-18T21_24_50           : 
group              .         Good                          : 
~Parameter Information Block
#_______________________________________________________________________________
#
#PARAMETER_NAME    .UNIT     VALUE                         : DESCRIPTION
#_______________________________________________________________________________
SET                .         D7028_D                       : 
OTHER              .         Kedr.exe версия 2.1.2.32      : 
OTHER_10           .         TM.GRD = 0.00404*TM$.UE + 0.07: 
OTHER_11           .         MN.ATM = (6.33279e-006*TM.GRD + 0.02401)*(MN$.UE + 2.72*TM.GRD + -2018): 
OTHER_12           .         GK.MKR/H = GK$.UE / 43.5489 + 0: 
OTHER_13           .         RES.SM = 0.00476*CRES.UE - 1.51709: 
OTHER_14           .         PL.GSM3 = 0 + 0 * (PL.UE / 1) +  0 * (PL.UE / 1)^2: 
OTHER_15           .         Постоянная времени ГГП = 6 сек: 
OTHER_16           .         Постоянная времени ГК = 6 сек : 
OTHER_2            .         KedrData.dll версия 3.2.2.14  : 
OTHER_3            .         LasInf.dll версия 3.2.0.13    : 
OTHER_4            .         Драйвер версия 1.2.0.5        : 
OTHER_5            .         Прибор_ КСА-M1                : 
OTHER_6            .         Номер прибора_ 155+р204       : 
OTHER_7            .         Режим_ КСА-М1 + ГГП + Резистивиметр: 
OTHER_8            .         Форма_ 223\2                  : 
OTHER_9            .         Тарировки_                    : 
PROJECT_UPGRADE_TIME .         2021-03-18T21_24_50           : 
TLFamily_CRES      .                                       : 
TLFamily_DEPT      .         Measured Depth                : 
TLFamily_GK        .         Gamma Ray                     : 
TLFamily_GK$       .                                       : 
TLFamily_LM        .         Casing Collar locator         : 
TLFamily_METKA     .                                       : 
TLFamily_MN        .                                       : 
TLFamily_MN$       .                                       : 
TLFamily_PL        .                                       : 
TLFamily_PL_2      .                                       : 
TLFamily_RCOR      .                                       : 
TLFamily_RES       .         Mud Resistivity               : 
TLFamily_SPID      .         Spontaneous Potential         : 
TLFamily_STD       .                                       : 
TLFamily_TIME      .         Time                          : 
TLFamily_TM        .         Temperature                   : 
TLFamily_TM$       .         Temperature                   : 
TLFamily_VGD       .         Gas Volume                    : 
group              .         prim                          : 
~Curve Information
#_______________________________________________________________________________
#
#LOGNAME           .UNIT     LOG_ID                        : DESCRIPTION
#_______________________________________________________________________________
DEPT               .M                                      : 1 Глубина, м -    0.0 см 
CRES               .UE                                     : 9 Проводимость, усл.ед. -  222.0 см 
GK                 .MKR/H                                  : 16 Гамма-активность, мкр./ч -  106.0 см 
GK$                .UE                                     : 13 Гамма-активность, усл.ед. -  106.0 см 
LM                 .                                       : 11 Локатор муфт,  -   16.0 см 
METKA              .                                       : 3 Метки,  -    0.0 см 
MN                 .ATM                                    : 15 Давление, атм. -  160.0 см 
MN$                .UE                                     : 7 Давление, усл.ед. -  160.0 см 
PL                 .UE                                     : 10 Плотность, усл.ед. -  270.0 см 
PL_2               .GSM3                                   : 18 Плотность, г./см3 -  270.0 см 
RCOR               .CM/KM                                  : 5 Коррекция по ролику, см/км -    0.0 см 
RES                .SM                                     : 17 Проводимость,  -  222.0 см 
SPID               .M/H                                    : 2 Скорость, м/час -    0.0 см 
STD                .                                       : 12 Приток,  -  170.0 см 
TIME               .S                                      : 4 Время, сек -    0.0 см 
TM                 .GRD                                    : 14 Температура, °C -  180.0 см 
TM$                .UE                                     : 6 Температура, усл.ед. -  180.0 см 
VGD                .                                       : 8 Влагомер,  -  170.0 см 
~Ascii
# ...
920.4      966        9.27       390        1746       0          84.508     5417       14         0          0          3.0811     -1860      6488       22361.33   33.154     8189       6518      
920.6      966        9.34       396        2224       0          84.518     5417       14         0          0          3.08       -1848      6489       22360.94   33.162     8191       6517      
920.8      965        9.4        419        2091       0          84.545     5418       14         0          0          3.0763     -1790      6489       22360.52   33.165     8192       6517      
921        965        9.33       419        2372       0          84.558     5419       13         0          0          3.0751     -1790      6490       22360.12   33.173     8194       6523      
921.2      964        9.24       419        1507       0          84.571     5420       14         0          0          3.0729     -1790      6492       22359.72   33.18      8195       6518      
921.4      965        9.15       419        2000       0          84.597     5421       13         0          0          3.0763     -1818      6494       22359.32   33.182     8196       6518      
921.6      965        9.04       419        2209       0          84.609     5421       14         0          0          3.0746     -1860      6495       22358.92   33.189     8198       6525      
921.8      964        8.89       419        2032       0          84.635     5422       13         0          0          3.0715     -1828      6496       22358.53   33.194     8199       6524      
922        964        8.72       389        2341       0          84.657     5423       13         0          0          3.0737     -1823      6496       22358.14   33.198     8200       6531      
922.2      965        8.66       389        2047       0          84.666     5423       14         0          0          3.0763     -1860      6497       22357.74   33.203     8201       6525      
922.4      964        8.6        389        1476       0          84.706     5425       14         0          0          3.0716     -1821      6499       22357.35   33.206     8202       6522      
922.6      966        8.52       389        1881       0          84.707     5425       13         0          0          3.0808     -1833      6499       22356.95   33.207     8202       6520      
922.8      965        8.42       389        2192       0          84.716     5425       14         0          0          3.0763     -1817      6500       22356.55   33.213     8204       6517      
923        965        8.3        382        2049       0          84.732     5426       14         0          0          3.0771     -1790      6501       22356.16   33.22      8205       6515      
923.2      966        8.19       342        2399       0          84.753     5427       14         0          0          3.0791     -1790      6501       22355.76   33.224     8206       6514      
923.4      964        8.27       342        1594       0          84.792     5428       14         0          0          3.0715     -1842      6503       22355.36   33.228     8207       6505      
923.6      964        8.38       342        2146       0          84.806     5429       14         0          0          3.0701     -1860      6505       22354.96   33.234     8209       6504      
923.8      964        8.5        342        1463       0          84.807     5429       14         0          0          3.0698     -1804      6506       22354.57   33.24      8210       6507      
924        965        8.65       342        1794       0          84.834     5430       13         0          0          3.0763     -1790      6506       22354.17   33.247     8212       6504      
924.2      965        8.85       342        2059       0          84.841     5430       14         0          0          3.0763     -1790      6507       22353.77   33.251     8213       6505      
924.4      965        9.09       366        2213       0          84.862     5431       13         0          0          3.0743     -1856      6508       22353.36   33.258     8215       6510      
924.6      964        9.26       398        1955       0          84.881     5432       14         0          0          3.0715     -1794      6509       22352.97   33.263     8216       6504      
924.8      964        9.28       398        2292       0          84.898     5433       13         0          0          3.0715     -1790      6512       22352.57   33.265     8217       6526      
925        965        9.32       398        2337       0          84.924     5434       14         0          0          3.074      -1794      6511       22352.17   33.269     8218       6525      
925.2      965        9.36       398        1830       0          84.93      5434       14         0          0          3.0763     -1860      6512       22351.79   33.277     8219       6526      
925.4      964        9.41       398        1614       0          84.95      5435       14         0          0          3.0736     -1860      6513       22351.37   33.279     8220       6525      
925.6      965        9.48       416        2269       0          84.956     5435       14         0          0          3.0776     -1860      6513       22350.99   33.285     8222       6526      
925.8      966        9.46       426        2419       0          84.957     5435       14         0          0          3.0811     -1860      6515       22350.59   33.294     8224       6528      
926        966        9.38       426        1986       0          85.003     5437       14         0          0          3.0811     -1860      6516       22350.21   33.302     8226       6527      
926.2      965        9.29       426        1988       0          85.029     5438       14         0          0          3.0776     -1860      6517       22349.81   33.303     8226       6526      
926.4      964        9.17       426        2389       0          85.007     5437       13         0          0          3.0727     -1860      6519       22349.43   33.311     8228       6526      
926.6      966        9.02       426        2126       0          85.056     5439       13         0          0          3.0795     -1844      6519       22349.04   33.319     8230       6529      
926.8      966        8.84       426        2186       0          85.081     5440       14         0          0          3.0811     -1811      6520       22348.63   33.319     8230       6528      
927        965        8.63       383        1920       0          85.104     5441       14         0          0          3.0768     -1860      6522       22348.24   33.323     8231       6526      
927.2      965        8.58       376        1871       0          85.109     5441       13         0          0          3.0763     -1839      6523       22347.85   33.325     8231       6528      
927.4      966        8.57       376        1295       0          85.129     5442       14         0          0          3.0808     -1831      6523       22347.46   33.335     8234       6529      
927.6      966        8.56       376        1762       0          85.133     5442       14         0          0          3.0806     -1872      6524       22347.06   33.335     8234       6527      
927.8      964        8.54       376        1718       0          85.159     5443       13         0          0          3.072      -1790      6525       22346.67   33.337     8234       6526      
928        966        8.52       376        2329       0          85.184     5444       14         0          0          3.0811     -1819      6526       22346.28   33.344     8236       6527      
928.2      966        8.49       369        2401       0          85.204     5445       14         0          0          3.0808     -1860      6528       22345.89   33.349     8237       6529      
928.4      965        8.49       369        2652       0          85.212     5445       14         0          0          3.0763     -1860      6530       22345.5    33.357     8239       6522      
