~Version
 VERS              .         2.0                           : CWLS LOG ASCII STANDARD - VERSION 2.0
 WRAP              .         NO                            : ONE LINE PER DEPTH STEP
 DLM               .         SPACE                         : DELIMITING CHARACTER(SPACE TAB OR COMMA)
~Well Information
#_______________________________________________________________________________
#
#PARAMETER_NAME    .UNIT     VALUE                         : DESCRIPTION
#_______________________________________________________________________________
STRT               .M        2701                          : First reference value
STOP               .M        2765.600097                   : Last reference value
STEP               .M        0.2000003                     : Step increment
NULL               .         -9999                         : Missing value
COMP               .                                       : Company
WELL               .         616                           : Well name
FLD                .                                       : Field
LOC                .                                       : Location
CNTY               .                                       : County
STAT               .                                       : State
CTRY               .                                       : Country
SRVC               .                                       : Service Company
DATE               .                                       : Date
API                .                                       : API number
PROJECT_UPGRADE_TIME .         2021-03-18T21_24_50           : 
group              .         Good                          : 
~Parameter Information Block
#_______________________________________________________________________________
#
#PARAMETER_NAME    .UNIT     VALUE                         : DESCRIPTION
#_______________________________________________________________________________
SET                .         D7018_D_2                     : 
NPR                .         155                           : Номер прибора
OTHER              .         Kedr.exe версия 2.1.2.32      : 
OTHER_10           .         TM.GRD = 0.00404*TM$.UE + 0.07: 
OTHER_11           .         MN.ATM = (6.33279e-006*TM.GRD + 0.02401)*(MN$.UE + 2.72*TM.GRD + -2018): 
OTHER_12           .         GK.MKR/H = GK$.UE / 43.5489 + 0: 
OTHER_13           .         RES.SM = 0.00476*CRES.UE - 1.51709: 
OTHER_14           .         PL.GSM3 = 0 + 0 * (PL.UE / 1) +  0 * (PL.UE / 1)^2: 
OTHER_15           .         Постоянная времени ГГП = 6 сек: 
OTHER_16           .         Постоянная времени ГК = 6 сек : 
OTHER_2            .         KedrData.dll версия 3.2.2.14  : 
OTHER_3            .         LasInf.dll версия 3.2.0.13    : 
OTHER_4            .         Драйвер версия 1.2.0.5        : 
OTHER_5            .         Прибор_ КСА-M1                : 
OTHER_6            .         Номер прибора_ 155+р204       : 
OTHER_7            .         Режим_ КСА-М1 + ГГП + Резистивиметр: 
OTHER_8            .         Форма_ 223\2                  : 
OTHER_9            .         Тарировки_                    : 
PR                 .         КСА-Т7 М1                     : Тип прибора
PROJECT_UPGRADE_TIME .         2021-03-18T21_24_50           : 
PRTY               .         ПП-223_2                      : Номер партии
SRV                .         ЦКРС                          : Заказчик
SRVC               .         Лузин  А.Б.                   : Начальник партии
TLFamily_DEPT      .         Measured Depth                : 
TLFamily_LM        .         Casing Collar locator         : 
TLFamily_MN        .                                       : 
TLFamily_SPID      .         Spontaneous Potential         : 
TLFamily_TM        .         Temperature                   : 
group              .         second                        : 
~Curve Information
#_______________________________________________________________________________
#
#LOGNAME           .UNIT     LOG_ID                        : DESCRIPTION
#_______________________________________________________________________________
DEPT               .M                                      : Depth curve 
LM                 .е.ацп                                  : Локация муфт 
MN                 .атм                                    : Манометрия, атм 
SPID               .м/ч                                    : Скорость записи,м/час 
TM                 .град.С                                 : Термометрия,град.С 
~Ascii
2701.0000000 -9999      -9999      -9999      -9999     
2701.2     -9999      -9999      -260       -9999     
2701.400001 127        -9999      -260       -9999     
2701.600001 126        -9999      -233       -9999     
2701.800001 117        -9999      -259       -9999     
2702.000002 388        -9999      -260       -9999     
2702.200002 6220       -9999      -260       -9999     
2702.400002 882        -9999      -260       -9999     
2702.600002 121        -9999      -190       -9999     
2702.800003 113        247.52     -260       -9999     
2703.000003 105        247.52     -260       46.54     
2703.200003 133        247.56     -260       46.53     
2703.400004 134        247.58     -260       46.52     
2703.600004 116        247.6      -260       46.5      
2703.800004 132        247.62     -260       46.47     
2704.000005 110        247.64     -260       46.47     
2704.200005 126        247.65     -190       46.46     
2704.400005 130        247.69     -260       46.46     
2704.600005 97         247.69     -260       46.46     
2704.800006 102        247.71     -260       46.44     
2705.000006 107        247.73     -320       46.42     
2705.200006 129        247.75     -320       46.39     
2705.400007 92         247.78     -260       46.39     
2705.600007 66         247.78     -260       46.38     
2705.800007 49         247.78     -300       46.36     
2706.000007 51         247.83     -260       46.35     
2706.200008 59         247.85     -260       46.34     
2706.400008 68         247.88     -260       46.34     
2706.600008 100        247.89     -260       46.32     
2706.800009 303        247.91     -260       46.31     
2707.000009 146        247.94     -260       46.31     
2707.200009 108        247.94     -260       46.31     
2707.40001 108        247.96     -260       46.32     
2707.60001 129        247.96     -190       46.31     
2707.80001 109        247.96     -260       46.3      
2708.00001 113        248.01     -280       46.3      
2708.200011 104        248.05     -280       46.28     
2708.400011 104        248.04     -260       46.27     
2708.600011 131        248.08     -260       46.27     
2708.800012 107        248.13     -260       46.26     
2709.000012 107        248.13     -260       46.25     
2709.200012 114        248.14     -260       46.24     
2709.400013 127        248.14     -213       46.23     
2709.600013 118        248.2      -225       46.23     
2709.800013 98         248.21     -260       46.22     
2710.000014 99         248.21     -260       46.22     
2710.200014 111        248.24     -260       46.21     
2710.400014 115        248.27     -260       46.21     
2710.600014 91         248.28     -260       46.2      
2710.800015 81         248.28     -260       46.2      
2711.000015 105        248.31     -280       46.19     
2711.200015 101        248.35     -260       46.18     
2711.400016 92         248.36     -260       46.18     
2711.600016 91         248.38     -260       46.17     
2711.800016 112        248.39     -191       46.17     
2712.000017 111        248.41     -260       46.17     
2712.200017 104        248.43     -260       46.17     
2712.400017 82         248.44     -260       46.14     
2712.600017 104        248.49     -260       46.14     
2712.800018 123        248.5      -260       46.14     
2713.000018 99         248.54     -260       46.15     
2713.200018 506.004    248.55     -300       46.14     
2713.400019 4847.996   248.57     -260       46.13     
2713.600019 464        248.6      -260       46.13     
2713.800019 113        248.62     -260       46.13     
2714.000019 91         248.57     -260       46.12     
2714.20002 96         248.64     -260       46.11     
2714.40002 117        248.65     -260       46.11     
2714.60002 114        248.69     -213       46.1      
2714.800021 99         248.7      -213       46.1      
2715.000021 97         248.71     -260       46.09     
2715.200021 102        248.74     -260       46.09     
2715.400022 99         248.76     -260       46.08     
2715.600022 95         248.79     -260       46.08     
2715.800022 86         248.79     -260       46.08     
2716.000022 92         248.81     -214       46.08     
2716.200023 104        248.83     -260       46.07     
2716.400023 105        248.86     -260       46.06     
2716.600023 104        248.88     -260       46.05     
2716.800024 136        248.88     -260       46.06     
2717.000024 127        248.88     -260       46.06     
2717.200024 123        248.9      -260       46.06     
2717.400025 100        248.95     -260       46.05     
2717.600025 123        248.95     -260       46.06     
2717.800025 125        248.98     -260       46.06     
2718.000025 121        249        -260       46.05     
2718.200026 113        249        -260       46.05     
2718.400026 141        249.03     -260       46.05     
2718.600026 120        249.05     -260       46.05     
2718.800027 105        249.06     -260       46.05     
2719.000027 110        249.1      -213       46.04     
2719.200027 146        249.1      -260       46.04     
2719.400028 119        249.12     -260       46.04     
2719.600028 108        249.14     -260       46.04     
2719.800028 163        249.14     -260       46.03     
2720.000029 135        249.17     -260       46.03     
2720.200029 139        249.2      -277       46.03     
2720.400029 115        249.22     -260       46.03     
2720.600029 141        249.23     -260       46.03     
2720.80003 109        249.24     -260       46.03     
2721.00003 92         249.25     -260       46.03     
2721.20003 100        249.31     -260       46.03     
2721.400031 110        249.3      -260       46.03     
2721.600031 96         249.31     -260       46.03     
2721.800031 90         249.34     -260       46.02     
2722.000032 121        249.36     -300       46.02     
2722.200032 107        249.39     -290       46.02     
2722.400032 141        249.38     -260       46.02     
2722.600032 116        249.41     -260       46.02     
2722.800033 204        249.44     -280       46.02     
2723.000033 106        249.44     -280       46.03     
2723.200033 105        249.48     -280       46.03     
2723.400034 318        249.48     -260       46.02     
2723.600034 456        249.51     -260       46.02     
2723.800034 254        249.53     -260       46.02     
2724.000034 271.002    249.54     -260       46.02     
2724.200035 1536.998   249.58     -260       46.02     
2724.400035 300        249.58     -260       46.02     
2724.600035 259        249.6      -233       46.02     
2724.800036 446        249.63     -260       46.02     
2725.000036 230        249.65     -260       46.02     
2725.200036 271        249.65     -260       46.02     
2725.400037 66         249.67     -260       46.02     
2725.600037 50         249.7      -260       46.03     
2725.800037 51         249.72     -280       46.03     
2726.000037 65         249.71     -260       46.03     
2726.200038 56         249.74     -260       46.04     
2726.400038 61         249.75     -260       46.03     
2726.600038 67         249.78     -260       46.03     
2726.800039 92         249.8      -320       46.03     
2727.000039 123        249.8      -260       46.03     
2727.200039 177        249.82     -320       46.04     
2727.40004 182        249.83     -260       46.04     
2727.60004 55         249.84     -260       46.04     
2727.80004 78         249.87     -260       46.04     
2728.000041 120        249.83     -260       46.04     
2728.200041 119        249.9      -260       46.05     
2728.400041 205        249.92     -260       46.05     
2728.600041 242        249.92     -320       46.05     
2728.800042 263        249.95     -260       46.05     
2729.000042 114        249.94     -260       46.04     
2729.200042 222        249.96     -260       46.02     
2729.400043 216        249.99     -260       45.97     
2729.600043 393        250        -260       45.97     
