~Version
 VERS              .         2.0                           : CWLS LOG ASCII STANDARD - VERSION 2.0
 WRAP              .         NO                            : ONE LINE PER DEPTH STEP
 DLM               .         SPACE                         : DELIMITING CHARACTER(SPACE TAB OR COMMA)
~Well Information
#_______________________________________________________________________________
#
#PARAMETER_NAME    .UNIT     VALUE                         : DESCRIPTION
#_______________________________________________________________________________
STRT               .M        46                            : First reference value
STOP               .M        2756.6                        : Last reference value
STEP               .M        0.2                           : Step increment
NULL               .         -9999                         : Missing value
COMP               .                                       : Company
WELL               .         616                           : Well name
FLD                .                                       : Field
LOC                .                                       : Location
CNTY               .                                       : County
STAT               .                                       : State
CTRY               .                                       : Country
SRVC               .                                       : Service Company
DATE               .                                       : Date
API                .                                       : API number
PROJECT_UPGRADE_TIME .         2021-03-18T21_24_50           : 
group              .         Good                          : 
~Parameter Information Block
#_______________________________________________________________________________
#
#PARAMETER_NAME    .UNIT     VALUE                         : DESCRIPTION
#_______________________________________________________________________________
SET                .         D4390_D                       : 
OTHER              .         Запись производится в присутствии: 
OTHER_10           .         Максимальная температура      : 
OTHER_100          .         GK.FLT = 0.1*GR.UR/H[-1] + (1-0.1)*GR.UR/H[0]: 
OTHER_11           .         Тип промывочной жидкости      : 
OTHER_12           .         Сопротивление ПЖ (Ом*м) при 20°C: 
OTHER_13           .         Плотность ПЖ(г/см3)           : 
OTHER_14           .         Вязкость ПЖ(с)                : 
OTHER_15           .         Водоотдача ПЖ(см3/30мин)      : 
OTHER_16           .         Уровень ПЖ                    : 
OTHER_17           .         Нефть ПЖ (%)                  : 
OTHER_18           .         Барит ПЖ (%)                  : 
OTHER_19           .         Гематит ПЖ (%)                : 
OTHER_2            .         Заказчик ННСН  ЦДНГ-1         : 
OTHER_20           .         КМЦ ПЖ (%)                    : 
OTHER_21           .         Разгазирование ПЖ (да,нет)    : 
OTHER_22           .         Подъемник                     : 
OTHER_23           .         Лаборатория                   : 
OTHER_24           .         Тип кабеля                    : 
OTHER_25           .         Длина кабеля (м)              : 
OTHER_26           .         Цена последней метки          : 
OTHER_27           .         Цена контрольной метки        : 
OTHER_28           .         Диаметр долота (мм)           : 
OTHER_29           .         Глубина бурения (м)           : 
OTHER_3            .         Площадь                       : 
OTHER_30           .         Искусственный забой (м)       : 
OTHER_31           .         Диаметр колонны (мм)          : 
OTHER_32           .         Толщина колонны (мм)          : 
OTHER_33           .         Башмак колонны (м)            : 
OTHER_34           .         Диаметр НКТ (мм)              : 
OTHER_35           .         Толщина НКТ (мм)              : 
OTHER_36           .         Воронка НКТ (м)               : 
OTHER_37           .         Дата цементожа                : 
OTHER_38           .         Тип, количество(т) и плотность цемента: 
OTHER_39           .         Интервалы перфорации (м)      : 
OTHER_4            .         Категория                     : 
OTHER_40           .         Направление, диаметр (мм)     : 
OTHER_41           .         Направление, глубина (м)      : 
OTHER_42           .         Кондуктор, диаметр (мм)       : 
OTHER_43           .         Кондуктор, глубина (м)        : 
OTHER_44           .         Техническая колонна, диаметр (мм): 
OTHER_45           .         Техническая колонна, глубина (м): 
OTHER_46           .         Эксплуатационная колонна, диаметр (мм): 
OTHER_47           .         Эксплуатационная колонна, глубина (м): 
OTHER_48           .         Программа Кедр-02 версия 3.4  : 
OTHER_49           .         Операционная система Windows NT 5.1 build 2600 Service Pack 2: 
OTHER_5            .         Назначение исследований       : 
OTHER_50           .         Программное обеспечение станции MONITOR-386EX 25/12/99 15_08_10   BGF V54 20/09/05 15_32_17   3.3__BGF_9030071: 
OTHER_51           .         Kedr.exe версия 3.4.2.74      : 
OTHER_52           .         KedrData.dll версия 3.4.2.29  : 
OTHER_53           .         Мнемоники версия 3.18 S       : 
OTHER_54           .         Драйвер версия 2.1.1.4        : 
OTHER_55           .         LasInf.dll 4.3.0.35           : 
OTHER_56           .         Прибор_ КСА-Т4                : 
OTHER_57           .         Номер прибора_ 160            : 
OTHER_58           .         Режим_ КСА-Т4                 : 
OTHER_59           .         Форма_ С.А.Б.                 : 
OTHER_6            .         Альтитуда стола ротора        : 
OTHER_60           .         Тарировки_                    : 
OTHER_61           .         <_techsia_sc_> Дата тарировки температуры 25.05.2010: 
OTHER_62           .         Ручной ввод коэффициентов     : 
OTHER_63           .         TM.DEGC = 0.00402*RTM.E.ACP + -0.994: 
OTHER_64           .         <_techsia_sc_> Дата тарировки давления 25.05.2010: 
OTHER_65           .         Ручной ввод коэффициентов     : 
OTHER_66           .         MN.ATM = (2.27521e-006*TM.DEGC + 0.02078)*(RMN.E.ACP + 6.2*TM.DEGC + -1688): 
OTHER_67           .         <_techsia_sc_> Дата тарировки ГК 25.05.2010: 
OTHER_68           .         Ручной ввод коэффициентов     : 
OTHER_69           .         GR.UR/H = RGR.IMP/MIN / 45.5144: 
OTHER_7            .         Вид исследований 3  6         : 
OTHER_70           .         GK.FLT = 0.1*GR.UR/H[-1] + (1-0.1)*GR.UR/H[0]: 
OTHER_71           .         <_techsia_sc_> Дата тарировки температуры 25.05.2010: 
OTHER_72           .         Ручной ввод коэффициентов     : 
OTHER_73           .         TM.DEGC = 0.00402*RTM.E.ACP + -0.994: 
OTHER_74           .         <_techsia_sc_> Дата тарировки давления 25.05.2010: 
OTHER_75           .         Ручной ввод коэффициентов     : 
OTHER_76           .         MN.ATM = (2.27521e-006*TM.DEGC + 0.02078)*(RMN.E.ACP + 6.2*TM.DEGC + -1688): 
OTHER_77           .         <_techsia_sc_> Дата тарировки ГК 25.05.2010: 
OTHER_78           .         Ручной ввод коэффициентов     : 
OTHER_79           .         GR.UR/H = RGR.IMP/MIN / 45.5144: 
OTHER_8            .         Начало бурения интервала каротажа: 
OTHER_80           .         GK.FLT = 0.1*GR.UR/H[-1] + (1-0.1)*GR.UR/H[0]: 
OTHER_81           .         <_techsia_sc_> Дата тарировки температуры 25.05.2010: 
OTHER_82           .         Ручной ввод коэффициентов     : 
OTHER_83           .         TM.DEGC = 0.00402*RTM.E.ACP + -0.994: 
OTHER_84           .         <_techsia_sc_> Дата тарировки давления 25.05.2010: 
OTHER_85           .         Ручной ввод коэффициентов     : 
OTHER_86           .         MN.ATM = (2.27521e-006*TM.DEGC + 0.02078)*(RMN.E.ACP + 6.2*TM.DEGC + -1688): 
OTHER_87           .         <_techsia_sc_> Дата тарировки ГК 25.05.2010: 
OTHER_88           .         Ручной ввод коэффициентов     : 
OTHER_89           .         GR.UR/H = RGR.IMP/MIN / 45.5144: 
OTHER_9            .         Окончание бурения интервала каротажа: 
OTHER_90           .         GK.FLT = 0.1*GR.UR/H[-1] + (1-0.1)*GR.UR/H[0]: 
OTHER_91           .         <_techsia_sc_> Дата тарировки температуры 25.05.2010: 
OTHER_92           .         Ручной ввод коэффициентов     : 
OTHER_93           .         TM.DEGC = 0.00402*RTM.E.ACP + -0.994: 
OTHER_94           .         <_techsia_sc_> Дата тарировки давления 25.05.2010: 
OTHER_95           .         Ручной ввод коэффициентов     : 
OTHER_96           .         MN.ATM = (2.27521e-006*TM.DEGC + 0.02078)*(RMN.E.ACP + 6.2*TM.DEGC + -1688): 
OTHER_97           .         <_techsia_sc_> Дата тарировки ГК 25.05.2010: 
OTHER_98           .         Ручной ввод коэффициентов     : 
OTHER_99           .         GR.UR/H = RGR.IMP/MIN / 45.5144: 
PROJECT_UPGRADE_TIME .         2021-03-18T21_24_50           : 
TLFamily_CCLC      .                                       : 
TLFamily_DEPT      .         Measured Depth                : 
TLFamily_GK        .         Gamma Ray                     : 
TLFamily_GR        .         Gamma Ray                     : 
TLFamily_METKA     .                                       : 
TLFamily_MN        .                                       : 
TLFamily_RCOR      .                                       : 
TLFamily_RGR       .                                       : 
TLFamily_RMN       .                                       : 
TLFamily_RTEN      .                                       : 
TLFamily_RTM       .                                       : 
TLFamily_SPEE      .         Cable Speed                   : 
TLFamily_TIME      .         Time                          : 
TLFamily_TM        .         Temperature                   : 
group              .         prim                          : 
~Curve Information
#_______________________________________________________________________________
#
#LOGNAME           .UNIT     LOG_ID                        : DESCRIPTION
#_______________________________________________________________________________
DEPT               .M                                      : 1 Глубина, м -    0.0 см 
CCLC               .E.ACP                                  : 9 Локатор муфт,  -   20.0 см 
GK                 .FLT                                    : 14 Гамма-активность фильтрованная, мкр./ч -  110.0 см 
GR                 .UR/H                                   : 13 Гамма-активность, мкр./ч -  110.0 см 
METKA              .CU                                     : 3 Метки,  -    0.0 см 
MN                 .ATM                                    : 12 Давление, атм. -  160.0 см 
RCOR               .CM/KM                                  : 5 Коррекция по ролику, см/км -    0.0 см 
RGR                .IMP/MIN                                : 10 Гамма-активность, усл.ед. -  110.0 см 
RMN                .E.ACP                                  : 8 Давление, усл.ед. -  160.0 см 
RTEN               .T                                      : 6 Натяжение кабеля, т -    0.0 см 
RTM                .E.ACP                                  : 7 Температура, усл.ед. -  170.0 см 
SPEE               .M/H                                    : 2 Скорость, м/час -    0.0 см 
TIME               .S                                      : 4 Время, сек -    0.0 см 
TM                 .DEGC                                   : 11 Температура, °C -  170.0 см 
~Ascii
# ...
1845.2     338        5.91       5.91       0          162.692    -914       269        9176       0.13       12276      1668       3950.39    48.354    
1845.4     4994       5.91       5.91       0          162.702    -914       269        9177       0.13       12278      1668       3950.84    48.362    
1845.6     3647       5.91       5.91       0          162.711    -914       269        9177       0.13       12279      1667       3951.28    48.367    
1845.8     2390       5.91       5.91       0          162.746    -914       269        9179       0.13       12281      1667       3951.7     48.376    
1846       1828       5.91       5.91       0          162.772    -914       269        9180       0.13       12282      1667       3952.13    48.381    
1846.2     1473       6.67       6.67       2          162.776    -913       304        9180       0.13       12284      1667       3952.53    48.387    
1846.4     1054       6.77       6.77       0          162.781    -913       308        9180       0.13       12286      1667       3952.98    48.396    
1846.6     928        6.77       6.77       0          162.806    -913       308        9181       0.13       12287      1667       3953.42    48.4      
1846.8     855        6.77       6.77       0          162.84     -913       308        9183       0.13       12289      1667       3953.87    48.407    
1847       1045       6.77       6.77       0          162.864    -913       308        9184       0.13       12290      1666       3954.28    48.412    
1847.2     1077       6.77       6.77       0          162.864    -913       308        9184       0.13       12292      1666       3954.74    48.421    
1847.4     965        6.73       6.73       0          162.885    -913       306        9185       0.13       12294      1666       3955.14    48.427    
1847.6     925        6.72       6.72       0          162.929    -913       306        9187       0.13       12296      1666       3955.59    48.434    
1847.8     984        6.72       6.72       0          162.933    -913       306        9187       0.13       12297      1665       3956.03    48.438    
1848       857        6.72       6.72       0          162.952    -913       306        9188       0.13       12298      1665       3956.48    48.443    
1848.2     660        6.72       6.72       0          162.953    -913       306        9188       0.13       12300      1665       3956.89    48.452    
1848.4     825        6.68       6.68       0          162.969    -913       304        9189       0.13       12301      1665       3957.34    48.457    
1848.6     976        6.66       6.66       0          163.01     -913       303        9191       0.13       12302      1665       3957.75    48.461    
1848.8     1021       6.66       6.66       0          163.018    -913       303        9191       0.13       12304      1665       3958.22    48.468    
1849       965        6.66       6.66       0          163.021    -913       303        9191       0.13       12306      1666       3958.64    48.474    
1849.2     1120       6.66       6.66       0          163.054    -913       303        9193       0.13       12307      1668       3959.09    48.479    
1849.4     1009       6.66       6.66       0          163.083    -913       303        9194       0.13       12308      1669       3959.51    48.484    
1849.6     988        6.58       6.58       0          163.113    -913       300        9195       0.13       12309      1668       3959.95    48.489    
1849.8     980        6.53       6.53       0          163.126    -913       297        9196       0.13       12311      1668       3960.37    48.497    
1850       1050       6.53       6.53       0          163.127    -913       297        9196       0.13       12312      1667       3960.82    48.502    
1850.2     1130       6.53       6.53       0          163.133    -913       297        9196       0.13       12314      1667       3961.23    48.506    
1850.4     1579       6.53       6.53       0          163.178    -913       297        9198       0.13       12316      1666       3961.67    48.514    
1850.6     1153       6.53       6.53       0          163.192    -913       297        9199       0.13       12316      1666       3962.1     48.516    
1850.8     1021       6.48       6.48       0          163.179    -913       295        9198       0.13       12318      1666       3962.53    48.524    
1851       925        6.44       6.44       0          163.205    -913       293        9200       0.13       12318      1666       3962.99    48.526    
1851.2     903        6.44       6.44       0          163.235    -913       293        9201       0.13       12320      1666       3963.43    48.534    
1851.4     787        6.44       6.44       0          163.259    -913       293        9202       0.13       12322      1668       3963.85    48.538    
1851.6     711        6.44       6.44       0          163.279    -913       293        9203       0.13       12323      1669       3964.27    48.543    
1851.8     688        6.39       6.39       0          163.288    -913       291        9203       0.13       12324      1669       3964.7     48.548    
1852       559        6.26       6.26       0          163.313    -913       285        9205       0.13       12325      1668       3965.16    48.553    
1852.2     619        6.26       6.26       0          163.338    -913       285        9206       0.13       12327      1667       3965.56    48.561    
1852.4     519        6.26       6.26       0          163.363    -913       285        9207       0.13       12329      1672       3966       48.567    
1852.6     541        6.26       6.26       0          163.368    -913       285        9207       0.13       12330      1675       3966.43    48.574    
1852.8     596        6.26       6.26       0          163.373    -913       285        9207       0.13       12332      1674       3966.84    48.579    
1853       675        6.3        6.3        0          163.405    -913       287        9209       0.14       12333      1673       3967.28    48.584    
1853.2     668        6.42       6.42       0          163.443    -913       292        9211       0.14       12335      1672       3967.72    48.592    
1853.4     716        6.42       6.42       0          163.454    -913       292        9211       0.14       12336      1671       3968.17    48.597    
1853.6     1028       6.42       6.42       0          163.455    -913       292        9211       0.14       12337      1670       3968.58    48.602    
1853.8     883        6.42       6.42       0          163.456    -913       292        9211       0.14       12338      1670       3969.02    48.606    
1854       911        6.42       6.42       0          163.501    -913       292        9213       0.14       12340      1672       3969.45    48.613    
1854.2     1227       6.42       6.42       0          163.526    -913       292        9214       0.14       12342      1672       3969.9     48.62     
1854.4     1043       6.46       6.46       0          163.542    -913       294        9215       0.14       12343      1671       3970.32    48.624    
1854.6     708        6.46       6.46       0          163.543    -913       294        9215       0.14       12344      1673       3970.77    48.629    
1854.8     852        6.46       6.46       0          163.543    -913       294        9215       0.14       12345      1674       3971.17    48.634    
1855       5138       6.46       6.46       0          163.603    -913       294        9218       0.14       12346      1673       3971.62    48.638    
1855.2     3378       6.46       6.46       0          163.628    -913       294        9219       0.14       12348      1672       3972.02    48.643    
1855.4     2250       5.76       5.76       0          163.624    -913       262        9219       0.14       12349      1674       3972.49    48.648    
