~Version
 VERS              .         2.0                           : CWLS LOG ASCII STANDARD - VERSION 2.0
 WRAP              .         NO                            : ONE LINE PER DEPTH STEP
 DLM               .         SPACE                         : DELIMITING CHARACTER(SPACE TAB OR COMMA)
~Well Information
#_______________________________________________________________________________
#
#PARAMETER_NAME    .UNIT     VALUE                         : DESCRIPTION
#_______________________________________________________________________________
STRT               .M        2647.6                        : First reference value
STOP               .M        2755.199839                   : Last reference value
STEP               .M        0.1999997                     : Step increment
NULL               .         -9999                         : Missing value
COMP               .                                       : Company
WELL               .         616                           : Well name
FLD                .                                       : Field
LOC                .                                       : Location
CNTY               .                                       : County
STAT               .                                       : State
CTRY               .                                       : Country
SRVC               .                                       : Service Company
DATE               .                                       : Date
API                .                                       : API number
PROJECT_UPGRADE_TIME .         2021-03-18T21_24_50           : 
group              .         Good                          : 
~Parameter Information Block
#_______________________________________________________________________________
#
#PARAMETER_NAME    .UNIT     VALUE                         : DESCRIPTION
#_______________________________________________________________________________
SET                .         D7024_D                       : 
OTHER              .         Kedr.exe версия 2.1.2.32      : 
OTHER_10           .         TM.GRD = 0.00404*TM$.UE + 0.07: 
OTHER_11           .         MN.ATM = (6.33279e-006*TM.GRD + 0.02401)*(MN$.UE + 2.72*TM.GRD + -2018): 
OTHER_12           .         GK.MKR/H = GK$.UE / 43.5489 + 0: 
OTHER_13           .         RES.SM = 0.00476*CRES.UE - 1.51709: 
OTHER_14           .         PL.GSM3 = 0 + 0 * (PL.UE / 1) +  0 * (PL.UE / 1)^2: 
OTHER_15           .         Постоянная времени ГГП = 6 сек: 
OTHER_16           .         Постоянная времени ГК = 6 сек : 
OTHER_2            .         KedrData.dll версия 3.2.2.14  : 
OTHER_3            .         LasInf.dll версия 3.2.0.13    : 
OTHER_4            .         Драйвер версия 1.2.0.5        : 
OTHER_5            .         Прибор_ КСА-M1                : 
OTHER_6            .         Номер прибора_ 155+р204       : 
OTHER_7            .         Режим_ КСА-М1 + ГГП + Резистивиметр: 
OTHER_8            .         Форма_ 223\2                  : 
OTHER_9            .         Тарировки_                    : 
PROJECT_UPGRADE_TIME .         2021-03-18T21_24_50           : 
TLFamily_CRES      .                                       : 
TLFamily_DEPT      .         Measured Depth                : 
TLFamily_GK        .         Gamma Ray                     : 
TLFamily_GK$       .                                       : 
TLFamily_LM        .         Casing Collar locator         : 
TLFamily_METKA     .                                       : 
TLFamily_MN        .                                       : 
TLFamily_MN$       .                                       : 
TLFamily_PL        .                                       : 
TLFamily_PL_2      .                                       : 
TLFamily_RCOR      .                                       : 
TLFamily_RES       .         Mud Resistivity               : 
TLFamily_SPID      .         Spontaneous Potential         : 
TLFamily_STD       .                                       : 
TLFamily_TIME      .         Time                          : 
TLFamily_TM        .         Temperature                   : 
TLFamily_TM$       .         Temperature                   : 
TLFamily_VGD       .         Gas Volume                    : 
group              .         prim                          : 
~Curve Information
#_______________________________________________________________________________
#
#LOGNAME           .UNIT     LOG_ID                        : DESCRIPTION
#_______________________________________________________________________________
DEPT               .M                                      : 1 Глубина, м -    0.0 см 
CRES               .UE                                     : 9 Проводимость, усл.ед. -  222.0 см 
GK                 .MKR/H                                  : 16 Гамма-активность, мкр./ч -  106.0 см 
GK$                .UE                                     : 13 Гамма-активность, усл.ед. -  106.0 см 
LM                 .                                       : 11 Локатор муфт,  -   16.0 см 
METKA              .                                       : 3 Метки,  -    0.0 см 
MN                 .ATM                                    : 15 Давление, атм. -  160.0 см 
MN$                .UE                                     : 7 Давление, усл.ед. -  160.0 см 
PL                 .UE                                     : 10 Плотность, усл.ед. -  270.0 см 
PL_2               .GSM3                                   : 18 Плотность, г./см3 -  270.0 см 
RCOR               .CM/KM                                  : 5 Коррекция по ролику, см/км -    0.0 см 
RES                .SM                                     : 17 Проводимость,  -  222.0 см 
SPID               .M/H                                    : 2 Скорость, м/час -    0.0 см 
STD                .                                       : 12 Приток,  -  170.0 см 
TIME               .S                                      : 4 Время, сек -    0.0 см 
TM                 .GRD                                    : 14 Температура, °C -  180.0 см 
TM$                .UE                                     : 6 Температура, усл.ед. -  180.0 см 
VGD                .                                       : 8 Влагомер,  -  170.0 см 
~Ascii
# ...
2663.999975 1252       6.43       284        115        0          369.475    17025      14         0          0          4.4408     584        11118      15938.66   56.7       14017      6692      
2664.199975 1251       6.43       273        79         0          370.393    17063      14         0          0          4.4377     568        11116      15939.96   56.695     14016      6693      
2664.399975 1253       6.33       271        72         0          369.172    17013      14         0          0          4.4456     580        11116      15941.29   56.691     14015      6692      
2664.599974 1248       6.22       260        84         0          369.315    17019      14         0          0          4.4257     534        11117      15942.55   56.689     14015      6697      
2664.799974 1248       6.1        260        123        0          369.168    17013      14         0          0          4.4257     580        11115      15943.86   56.687     14014      6693      
2664.999974 1247       6.26       293        108        0          369.286    17018      14         0          0          4.4186     568        11113      15945.15   56.678     14012      6694      
2665.199974 1249       6.49       293        101        0          368.489    16985      13         0          0          4.4261     510        11114      15946.42   56.674     14011      6694      
2665.399973 1244       6.7        313        136        0          368.968    17005      14         0          0          4.4043     557        11112      15947.76   56.673     14011      6688      
2665.599973 1244       6.94       313        116        0          368.138    16971      14         0          0          4.4028     574        11108      15949.03   56.666     14009      6694      
2665.799973 1253       6.96       297        120        0          367.592    16948      14         0          0          4.4472     524        11105      15950.35   56.656     14006      6695      
2665.999972 1252       6.89       297        92         0          367.16     16931      14         0          0          4.4424     510        11103      15951.63   56.65      14005      6694      
2666.199972 1251       6.74       283        95         0          367.304    16937      14         0          0          4.4356     580        11104      15952.94   56.646     14004      6697      
2666.399972 1250       6.62       283        88         0          367.341    16938      14         0          0          4.4353     533        11103      15954.28   56.646     14004      6695      
2666.599971 1250       6.54       280        103        0          368.438    16983      14         0          0          4.4346     580        11103      15955.55   56.646     14004      6698      
2666.799971 1249       6.48       280        112        0          366.73     16913      14         0          0          4.4281     522        11102      15956.88   56.638     14002      6696      
2666.999971 1252       6.64       302        103        0          369.522    17028      14         0          0          4.4415     580        11100      15958.15   56.63      14000      6695      
2667.199971 1248       6.78       302        85         0          368.838    17000      14         0          0          4.4234     580        11098      15959.45   56.626     13999      6695      
2667.39997 1250       7.17       334        69         0          369.552    17029      14         0          0          4.4315     568        11096      15960.75   56.62      13997      6694      
2667.59997 1243       7.41       334        88         0          371.372    17104      14         0          0          4.3996     510        11097      15962.09   56.618     13997      6695      
2667.79997 1246       7.56       336        90         0          369.765    17038      14         0          0          4.4131     510        11095      15963.42   56.614     13996      6692      
2667.999969 1245       7.56       317        90         0          369.773    17038      14         0          0          4.4091     580        11093      15964.69   56.606     13994      6692      
2668.199969 1247       7.14       292        68         0          369.883    17043      14         0          0          4.42       510        11092      15966.01   56.606     13994      6686      
2668.399969 1248       6.93       292        59         0          369.449    17025      14         0          0          4.4234     533        11092      15967.34   56.602     13993      6694      
2668.599968 1250       6.67       279        92         0          368.907    17003      14         0          0          4.4345     540        11092      15968.64   56.598     13992      6694      
2668.799968 1247       6.57       285        80         0          368.711    16995      14         0          0          4.4163     580        11090      15969.95   56.594     13991      6697      
2668.999968 1248       6.66       294        95         0          368.024    16967      14         0          0          4.4226     568        11090      15971.28   56.59      13990      6698      
2669.199968 1245       6.77       310        81         0          368.306    16978      14         0          0          4.4091     550        11091      15972.59   56.586     13989      6699      
2669.399967 1246       6.95       310        100        0          368.043    16967      14         0          0          4.4132     580        11092      15973.89   56.582     13988      6699      
2669.599967 1245       7.11       323        82         0          368.031    16967      14         0          0          4.4068     510        11091      15975.22   56.577     13987      6698      
2669.799967 1249       7.26       323        153        0          367.962    16964      14         0          0          4.4274     568        11090      15976.47   56.571     13985      6698      
2669.999966 1250       7.41       337        192        0          369.811    17040      14         0          0          4.4321     580        11088      15977.74   56.565     13984      6697      
2670.199966 1250       7.57       337        113        1          369.417    17024      14         0          0          4.4336     568        11089      15979.56   56.564     13984      6697      
2670.399966 1248       7.54       320        4633       0          371.099    17093      14         0          0          4.425      522        11089      15980.9    56.559     13982      6688      
2670.599966 1247       7.44       320        1781       0          370.993    17089      14         0          0          4.4186     534        11088      15982.17   56.55      13980      6695      
2670.799965 1246       7.25       302        438        0          370.094    17052      14         0          0          4.4152     533        11087      15983.5    56.541     13978      6698      
2670.999965 1246       7.09       302        152        0          370.124    17053      14         0          0          4.4139     580        11087      15984.83   56.537     13977      6696      
2671.199965 1246       7.4        334        92         0          369.507    17028      14         0          0          4.4155     568        11085      15986.1    56.529     13975      6689      
2671.399964 1247       7.57       343        99         0          369.493    17027      14         0          0          4.4186     580        11085      15987.41   56.525     13974      6697      
2671.599964 1246       8.22       387        125        0          369.317    17020      14         0          0          4.4139     533        11085      15988.71   56.518     13972      6698      
2671.799964 1249       8.68       418        89         0          370.08     17052      14         0          0          4.4266     510        11088      15990.04   56.517     13972      6700      
2671.999963 1250       9.32       433        86         0          371.372    17105      14         0          0          4.4321     568        11083      15991.31   56.505     13969      6698      
