~Version
 VERS              .         2.0                           : CWLS LOG ASCII STANDARD - VERSION 2.0
 WRAP              .         NO                            : ONE LINE PER DEPTH STEP
 DLM               .         SPACE                         : DELIMITING CHARACTER(SPACE TAB OR COMMA)
~Well Information
#_______________________________________________________________________________
#
#PARAMETER_NAME    .UNIT     VALUE                         : DESCRIPTION
#_______________________________________________________________________________
STRT               .M        2648.2                        : First reference value
STOP               .M        2758.600166                   : Last reference value
STEP               .M        0.2000003                     : Step increment
NULL               .         -9999                         : Missing value
COMP               .                                       : Company
WELL               .         616                           : Well name
FLD                .                                       : Field
LOC                .                                       : Location
CNTY               .                                       : County
STAT               .                                       : State
CTRY               .                                       : Country
SRVC               .                                       : Service Company
DATE               .                                       : Date
API                .                                       : API number
PROJECT_UPGRADE_TIME .         2021-03-18T21_24_50           : 
group              .         Good                          : 
~Parameter Information Block
#_______________________________________________________________________________
#
#PARAMETER_NAME    .UNIT     VALUE                         : DESCRIPTION
#_______________________________________________________________________________
SET                .         D7020_D                       : 
OTHER              .         Kedr.exe версия 2.1.2.32      : 
OTHER_10           .         TM.GRD = 0.00404*TM$.UE + 0.07: 
OTHER_11           .         MN.ATM = (6.33279e-006*TM.GRD + 0.02401)*(MN$.UE + 2.72*TM.GRD + -2018): 
OTHER_12           .         GK.MKR/H = GK$.UE / 43.5489 + 0: 
OTHER_13           .         RES.SM = 0.00476*CRES.UE - 1.51709: 
OTHER_14           .         PL.GSM3 = 0 + 0 * (PL.UE / 1) +  0 * (PL.UE / 1)^2: 
OTHER_15           .         Постоянная времени ГГП = 6 сек: 
OTHER_16           .         Постоянная времени ГК = 6 сек : 
OTHER_2            .         KedrData.dll версия 3.2.2.14  : 
OTHER_3            .         LasInf.dll версия 3.2.0.13    : 
OTHER_4            .         Драйвер версия 1.2.0.5        : 
OTHER_5            .         Прибор_ КСА-M1                : 
OTHER_6            .         Номер прибора_ 155+р204       : 
OTHER_7            .         Режим_ КСА-М1 + ГГП + Резистивиметр: 
OTHER_8            .         Форма_ 223\2                  : 
OTHER_9            .         Тарировки_                    : 
PROJECT_UPGRADE_TIME .         2021-03-18T21_24_50           : 
TLFamily_CRES      .                                       : 
TLFamily_DEPT      .         Measured Depth                : 
TLFamily_GK        .         Gamma Ray                     : 
TLFamily_GK$       .                                       : 
TLFamily_LM        .         Casing Collar locator         : 
TLFamily_METKA     .                                       : 
TLFamily_MN        .                                       : 
TLFamily_MN$       .                                       : 
TLFamily_PL        .                                       : 
TLFamily_PL_2      .                                       : 
TLFamily_RCOR      .                                       : 
TLFamily_RES       .         Mud Resistivity               : 
TLFamily_SPID      .         Spontaneous Potential         : 
TLFamily_STD       .                                       : 
TLFamily_TIME      .         Time                          : 
TLFamily_TM        .         Temperature                   : 
TLFamily_TM$       .         Temperature                   : 
TLFamily_VGD       .         Gas Volume                    : 
group              .         prim                          : 
~Curve Information
#_______________________________________________________________________________
#
#LOGNAME           .UNIT     LOG_ID                        : DESCRIPTION
#_______________________________________________________________________________
DEPT               .M                                      : 1 Глубина, м -    0.0 см 
CRES               .UE                                     : 9 Проводимость, усл.ед. -  222.0 см 
GK                 .MKR/H                                  : 16 Гамма-активность, мкр./ч -  106.0 см 
GK$                .UE                                     : 13 Гамма-активность, усл.ед. -  106.0 см 
LM                 .                                       : 11 Локатор муфт,  -   16.0 см 
METKA              .                                       : 3 Метки,  -    0.0 см 
MN                 .ATM                                    : 15 Давление, атм. -  160.0 см 
MN$                .UE                                     : 7 Давление, усл.ед. -  160.0 см 
PL                 .UE                                     : 10 Плотность, усл.ед. -  270.0 см 
PL_2               .GSM3                                   : 18 Плотность, г./см3 -  270.0 см 
RCOR               .CM/KM                                  : 5 Коррекция по ролику, см/км -    0.0 см 
RES                .SM                                     : 17 Проводимость,  -  222.0 см 
SPID               .M/H                                    : 2 Скорость, м/час -    0.0 см 
STD                .                                       : 12 Приток,  -  170.0 см 
TIME               .S                                      : 4 Время, сек -    0.0 см 
TM                 .GRD                                    : 14 Температура, °C -  180.0 см 
TM$                .UE                                     : 6 Температура, усл.ед. -  180.0 см 
VGD                .                                       : 8 Влагомер,  -  170.0 см 
~Ascii
# ...
2713.800098 1209       9.81       335        374        0          249.386    12155      14         0          0          4.2386     560        9016       11594.16   46.021     11374      6657      
2714.000099 1207       8.77       335        316        0          249.41     12156      14         0          0          4.2282     580        9015       11595.45   46.024     11375      6658      
2714.200099 1207       8.17       320        588        0          249.434    12157      13         0          0          4.2298     557        9014       11596.77   46.021     11374      6658      
2714.400099 1206       7.74       318        518        0          249.459    12158      13         0          0          4.2235     580        9011       11598.08   46.021     11374      6657      
2714.6001  1207       7.47       309        2298       0          249.459    12158      13         0          0          4.2266     580        9010       11599.4    46.021     11374      6657      
2714.8001  1207       7.28       309        661        0          249.479    12159      15         0          0          4.2298     524        9010       11600.66   46.021     11374      6658      
2715.0001  1209       7.12       301        294        0          249.527    12161      14         0          0          4.2377     580        9010       11601.99   46.024     11375      6658      
2715.2001  1211       7.02       301        227        0          249.532    12161      14         0          0          4.2473     568        9009       11603.28   46.021     11374      6657      
2715.400101 1212       7.23       341        227        0          249.566    12162      14         0          0          4.252      522        9009       11604.59   46.021     11374      6657      
2715.600101 1212       7.53       341        161        0          249.58     12163      13         0          0          4.2528     580        9010       11605.9    46.018     11373      6658      
2715.800101 1212       7.84       359        87         0          249.588    12163      14         0          0          4.252      557        9008       11607.14   46.021     11374      6658      
2716.000102 1213       8.04       359        77         0          249.62     12165      14         0          0          4.2547     580        9009       11608.45   46.02      11374      6657      
2716.200102 1213       8.17       362        56         0          249.629    12165      14         0          0          4.2568     580        9008       11609.77   46.018     11373      6656      
2716.400102 1213       8.24       362        90         0          249.677    12167      13         0          0          4.2568     540        9008       11611.04   46.021     11374      6657      
2716.600103 1214       8.15       348        62         0          249.667    12167      15         0          0          4.2599     580        9009       11612.33   46.02      11374      6656      
2716.800103 1213       8.07       348        46         0          249.698    12168      14         0          0          4.2568     580        9011       11613.64   46.021     11374      6657      
2717.000103 1214       7.8        326        52         0          249.702    12168      13         0          0          4.2615     557        9009       11614.89   46.021     11374      6656      
2717.200103 1212       7.65       328        79         0          249.726    12169      13         0          0          4.2534     580        9012       11616.2    46.022     11374      6657      
2717.400104 1214       7.63       331        96         0          249.759    12170      14         0          0          4.2615     580        9010       11617.51   46.021     11374      6657      
2717.600104 1214       7.61       331        74         0          249.775    12171      14         0          0          4.2615     580        9010       11618.75   46.024     11375      6655      
2717.800104 1213       7.91       358        87         0          249.816    12173      14         0          0          4.2568     580        9009       11620.07   46.021     11374      6657      
2718.000105 1214       8.19       389        65         0          249.824    12173      14         0          0          4.2615     568        9009       11621.38   46.026     11375      6656      
2718.200105 1214       9.02       430        53         0          249.824    12173      14         0          0          4.2615     510        9010       11622.7    46.027     11376      6656      
2718.400105 1213       9.55       457        51         0          249.852    12174      14         0          0          4.2568     580        9009       11624.01   46.025     11375      6656      
2718.600106 1213       10.07      461        66         0          249.872    12175      14         0          0          4.2554     557        9008       11625.26   46.026     11375      6656      
2718.800106 1213       10.29      452        69         0          249.897    12176      14         0          0          4.2592     580        9009       11626.58   46.025     11375      6656      
2719.000106 1212       10.24      444        186        0          249.922    12177      14         0          0          4.2528     580        9009       11627.87   46.029     11376      6657      
2719.200106 1212       9.9        380        348        0          249.926    12177      14         0          0          4.252      557        9009       11629.19   46.033     11377      6656      
2719.400107 1213       9.32       380        411        0          249.959    12179      14         0          0          4.2552     520        9007       11630.45   46.033     11377      6656      
2719.600107 1212       8.43       293        339        0          249.996    12180      14         0          0          4.252      560        9006       11631.8    46.037     11378      6657      
2719.800107 1215       7.58       293        291        0          249.997    12180      14         0          0          4.2655     580        9006       11633.07   46.041     11379      6655      
2720.000108 1214       6.99       262        1142       0          250.032    12181      14         0          0          4.2615     568        9008       11634.38   46.052     11382      6652      
2720.200108 1214       6.5        262        413        1          250.07     12183      14         0          0          4.2615     580        9008       11636.35   46.037     11378      6653      
2720.400108 1216       6.3        268        403        0          250.072    12183      15         0          0          4.2703     580        9010       11637.61   46.051     11381      6653      
2720.600109 1211       6.23       268        1772       0          250.09     12184      13         0          0          4.2471     580        9012       11638.92   46.069     11386      6653      
2720.800109 1219       6.26       275        1082       0          250.116    12185      14         0          0          4.2853     557        9016       11640.23   46.08      11389      6654      
2721.000109 1219       6.29       275        257        0          250.124    12185      14         0          0          4.2869     510        9013       11641.54   46.094     11392      6655      
2721.200109 1220       6.18       265        154        0          250.154    12186      14         0          0          4.2901     557        9012       11642.85   46.094     11392      6656      
2721.40011 1221       6.25       292        131        0          250.171    12187      14         0          0          4.2949     580        9013       11644.17   46.086     11390      6654      
2721.60011 1223       6.48       292        128        0          250.17     12187      14         0          0          4.3024     510        9014       11645.49   46.082     11389      6654      
2721.80011 1224       6.71       310        124        0          250.237    12190      14         0          0          4.3091     568        9014       11646.73   46.073     11387      6654      
