~Version
 VERS              .         2.0                           : CWLS LOG ASCII STANDARD - VERSION 2.0
 WRAP              .         NO                            : ONE LINE PER DEPTH STEP
 DLM               .         SPACE                         : DELIMITING CHARACTER(SPACE TAB OR COMMA)
~Well Information
#_______________________________________________________________________________
#
#PARAMETER_NAME    .UNIT     VALUE                         : DESCRIPTION
#_______________________________________________________________________________
STRT               .M        46                            : First reference value
STOP               .M        2756.6                        : Last reference value
STEP               .M        0.2                           : Step increment
NULL               .         -9999                         : Missing value
COMP               .                                       : Company
WELL               .         616                           : Well name
FLD                .                                       : Field
LOC                .                                       : Location
CNTY               .                                       : County
STAT               .                                       : State
CTRY               .                                       : Country
SRVC               .                                       : Service Company
DATE               .                                       : Date
API                .                                       : API number
PROJECT_UPGRADE_TIME .         2021-03-18T21_24_50           : 
group              .         Good                          : 
~Parameter Information Block
#_______________________________________________________________________________
#
#PARAMETER_NAME    .UNIT     VALUE                         : DESCRIPTION
#_______________________________________________________________________________
SET                .         D4390_D                       : 
OTHER              .         Запись производится в присутствии: 
OTHER_10           .         Максимальная температура      : 
OTHER_100          .         GK.FLT = 0.1*GR.UR/H[-1] + (1-0.1)*GR.UR/H[0]: 
OTHER_11           .         Тип промывочной жидкости      : 
OTHER_12           .         Сопротивление ПЖ (Ом*м) при 20°C: 
OTHER_13           .         Плотность ПЖ(г/см3)           : 
OTHER_14           .         Вязкость ПЖ(с)                : 
OTHER_15           .         Водоотдача ПЖ(см3/30мин)      : 
OTHER_16           .         Уровень ПЖ                    : 
OTHER_17           .         Нефть ПЖ (%)                  : 
OTHER_18           .         Барит ПЖ (%)                  : 
OTHER_19           .         Гематит ПЖ (%)                : 
OTHER_2            .         Заказчик ННСН  ЦДНГ-1         : 
OTHER_20           .         КМЦ ПЖ (%)                    : 
OTHER_21           .         Разгазирование ПЖ (да,нет)    : 
OTHER_22           .         Подъемник                     : 
OTHER_23           .         Лаборатория                   : 
OTHER_24           .         Тип кабеля                    : 
OTHER_25           .         Длина кабеля (м)              : 
OTHER_26           .         Цена последней метки          : 
OTHER_27           .         Цена контрольной метки        : 
OTHER_28           .         Диаметр долота (мм)           : 
OTHER_29           .         Глубина бурения (м)           : 
OTHER_3            .         Площадь                       : 
OTHER_30           .         Искусственный забой (м)       : 
OTHER_31           .         Диаметр колонны (мм)          : 
OTHER_32           .         Толщина колонны (мм)          : 
OTHER_33           .         Башмак колонны (м)            : 
OTHER_34           .         Диаметр НКТ (мм)              : 
OTHER_35           .         Толщина НКТ (мм)              : 
OTHER_36           .         Воронка НКТ (м)               : 
OTHER_37           .         Дата цементожа                : 
OTHER_38           .         Тип, количество(т) и плотность цемента: 
OTHER_39           .         Интервалы перфорации (м)      : 
OTHER_4            .         Категория                     : 
OTHER_40           .         Направление, диаметр (мм)     : 
OTHER_41           .         Направление, глубина (м)      : 
OTHER_42           .         Кондуктор, диаметр (мм)       : 
OTHER_43           .         Кондуктор, глубина (м)        : 
OTHER_44           .         Техническая колонна, диаметр (мм): 
OTHER_45           .         Техническая колонна, глубина (м): 
OTHER_46           .         Эксплуатационная колонна, диаметр (мм): 
OTHER_47           .         Эксплуатационная колонна, глубина (м): 
OTHER_48           .         Программа Кедр-02 версия 3.4  : 
OTHER_49           .         Операционная система Windows NT 5.1 build 2600 Service Pack 2: 
OTHER_5            .         Назначение исследований       : 
OTHER_50           .         Программное обеспечение станции MONITOR-386EX 25/12/99 15_08_10   BGF V54 20/09/05 15_32_17   3.3__BGF_9030071: 
OTHER_51           .         Kedr.exe версия 3.4.2.74      : 
OTHER_52           .         KedrData.dll версия 3.4.2.29  : 
OTHER_53           .         Мнемоники версия 3.18 S       : 
OTHER_54           .         Драйвер версия 2.1.1.4        : 
OTHER_55           .         LasInf.dll 4.3.0.35           : 
OTHER_56           .         Прибор_ КСА-Т4                : 
OTHER_57           .         Номер прибора_ 160            : 
OTHER_58           .         Режим_ КСА-Т4                 : 
OTHER_59           .         Форма_ С.А.Б.                 : 
OTHER_6            .         Альтитуда стола ротора        : 
OTHER_60           .         Тарировки_                    : 
OTHER_61           .         <_techsia_sc_> Дата тарировки температуры 25.05.2010: 
OTHER_62           .         Ручной ввод коэффициентов     : 
OTHER_63           .         TM.DEGC = 0.00402*RTM.E.ACP + -0.994: 
OTHER_64           .         <_techsia_sc_> Дата тарировки давления 25.05.2010: 
OTHER_65           .         Ручной ввод коэффициентов     : 
OTHER_66           .         MN.ATM = (2.27521e-006*TM.DEGC + 0.02078)*(RMN.E.ACP + 6.2*TM.DEGC + -1688): 
OTHER_67           .         <_techsia_sc_> Дата тарировки ГК 25.05.2010: 
OTHER_68           .         Ручной ввод коэффициентов     : 
OTHER_69           .         GR.UR/H = RGR.IMP/MIN / 45.5144: 
OTHER_7            .         Вид исследований 3  6         : 
OTHER_70           .         GK.FLT = 0.1*GR.UR/H[-1] + (1-0.1)*GR.UR/H[0]: 
OTHER_71           .         <_techsia_sc_> Дата тарировки температуры 25.05.2010: 
OTHER_72           .         Ручной ввод коэффициентов     : 
OTHER_73           .         TM.DEGC = 0.00402*RTM.E.ACP + -0.994: 
OTHER_74           .         <_techsia_sc_> Дата тарировки давления 25.05.2010: 
OTHER_75           .         Ручной ввод коэффициентов     : 
OTHER_76           .         MN.ATM = (2.27521e-006*TM.DEGC + 0.02078)*(RMN.E.ACP + 6.2*TM.DEGC + -1688): 
OTHER_77           .         <_techsia_sc_> Дата тарировки ГК 25.05.2010: 
OTHER_78           .         Ручной ввод коэффициентов     : 
OTHER_79           .         GR.UR/H = RGR.IMP/MIN / 45.5144: 
OTHER_8            .         Начало бурения интервала каротажа: 
OTHER_80           .         GK.FLT = 0.1*GR.UR/H[-1] + (1-0.1)*GR.UR/H[0]: 
OTHER_81           .         <_techsia_sc_> Дата тарировки температуры 25.05.2010: 
OTHER_82           .         Ручной ввод коэффициентов     : 
OTHER_83           .         TM.DEGC = 0.00402*RTM.E.ACP + -0.994: 
OTHER_84           .         <_techsia_sc_> Дата тарировки давления 25.05.2010: 
OTHER_85           .         Ручной ввод коэффициентов     : 
OTHER_86           .         MN.ATM = (2.27521e-006*TM.DEGC + 0.02078)*(RMN.E.ACP + 6.2*TM.DEGC + -1688): 
OTHER_87           .         <_techsia_sc_> Дата тарировки ГК 25.05.2010: 
OTHER_88           .         Ручной ввод коэффициентов     : 
OTHER_89           .         GR.UR/H = RGR.IMP/MIN / 45.5144: 
OTHER_9            .         Окончание бурения интервала каротажа: 
OTHER_90           .         GK.FLT = 0.1*GR.UR/H[-1] + (1-0.1)*GR.UR/H[0]: 
OTHER_91           .         <_techsia_sc_> Дата тарировки температуры 25.05.2010: 
OTHER_92           .         Ручной ввод коэффициентов     : 
OTHER_93           .         TM.DEGC = 0.00402*RTM.E.ACP + -0.994: 
OTHER_94           .         <_techsia_sc_> Дата тарировки давления 25.05.2010: 
OTHER_95           .         Ручной ввод коэффициентов     : 
OTHER_96           .         MN.ATM = (2.27521e-006*TM.DEGC + 0.02078)*(RMN.E.ACP + 6.2*TM.DEGC + -1688): 
OTHER_97           .         <_techsia_sc_> Дата тарировки ГК 25.05.2010: 
OTHER_98           .         Ручной ввод коэффициентов     : 
OTHER_99           .         GR.UR/H = RGR.IMP/MIN / 45.5144: 
PROJECT_UPGRADE_TIME .         2021-03-18T21_24_50           : 
TLFamily_CCLC      .                                       : 
TLFamily_DEPT      .         Measured Depth                : 
TLFamily_GK        .         Gamma Ray                     : 
TLFamily_GR        .         Gamma Ray                     : 
TLFamily_METKA     .                                       : 
TLFamily_MN        .                                       : 
TLFamily_RCOR      .                                       : 
TLFamily_RGR       .                                       : 
TLFamily_RMN       .                                       : 
TLFamily_RTEN      .                                       : 
TLFamily_RTM       .                                       : 
TLFamily_SPEE      .         Cable Speed                   : 
TLFamily_TIME      .         Time                          : 
TLFamily_TM        .         Temperature                   : 
group              .         prim                          : 
~Curve Information
#_______________________________________________________________________________
#
#LOGNAME           .UNIT     LOG_ID                        : DESCRIPTION
#_______________________________________________________________________________
DEPT               .M                                      : 1 Глубина, м -    0.0 см 
CCLC               .E.ACP                                  : 9 Локатор муфт,  -   20.0 см 
GK                 .FLT                                    : 14 Гамма-активность фильтрованная, мкр./ч -  110.0 см 
GR                 .UR/H                                   : 13 Гамма-активность, мкр./ч -  110.0 см 
METKA              .CU                                     : 3 Метки,  -    0.0 см 
MN                 .ATM                                    : 12 Давление, атм. -  160.0 см 
RCOR               .CM/KM                                  : 5 Коррекция по ролику, см/км -    0.0 см 
RGR                .IMP/MIN                                : 10 Гамма-активность, усл.ед. -  110.0 см 
RMN                .E.ACP                                  : 8 Давление, усл.ед. -  160.0 см 
RTEN               .T                                      : 6 Натяжение кабеля, т -    0.0 см 
RTM                .E.ACP                                  : 7 Температура, усл.ед. -  170.0 см 
SPEE               .M/H                                    : 2 Скорость, м/час -    0.0 см 
TIME               .S                                      : 4 Время, сек -    0.0 см 
TM                 .DEGC                                   : 11 Температура, °C -  170.0 см 
~Ascii
# ...
2209.2     512        6.37       6.37       0          196.416    -988       290        10729      0.16       14403      1585       4769.46    56.907    
2209.4     519        6.75       6.75       0          196.442    -988       307        10730      0.16       14405      1586       4769.91    56.913    
2209.6     460        6.75       6.75       0          196.449    -988       307        10730      0.16       14407      1586       4770.37    56.921    
2209.8     604        6.75       6.75       0          196.475    -988       307        10731      0.16       14409      1585       4770.84    56.929    
2210       525        6.75       6.75       0          196.487    -988       307        10732      0.16       14410      1586       4771.28    56.934    
2210.2     466        6.75       6.75       0          196.525    -988       307        10734      0.16       14411      1586       4771.74    56.939    
2210.4     520        6.76       6.76       0          196.528    -988       308        10734      0.16       14413      1584       4772.2     56.947    
2210.6     500        6.88       6.88       0          196.531    -988       313        10734      0.16       14415      1582       4772.66    56.953    
2210.8     495        6.88       6.88       0          196.586    -988       313        10737      0.16       14416      1584       4773.13    56.958    
2211       503        6.88       6.88       0          196.581    -988       313        10736      0.16       14418      1585       4773.58    56.967    
2211.2     543        6.88       6.88       0          196.597    -988       313        10737      0.16       14420      1587       4774.02    56.973    
2211.4     443        6.87       6.87       0          196.636    -988       313        10739      0.16       14422      1586       4774.47    56.981    
2211.6     381        6.85       6.85       0          196.629    -988       312        10738      0.16       14424      1585       4774.94    56.989    
2211.8     466        6.85       6.85       0          196.669    -988       312        10740      0.16       14425      1586       4775.42    56.995    
2212       503        6.85       6.85       0          196.686    -988       312        10741      0.16       14427      1587       4775.87    57.003    
2212.2     417        6.85       6.85       0          196.688    -988       312        10741      0.16       14428      1588       4776.31    57.008    
2212.4     372        6.85       6.85       0          196.715    -988       312        10742      0.16       14430      1586       4776.77    57.016    
2212.6     348        7.34       7.34       0          196.73     -988       334        10743      0.16       14432      1586       4777.22    57.022    
2212.8     349        7.82       7.82       0          196.746    -988       356        10744      0.15       14433      1587       4777.69    57.027    
2213       336        7.82       7.82       0          196.79     -988       356        10746      0.15       14435      1587       4778.15    57.033    
2213.2     326        7.82       7.82       0          196.778    -988       356        10745      0.15       14437      1585       4778.58    57.041    
2213.4     406        7.82       7.82       0          196.814    -988       356        10747      0.15       14438      1586       4779.04    57.046    
2213.6     349        7.82       7.82       0          196.827    -988       356        10747      0.15       14440      1587       4779.49    57.055    
2213.8     300        8.16       8.16       0          196.836    -988       372        10748      0.15       14441      1585       4779.97    57.061    
2214       4378       8.22       8.22       0          196.884    -988       374        10750      0.15       14444      1585       4780.44    57.07     
2214.2     2866       8.22       8.22       0          196.889    -988       374        10750      0.15       14446      1586       4780.86    57.077    
2214.4     1985       8.22       8.22       0          196.917    -988       374        10751      0.15       14447      1587       4781.33    57.082    
2214.6     1508       8.22       8.22       0          196.929    -988       374        10752      0.16       14448      1586       4781.77    57.087    
2214.8     1186       7.75       7.75       0          196.947    -988       353        10753      0.16       14450      1586       4782.25    57.096    
2215       1036       7.71       7.71       0          196.954    -988       351        10753      0.16       14451      1587       4782.73    57.101    
2215.2     1004       7.71       7.71       0          197        -988       351        10755      0.16       14453      1586       4783.15    57.106    
2215.4     740        7.71       7.71       0          197.005    -988       351        10755      0.16       14455      1584       4783.61    57.115    
2215.6     633        7.71       7.71       0          197.012    -988       351        10756      0.16       14456      1586       4784.06    57.12     
2215.8     508        7.71       7.71       0          197.055    -988       351        10758      0.16       14457      1586       4784.53    57.124    
2216       381        7.23       7.23       2          197.063    -988       329        10758      0.16       14459      1584       4785       57.131    
2216.2     532        7.23       7.23       0          197.089    -9999      329        10759      0.16       14461      1586       4785.7     57.138    
2216.4     463        7.23       7.23       0          197.092    -9999      329        10759      0.16       14462      1587       4786.17    57.143    
2216.6     469        7.23       7.23       0          197.118    -9999      329        10761      0.16       14463      1588       4786.6     57.149    
2216.8     493        7.23       7.23       0          197.147    -9999      329        10762      0.16       14465      1587       4787.08    57.157    
2217       445        6.37       6.37       0          197.149    -9999      290        10762      0.16       14467      1585       4787.53    57.162    
2217.2     506        6.37       6.37       0          197.166    -9999      290        10763      0.16       14469      1584       4787.98    57.169    
2217.4     535        6.37       6.37       0          197.193    -9999      290        10764      0.16       14470      1585       4788.44    57.175    
2217.6     551        6.37       6.37       0          197.194    -9999      290        10764      0.16       14472      1587       4788.87    57.184    
2217.8     543        6.37       6.37       0          197.237    -9999      290        10766      0.16       14474      1588       4789.35    57.192    
2218       521        5.95       5.95       0          197.259    -9999      271        10767      0.16       14476      1589       4789.8     57.199    
2218.2     459        5.95       5.95       0          197.281    -9999      271        10768      0.16       14478      1587       4790.23    57.206    
2218.4     385        5.95       5.95       0          197.291    -9999      271        10768      0.16       14480      1585       4790.72    57.214    
2218.6     349        5.95       5.95       0          197.317    -9999      271        10770      0.16       14481      1587       4791.18    57.22     
2218.8     415        5.95       5.95       0          197.343    -9999      271        10771      0.16       14482      1587       4791.63    57.226    
2219       431        6          6          0          197.349    -9999      273        10771      0.16       14484      1585       4792.08    57.233    
2219.2     384        6.64       6.64       0          197.374    -9999      302        10772      0.16       14486      1586       4792.55    57.238    
2219.4     419        6.64       6.64       0          197.402    -9999      302        10773      0.16       14488      1587       4792.99    57.247    
