~Version
 VERS              .         2.0                           : CWLS LOG ASCII STANDARD - VERSION 2.0
 WRAP              .         NO                            : ONE LINE PER DEPTH STEP
 DLM               .         SPACE                         : DELIMITING CHARACTER(SPACE TAB OR COMMA)
~Well Information
#_______________________________________________________________________________
#
#PARAMETER_NAME    .UNIT     VALUE                         : DESCRIPTION
#_______________________________________________________________________________
STRT               .M        2644.2                        : First reference value
STOP               .M        2752.000054                   : Last reference value
STEP               .M        0.2000001                     : Step increment
NULL               .         -9999                         : Missing value
COMP               .                                       : Company
WELL               .         616                           : Well name
FLD                .                                       : Field
LOC                .                                       : Location
CNTY               .                                       : County
STAT               .                                       : State
CTRY               .                                       : Country
SRVC               .                                       : Service Company
DATE               .                                       : Date
API                .                                       : API number
PROJECT_UPGRADE_TIME .         2021-03-18T21_24_50           : 
group              .         Good                          : 
~Parameter Information Block
#_______________________________________________________________________________
#
#PARAMETER_NAME    .UNIT     VALUE                         : DESCRIPTION
#_______________________________________________________________________________
SET                .         D4407_D_2                     : 
COMM               .                                       : 
OTHER              .         Запись производится в присутствии: 
OTHER_10           .         Максимальная температура      : 
OTHER_11           .         Тип промывочной жидкости      : 
OTHER_12           .         Сопротивление ПЖ (Ом*м) при 20°C: 
OTHER_13           .         Плотность ПЖ(г/см3)           : 
OTHER_14           .         Вязкость ПЖ(с)                : 
OTHER_15           .         Водоотдача ПЖ(см3/30мин)      : 
OTHER_16           .         Уровень ПЖ                    : 
OTHER_17           .         Нефть ПЖ (%)                  : 
OTHER_18           .         Барит ПЖ (%)                  : 
OTHER_19           .         Гематит ПЖ (%)                : 
OTHER_2            .         Заказчик ННСН  ЦДНГ-1         : 
OTHER_20           .         КМЦ ПЖ (%)                    : 
OTHER_21           .         Разгазирование ПЖ (да,нет)    : 
OTHER_22           .         Подъемник                     : 
OTHER_23           .         Лаборатория                   : 
OTHER_24           .         Тип кабеля                    : 
OTHER_25           .         Длина кабеля (м)              : 
OTHER_26           .         Цена последней метки          : 
OTHER_27           .         Цена контрольной метки        : 
OTHER_28           .         Диаметр долота (мм)           : 
OTHER_29           .         Глубина бурения (м)           : 
OTHER_3            .         Площадь                       : 
OTHER_30           .         Искусственный забой (м)       : 
OTHER_31           .         Диаметр колонны (мм)          : 
OTHER_32           .         Толщина колонны (мм)          : 
OTHER_33           .         Башмак колонны (м)            : 
OTHER_34           .         Диаметр НКТ (мм)              : 
OTHER_35           .         Толщина НКТ (мм)              : 
OTHER_36           .         Воронка НКТ (м)               : 
OTHER_37           .         Дата цементожа                : 
OTHER_38           .         Тип, количество(т) и плотность цемента: 
OTHER_39           .         Интервалы перфорации (м)      : 
OTHER_4            .         Категория                     : 
OTHER_40           .         Направление, диаметр (мм)     : 
OTHER_41           .         Направление, глубина (м)      : 
OTHER_42           .         Кондуктор, диаметр (мм)       : 
OTHER_43           .         Кондуктор, глубина (м)        : 
OTHER_44           .         Техническая колонна, диаметр (мм): 
OTHER_45           .         Техническая колонна, глубина (м): 
OTHER_46           .         Эксплуатационная колонна, диаметр (мм): 
OTHER_47           .         Эксплуатационная колонна, глубина (м): 
OTHER_48           .         Программа Кедр-02 версия 3.4  : 
OTHER_49           .         Операционная система Windows NT 5.1 build 2600 Service Pack 2: 
OTHER_5            .         Назначение исследований       : 
OTHER_50           .         Программное обеспечение станции MONITOR-386EX 25/12/99 15_08_10   BGF V54 20/09/05 15_32_17   3.3__BGF_9030071: 
OTHER_51           .         Kedr.exe версия 3.4.2.74      : 
OTHER_52           .         KedrData.dll версия 3.4.2.29  : 
OTHER_53           .         Мнемоники версия 3.18 S       : 
OTHER_54           .         Драйвер версия 2.1.1.4        : 
OTHER_55           .         LasInf.dll 4.3.0.35           : 
OTHER_56           .         Прибор_ КСА-Т4                : 
OTHER_57           .         Номер прибора_ 160            : 
OTHER_58           .         Режим_ КСА-Т4                 : 
OTHER_59           .         Форма_ С.А.Б.                 : 
OTHER_6            .         Альтитуда стола ротора        : 
OTHER_60           .         Тарировки_                    : 
OTHER_61           .         <_techsia_sc_> Дата тарировки температуры 25.05.2010: 
OTHER_62           .         Ручной ввод коэффициентов     : 
OTHER_63           .         TM.DEGC = 0.00402*RTM.E.ACP + -0.994: 
OTHER_64           .         <_techsia_sc_> Дата тарировки давления 25.05.2010: 
OTHER_65           .         Ручной ввод коэффициентов     : 
OTHER_66           .         MN.ATM = (2.27521e-006*TM.DEGC + 0.02078)*(RMN.E.ACP + 6.2*TM.DEGC + -1688): 
OTHER_67           .         <_techsia_sc_> Дата тарировки ГК 25.05.2010: 
OTHER_68           .         Ручной ввод коэффициентов     : 
OTHER_69           .         GR.UR/H = RGR.IMP/MIN / 45.5144: 
OTHER_7            .         Вид исследований 3  6         : 
OTHER_70           .         GK.FLT = 0.1*GR.UR/H[-1] + (1-0.1)*GR.UR/H[0]: 
OTHER_8            .         Начало бурения интервала каротажа: 
OTHER_9            .         Окончание бурения интервала каротажа: 
PROJECT_UPGRADE_TIME .         2021-03-18T21_24_50           : 
PRTY               .         ПП-601-1                      : N партии
SRVC               .         Барковский                    : Начальник партии
TLFamily_DEPT      .         Measured Depth                : 
TLFamily_LM        .         Casing Collar locator         : 
TLFamily_MN        .                                       : 
TLFamily_TM        .         Temperature                   : 
group              .         second                        : 
~Curve Information
#_______________________________________________________________________________
#
#LOGNAME           .UNIT     LOG_ID                        : DESCRIPTION
#_______________________________________________________________________________
DEPT               .M                                      : Depth curve 
LM                 .е.ацп                                  : Локатор муфт,е.ацп 
MN                 .атм                                    : 12 Давление, атм. -  160.0 см 
TM                 .град.C                                 : Термограмма по стволу скважины,град.C 
~Ascii
2644.1999512 -9999      -9999      -9999     
2644.4     -9999      -9999      -9999     
2644.6     -9999      -9999      -9999     
2644.8     31.001     -9999      -9999     
2645       30         -9999      -9999     
2645.2     89.985     -9999      -9999     
2645.400001 343.938    -9999      -9999     
2645.600001 219.031    -9999      -9999     
2645.800001 717.878    -9999      -9999     
2646.000001 607.027    -9999      -9999     
2646.200001 647.99     238.15     -9999     
2646.400001 738.978    238.149    66.819    
2646.600001 510.056    238.148    66.814    
2646.800001 2934.408   238.232    66.807    
2647.000001 2122.198   238.233    66.812    
2647.200001 934.29     238.309    66.823    
2647.400002 537.097    238.261    66.823    
2647.600002 561.994    238.239    66.815    
2647.800002 540.005    238.272    66.803    
2648.000002 566.993    238.23     66.79     
2648.200002 999.894    238.277    66.772    
2648.400002 697.074    238.327    66.758    
2648.600002 367.08     238.328    66.741    
2648.800002 476.973    238.397    66.727    
2649.000002 494.996    238.383    66.709    
2649.200002 439.014    238.362    66.693    
2649.400003 338.025    238.398    66.681    
2649.600003 308.007    238.357    66.659    
2649.800003 539.943    238.371    66.638    
2650.000003 468.018    238.411    66.622    
2650.200003 356.027    238.412    66.608    
2650.400003 399.989    238.468    66.591    
2650.600003 418.995    238.465    66.569    
2650.800003 270.036    238.483    66.551    
2651.000003 421.963    238.48     66.533    
2651.200003 388.008    238.477    66.511    
2651.400004 210.043    238.485    66.498    
2651.600004 325.972    238.493    66.48     
2651.800004 355.993    238.51     66.459    
2652.000004 305.012    238.542    66.437    
2652.200004 373.983    238.566    66.419    
2652.400004 463.978    238.574    66.396    
2652.600004 408.014    238.599    66.372    
2652.800004 215.047    238.577    66.348    
2653.000004 476.936    238.593    66.325    
2653.200004 420.014    238.589    66.294    
2653.400005 491.982    238.606    66.266    
2653.600005 366.031    238.623    66.243    
2653.800005 394.993    238.657    66.214    
2654.000005 410.996    238.658    66.182    
2654.200005 343.017    238.671    66.152    
2654.400005 390.988    238.689    66.129    
2654.600005 191.049    238.685    66.107    
2654.800005 318.969    238.703    66.084    
2655.000005 290.007    238.7      66.062    
2655.200005 381.978    238.717    66.041    
2655.400006 323.014    238.734    66.018    
2655.600006 314.002    238.753    65.983    
2655.800006 446.968    238.766    65.953    
2656.000006 346.025    238.782    65.92     
2656.200006 415.983    238.8      65.896    
2656.400006 4342.045   238.817    65.879    
2656.600006 2825.369   238.835    65.852    
2656.800006 614.538    238.829    65.826    
2657.000006 391.054    238.845    65.793    
2657.200006 159.056    238.863    65.767    
2657.400007 295.967    238.866    65.739    
2657.600007 348.987    238.895    65.705    
2657.800007 262.021    238.89     65.673    
2658.000007 223.009    238.906    65.643    
2658.200007 405.956    238.923    65.619    
2658.400007 405        238.936    65.589    
2658.600007 220.045    238.948    65.562    
2658.800007 155.016    238.951    65.526    
2659.000007 316.961    238.968    65.501    
2659.200007 296.005    238.985    65.481    
2659.400008 209.021    239.02     65.452    
2659.600008 122.021    239.018    65.427    
2659.800008 266.965    239.046    65.396    
2660.000008 220.011    239.047    65.349    
2660.200008 264.989    239.063    65.307    
2660.400008 223.01     239.078    65.272    
2660.600008 165.014    239.093    65.237    
2660.800008 281.972    239.095    65.199    
2661.000008 318.991    239.126    65.167    
2661.200008 372.987    239.143    65.148    
2661.400009 324.012    239.147    65.121    
2661.600009 114.051    239.154    65.09     
2661.800009 202.978    239.169    65.051    
2662.000009 284.98     239.184    65.009    
2662.200009 289.999    239.2      64.977    
2662.400009 288        239.219    64.944    
2662.600009 254.008    239.231    64.912    
2662.800009 125.031    239.247    64.882    
2663.000009 102.006    239.264    64.839    
2663.200009 101        239.277    64.799    
2663.40001 168.983    239.292    64.767    
2663.60001 183.996    239.35     64.737    
2663.80001 336.963    239.351    64.7      
2664.00001 399.985    239.359    64.659    
2664.20001 192.05     239.378    64.624    
2664.40001 203.997    239.403    64.598    
2664.60001 198.001    239.408    64.57     
2664.80001 236.991    239.424    64.535    
2665.00001 320.98     239.437    64.498    
2665.20001 404.98     239.451    64.449    
2665.400011 183.054    239.464    64.399    
2665.600011 196.997    239.479    64.354    
2665.800011 186.003    239.492    64.321    
2666.000011 5690.665   239.511    64.287    
2666.200011 1689.971   239.526    64.253    
2666.400011 492.29     239.52     64.212    
2666.600011 290.049    239.512    64.17     
2666.800011 213.019    239.525    64.119    
2667.000011 166.011    239.54     64.07     
2667.200011 76.022     239.556    64.035    
2667.400012 99.994     239.576    64.006    
2667.600012 66.008     239.608    63.973    
2667.800012 131.984    239.624    63.942    
2668.000012 156.994    239.639    63.905    
2668.200012 231.982    239.643    63.862    
2668.400012 252.995    239.644    63.803    
2668.600012 160.023    239.665    63.757    
2668.800012 39.029     239.688    63.724    
2669.000012 105.984    239.689    63.688    
2669.200012 104        239.714    63.655    
2669.400013 119.996    239.733    63.615    
2669.600013 99.005     239.754    63.575    
2669.800013 118.995    239.768    63.528    
2670.000013 161.99     239.781    63.477    
2670.200013 192.992    239.795    63.432    
2670.400013 170.006    239.81     63.394    
2670.600013 49.029     239.824    63.35     
2670.800013 31.004     239.839    63.306    
2671.000013 38.998     239.855    63.275    
2671.200013 73.992     239.885    63.242    
2671.400014 69.001     239.881    63.195    
2671.600014 71.999     239.897    63.125    
2671.800014 65.002     239.927    63.079    
2672.000014 109.989    239.919    63.023    
2672.200014 190.98     239.957    62.983    
2672.400014 139.013    239.966    62.956    
2672.600014 209.983    239.985    62.922    
2672.800014 194.004    239.999    62.872    
2673.000014 148.011    240.011    62.807    
2673.200014 186.991    240.023    62.75     
2673.400015 134.013    240.038    62.707    
2673.600015 102.008    240.063    62.657    
2673.800015 366.936    240.065    62.608    
2674.000015 252.028    240.081    62.577    
2674.200015 212.01     240.108    62.542    
2674.400015 291.981    240.128    62.49     
2674.600015 374.98     240.139    62.424    
2674.800015 282.022    240.152    62.369    
2675.000015 246.009    240.167    62.325    
2675.200015 178.016    240.181    62.283    
2675.400016 188.997    240.196    62.242    
2675.600016 163.006    240.211    62.204    
2675.800016 156.002    240.224    62.16     
2676.000016 4607.923   240.256    62.104    
2676.200016 1956.641   240.263    62.036    
2676.400016 483.356    240.279    61.971    
2676.600016 428.013    240.297    61.935    
2676.800016 389.009    240.312    61.91     
2677.000016 427.991    240.326    61.871    
2677.200016 357.017    240.34     61.831    
2677.400017 324.008    240.351    61.776    
2677.600017 519.953    240.365    61.715    
2677.800017 652.968    240.377    61.67     
2678.000017 613.01     240.408    61.615    
2678.200017 662.988    240.412    61.57     
2678.400017 588.018    240.431    61.521    
2678.600017 454.032    240.449    61.468    
2678.800017 380.018    240.458    61.391    
2679.000017 215.04     240.47     61.327    
2679.200017 216        240.482    61.266    
2679.400018 131.021    240.516    61.214    
2679.600018 126.001    240.529    61.167    
2679.800018 161.991    240.542    61.112    
