~Version
 VERS              .         2.0                           : CWLS LOG ASCII STANDARD - VERSION 2.0
 WRAP              .         NO                            : ONE LINE PER DEPTH STEP
 DLM               .         SPACE                         : DELIMITING CHARACTER(SPACE TAB OR COMMA)
~Well Information
#_______________________________________________________________________________
#
#PARAMETER_NAME    .UNIT     VALUE                         : DESCRIPTION
#_______________________________________________________________________________
STRT               .M        2668.8                        : First reference value
STOP               .M        2773                          : Last reference value
STEP               .M        0.1999999                     : Step increment
NULL               .         -9999                         : Missing value
COMP               .                                       : Company
WELL               .         616                           : Well name
FLD                .                                       : Field
LOC                .                                       : Location
CNTY               .                                       : County
STAT               .                                       : State
CTRY               .                                       : Country
SRVC               .                                       : Service Company
DATE               .                                       : Date
API                .                                       : API number
PROJECT_UPGRADE_TIME .         2021-03-18T21_24_50           : 
group              .         Good                          : 
~Parameter Information Block
#_______________________________________________________________________________
#
#PARAMETER_NAME    .UNIT     VALUE                         : DESCRIPTION
#_______________________________________________________________________________
SET                .         D0403_D                       : 
OTHER              .         Прибор_ АКП4_90               : 
OTHER_2            .         Номер прибора_ 56             : 
OTHER_3            .         Режим_ АКП4_90 - все каналы   : 
OTHER_4            .         Форма_ Г-1                    : 
OTHER_5            .         Тарировки_                    : 
OTHER_6            .         TM.GRD = 0.00379*TM$.UE + 7.11: 
OTHER_7            .         MN.ATM = (8e-006*TM.GRD + 0.02)*(MN$.UE + -8*TM.GRD + -1800): 
OTHER_8            .         GK.MKR/H = GK$.UE / 57.17 + 0 : 
PROJECT_UPGRADE_TIME .         2021-03-18T21_24_49           : 
TLFamily_DEPT      .         Measured Depth                : 
TLFamily_GK        .         Gamma Ray                     : 
TLFamily_GK$       .                                       : 
TLFamily_LM        .         Casing Collar locator         : 
TLFamily_METKA     .                                       : 
TLFamily_METKA_1   .                                       : 
TLFamily_MN        .                                       : 
TLFamily_MN$       .                                       : 
TLFamily_RCOR      .                                       : 
TLFamily_SPID      .         Spontaneous Potential         : 
TLFamily_TIME      .         Time                          : 
TLFamily_TM        .         Temperature                   : 
TLFamily_TM$       .         Temperature                   : 
group              .         second                        : 
~Curve Information
#_______________________________________________________________________________
#
#LOGNAME           .UNIT     LOG_ID                        : DESCRIPTION
#_______________________________________________________________________________
DEPT               .M                                      : 1 Глубина, м -    0.0 см 
GK                 .MKR/H                                  : 12 Гамма-активность, мкр./ч -   65.0 см 
GK$                .UE                                     : 9 Гамма-активность, усл.ед. -   65.0 см 
LM                 .                                       : 8 Локатор муфт,  -   30.0 см 
METKA              .                                       : 3 Метки,  -    0.0 см 
METKA_1            .                                       : 13 Маркеры - 65 см 
MN                 .ATM                                    : 11 Давление, атм. -  140.0 см 
MN$                .UE                                     : 7 Давление, усл.ед. -  140.0 см 
RCOR               .CM/KM                                  : 5 Коррекция по ролику, см/км -    0.0 см 
SPID               .M/H                                    : 2 Скорость, м/час -    0.0 см 
TIME               .S                                      : 4 Время, сек -    0.0 см 
TM                 .GRD                                    : 10 Температура, °C -  145.0 см 
TM$                .UE                                     : 6 Температура, усл.ед. -  145.0 см 
~Ascii
# ...
2758.4     6.97       398        1288       0          0          265.331    15312      0          -320       1742.57    85.665     20727     
2758.6     6.79       413        989        0          0          265.365    15314      0          -260       1740.13    85.659     20725     
2758.8     6.61       390        1206       0          0          265.358    15314      0          -260       1737.66    85.669     20728     
2759       6.44       387        2612       0          0          265.427    15317      0          -320       1735.2     85.68      20731     
2759.2     6.33       367        1097       0          0          265.378    15315      0          -260       1732.75    85.684     20732     
2759.4     6.45       346        1829       0          0          265.412    15316      0          -320       1730.3     85.688     20733     
2759.6     6.61       373        2242       0          0          265.487    15320      0          -260       1727.79    85.692     20734     
2759.8     6.61       382        1660       1          0          265.384    15315      0          -260       1725.4     85.699     20736     
2760       6.48       391        1061       0          0          265.467    15319      0          -280       1721.92    85.703     20737     
2760.2     6.18       386        1994       0          0          265.507    15321      0          -260       1719.44    85.707     20738     
2760.4     5.81       366        1254       0          0          265.424    15317      0          -290       1716.93    85.715     20740     
2760.6     5.36       349        1554       0          0          265.507    15321      0          -305       1714.5     85.718     20741     
2760.8     5.04       283        1670       0          0          265.528    15322      0          -320       1711.98    85.718     20741     
2761       5.26       285        1499       0          0          265.517    15322      0          -290       1709.55    85.722     20742     
2761.2     5.51       290        2593       0          0          265.527    15322      0          -275       1707.12    85.734     20745     
2761.4     5.78       309        1797       0          0          265.574    15324      0          -305       1704.6     85.737     20746     
2761.6     6.09       326        1431       0          0          265.547    15323      0          -290       1702.17    85.741     20747     
2761.8     6.45       341        1500       0          0          265.598    15326      0          -320       1699.66    85.745     20748     
2762       6.54       380        1022       0          0          265.629    15327      0          -320       1697.21    85.75      20749     
2762.2     6.36       385        2960       0          0          265.556    15324      0          -300       1694.74    85.754     20750     
2762.4     6.16       375        4096       0          0          265.638    15327      0          -260       1692.28    85.76      20752     
2762.6     5.76       376        1201       0          0          265.685    15330      0          -300       1689.84    85.764     20753     
2762.8     5.58       328        2191       0          0          265.545    15323      0          -300       1687.37    85.764     20753     
2763       6.05       281        3610       0          0          265.669    15329      0          -260       1684.89    85.771     20755     
2763.2     6.67       322        6363       0          0          265.69     15330      0          -300       1682.44    85.775     20756     
2763.4     6.93       381        1708       0          0          265.593    15325      0          -280       1679.98    85.775     20756     
2763.6     6.89       403        1485       0          0          265.675    15329      0          -320       1677.52    85.783     20758     
2763.8     6.67       409        1227       0          0          265.689    15330      0          -300       1675.06    85.79      20760     
2764       6.38       395        1582       0          0          265.619    15327      0          -320       1672.6     85.794     20761     
2764.2     6.24       359        1330       0          0          265.654    15328      0          -320       1670.15    85.794     20761     
2764.4     6.35       346        1234       0          0          265.791    15335      0          -290       1667.61    85.802     20763     
2764.6     6.49       362        1348       0          0          265.652    15328      0          -275       1665.2     85.804     20764     
2764.8     6.57       369        3242       0          0          265.701    15331      0          -305       1662.66    85.809     20765     
2765       6.58       380        3300       0          0          265.873    15339      0          -320       1660.24    85.813     20766     
2765.2     6.48       383        1791       0          0          265.68     15330      0          -320       1657.72    85.813     20766     
2765.4     6.47       366        1493       0          0          265.742    15333      0          -275       1655.29    85.817     20767     
2765.6     6.58       361        1421       0          0          265.913    15341      0          -290       1652.85    85.823     20769     
2765.8     6.62       382        2117       0          0          265.717    15331      0          -260       1650.34    85.825     20769     
2766       6.43       398        2042       0          0          265.789    15335      0          -280       1647.87    85.828     20770     
2766.2     6.16       372        1397       0          0          265.934    15342      0          -280       1645.43    85.828     20770     
2766.4     5.94       356        1846       0          0          265.821    15337      0          -320       1642.95    85.832     20771     
2766.6     5.68       355        1293       0          0          265.769    15334      0          -320       1640.51    85.832     20771     
2766.8     5.46       324        1069       0          0          266.048    15347      0          -320       1638.05    85.831     20771     
2767       5.38       309        1675       0          0          265.902    15340      0          -320       1635.59    85.836     20772     
2767.2     5.32       312        4281       0          0          265.789    15335      0          -320       1633.12    85.846     20775     
2767.4     5.3        296        3696       0          0          266.168    15353      0          -320       1630.67    85.84      20773     
2767.6     5.53       281        1791       0          0          265.959    15343      0          -260       1628.22    85.851     20776     
2767.8     5.93       314        1619       0          0          265.87     15339      0          -320       1625.76    85.856     20777     
2768       6          367        1958       0          0          266.268    15358      0          -260       1623.3     85.87      20781     
2768.2     5.75       347        2636       0          0          266.068    15349      0          -260       1620.84    85.893     20787     
2768.4     5.66       310        2326       0          0          265.97     15344      0          -260       1618.32    85.917     20793     
2768.6     5.82       321        1632       0          0          266.389    15364      0          -260       1615.91    85.923     20795     
2768.8     6.02       320        3252       0          0          266.244    15357      0          -260       1613.36    85.934     20798     
2769       6.3        340        3388       0          0          266.07     15349      0          -320       1611       85.945     20801     
2769.2     6.49       372        2191       0          0          266.484    15369      0          -300       1608.55    85.963     20806     
2769.4     6.48       372        2883       0          0          266.415    15366      0          -320       1606.08    85.972     20808     
