~Version
 VERS              .         2.0                           : CWLS LOG ASCII STANDARD - VERSION 2.0
 WRAP              .         NO                            : ONE LINE PER DEPTH STEP
 DLM               .         SPACE                         : DELIMITING CHARACTER(SPACE TAB OR COMMA)
~Well Information
#_______________________________________________________________________________
#
#PARAMETER_NAME    .UNIT     VALUE                         : DESCRIPTION
#_______________________________________________________________________________
STRT               .M        2666.2                        : First reference value
STOP               .M        2778.8                        : Last reference value
STEP               .M        0.2000002                     : Step increment
NULL               .         -9999                         : Missing value
COMP               .                                       : Company
WELL               .         616                           : Well name
FLD                .                                       : Field
LOC                .                                       : Location
CNTY               .                                       : County
STAT               .                                       : State
CTRY               .                                       : Country
SRVC               .                                       : Service Company
DATE               .                                       : Date
API                .                                       : API number
PROJECT_UPGRADE_TIME .         2021-03-18T21_24_50           : 
group              .         Good                          : 
~Parameter Information Block
#_______________________________________________________________________________
#
#PARAMETER_NAME    .UNIT     VALUE                         : DESCRIPTION
#_______________________________________________________________________________
SET                .         D0400_D                       : 
OTHER              .         Прибор_ АКП4_90               : 
OTHER_2            .         Номер прибора_ 56             : 
OTHER_3            .         Режим_ АКП4_90 - все каналы   : 
OTHER_4            .         Форма_ Г-1                    : 
OTHER_5            .         Тарировки_                    : 
OTHER_6            .         TM.GRD = 0.00379*TM$.UE + 7.11: 
OTHER_7            .         MN.ATM = (8e-006*TM.GRD + 0.02)*(MN$.UE + -8*TM.GRD + -1800): 
OTHER_8            .         GK.MKR/H = GK$.UE / 57.17 + 0 : 
PROJECT_UPGRADE_TIME .         2021-03-18T21_24_49           : 
TLFamily_DEPT      .         Measured Depth                : 
TLFamily_GK        .         Gamma Ray                     : 
TLFamily_GK$       .                                       : 
TLFamily_LM        .         Casing Collar locator         : 
TLFamily_METKA     .                                       : 
TLFamily_METKA_1   .                                       : 
TLFamily_MN        .                                       : 
TLFamily_MN$       .                                       : 
TLFamily_RCOR      .                                       : 
TLFamily_SPID      .         Spontaneous Potential         : 
TLFamily_TIME      .         Time                          : 
TLFamily_TM        .         Temperature                   : 
TLFamily_TM$       .         Temperature                   : 
group              .         second                        : 
~Curve Information
#_______________________________________________________________________________
#
#LOGNAME           .UNIT     LOG_ID                        : DESCRIPTION
#_______________________________________________________________________________
DEPT               .M                                      : 1 Глубина, м -    0.0 см 
GK                 .MKR/H                                  : 12 Гамма-активность, мкр./ч -   65.0 см 
GK$                .UE                                     : 9 Гамма-активность, усл.ед. -   65.0 см 
LM                 .                                       : 8 Локатор муфт,  -   30.0 см 
METKA              .                                       : 3 Метки,  -    0.0 см 
METKA_1            .                                       : 13 Маркеры - 65 см 
MN                 .ATM                                    : 11 Давление, атм. -  140.0 см 
MN$                .UE                                     : 7 Давление, усл.ед. -  140.0 см 
RCOR               .CM/KM                                  : 5 Коррекция по ролику, см/км -    0.0 см 
SPID               .M/H                                    : 2 Скорость, м/час -    0.0 см 
TIME               .S                                      : 4 Время, сек -    0.0 см 
TM                 .GRD                                    : 10 Температура, °C -  145.0 см 
TM$                .UE                                     : 6 Температура, усл.ед. -  145.0 см 
~Ascii
# ...
2699.8     7.42       402        505        1          0          261.764    15134      0          -260       3241.71    83.755     20223     
2700       7.59       436        561        0          0          261.806    15136      0          -300       3238.37    83.763     20225     
2700.2     7.56       434        497        0          0          261.846    15138      0          -260       3235.8     83.77      20227     
2700.4     7.66       417        484        0          0          261.853    15138      0          -260       3233.22    83.774     20228     
2700.6     7.87       442        433        0          0          261.825    15137      0          -260       3230.52    83.782     20230     
2700.8     8.13       438        511        0          0          261.879    15140      0          -280       3227.95    83.789     20232     
2701       8.53       462        723        0          0          261.934    15142      0          -280       3225.37    83.794     20233     
2701.2     8.46       496        1139       0          0          261.947    15143      0          -320       3222.79    83.801     20235     
2701.4     8.29       462        428        0          0          261.96     15144      0          -300       3220.23    83.808     20237     
2701.6     8.5        479        443        0          0          262.001    15146      0          -260       3217.66    83.818     20240     
2701.8     8.51       488        423        0          0          261.967    15144      0          -320       3215.07    83.823     20241     
2702       8.48       488        474        0          0          262.008    15146      0          -260       3212.51    83.832     20243     
2702.2     8.43       485        454        0          0          262.055    15148      0          -320       3209.93    83.839     20245     
2702.4     8.4        474        473        0          0          262.075    15149      0          -260       3207.36    83.849     20248     
2702.6     8.53       470        473        0          0          262.047    15148      0          -280       3204.79    83.855     20249     
2702.8     8.75       496        505        0          0          262.082    15150      0          -280       3202.21    83.858     20250     
2703       8.76       520        438        0          0          262.143    15153      0          -260       3199.65    83.865     20252     
2703.2     8.48       505        528        0          0          262.15     15153      0          -280       3197.07    83.874     20254     
2703.4     8.26       464        424        0          0          262.135    15152      0          -260       3194.5     83.884     20257     
2703.6     8.41       464        487        0          0          262.162    15154      0          -320       3191.79    83.894     20260     
2703.8     8.46       522        447        0          0          262.23     15157      0          -260       3189.23    83.903     20262     
2704       7.79       520        603        0          0          262.237    15157      0          -260       3186.64    83.907     20263     
2704.2     6.71       459        462        0          0          262.223    15157      0          -300       3184.08    83.913     20265     
2704.4     5.95       380        364        0          0          262.25     15158      0          -260       3181.49    83.918     20266     
2704.6     5.61       322        443        0          0          262.305    15161      0          -260       3178.8     83.93      20269     
2704.8     5.65       315        473        0          0          262.317    15161      0          -300       3176.23    83.937     20271     
2705       5.66       332        474        0          0          262.289    15160      0          -280       3173.65    83.948     20274     
2705.2     5.74       309        686        0          0          262.309    15161      0          -260       3171.07    83.961     20277     
2705.4     6.08       306        1446       1          0          262.385    15165      0          -260       3168.5     83.971     20280     
2705.6     6.35       352        1013       0          0          262.398    15165      0          -320       3165.93    83.979     20282     
2705.8     6.39       368        418        0          0          262.39     15165      0          -260       3163.36    83.984     20283     
2706       6.3        371        529        0          0          262.39     15165      0          -280       3160.79    83.991     20285     
2706.2     6.16       368        400        0          0          262.472    15169      0          -260       3158.21    83.998     20287     
2706.4     5.83       363        526        0          0          262.479    15169      0          -260       3155.63    84.002     20288     
2706.6     5.55       346        483        0          0          262.43     15167      0          -300       3153.06    84.013     20291     
2706.8     5.68       308        514        0          0          262.478    15169      0          -280       3150.49    84.017     20292     
2707       5.93       315        519        0          0          262.533    15172      0          -260       3147.92    84.024     20294     
2707.2     6.24       364        481        0          0          262.574    15174      0          -320       3145.35    84.028     20295     
2707.4     6.11       367        731        0          0          262.511    15171      0          -260       3142.77    84.039     20298     
2707.6     5.79       325        1291       0          0          262.518    15171      0          -320       3140.18    84.043     20299     
2707.8     5.9        325        5711       0          0          262.593    15175      0          -260       3137.6     84.051     20301     
2708       6.1        344        1265       0          0          262.648    15178      0          -300       3135.02    84.055     20302     
2708.2     6.17       359        679        0          0          262.621    15176      0          -260       3132.45    84.058     20303     
2708.4     6.06       354        1944       0          0          262.572    15174      0          -260       3129.94    84.062     20304     
2708.6     5.94       345        470        0          0          262.633    15177      0          -300       3127.29    84.07      20306     
2708.8     5.88       332        469        0          0          262.723    15181      0          -260       3124.72    84.077     20308     
2709       5.95       329        551        0          0          262.715    15181      0          -280       3122.15    84.081     20309     
2709.2     6.09       348        504        0          0          262.68     15179      0          -260       3119.58    84.089     20311     
2709.4     6.11       345        501        0          0          262.693    15180      0          -260       3117.01    84.092     20312     
2709.6     6.27       324        500        0          0          262.797    15185      0          -260       3114.43    84.101     20314     
2709.8     6.76       347        555        1          0          262.796    15185      0          -300       3111.86    84.108     20316     
2710       7.18       405        428        0          0          262.748    15183      0          -320       3108.5     84.111     20317     
2710.2     7.16       422        1798       0          0          262.754    15183      0          -260       3105.94    84.119     20319     
2710.4     7.01       408        419        0          0          262.816    15186      0          -300       3103.36    84.123     20320     
2710.6     7.02       390        497        0          0          262.885    15189      0          -280       3100.66    84.127     20321     
2710.8     7.25       395        506        0          0          262.856    15188      0          -260       3097.96    84.134     20323     
