~Version
 VERS              .         2.0                           : CWLS LOG ASCII STANDARD - VERSION 2.0
 WRAP              .         NO                            : ONE LINE PER DEPTH STEP
 DLM               .         SPACE                         : DELIMITING CHARACTER(SPACE TAB OR COMMA)
~Well Information
#_______________________________________________________________________________
#
#PARAMETER_NAME    .UNIT     VALUE                         : DESCRIPTION
#_______________________________________________________________________________
STRT               .M        44                            : First reference value
STOP               .M        2769.2                        : Last reference value
STEP               .M        0.2                           : Step increment
NULL               .         -9999                         : Missing value
COMP               .                                       : Company
WELL               .         616                           : Well name
FLD                .                                       : Field
LOC                .                                       : Location
CNTY               .                                       : County
STAT               .                                       : State
CTRY               .                                       : Country
SRVC               .                                       : Service Company
DATE               .                                       : Date
API                .                                       : API number
PROJECT_UPGRADE_TIME .         2021-03-18T21_24_50           : 
group              .         Good                          : 
~Parameter Information Block
#_______________________________________________________________________________
#
#PARAMETER_NAME    .UNIT     VALUE                         : DESCRIPTION
#_______________________________________________________________________________
SET                .         D1160_D                       : 
OTHER              .         Программное обеспечение станции MONITOR-386EX 25/12/99 15_08_10   BGF V52 22/08/01 16_56_30   3.2_BGF_N_3070031: 
OTHER_10           .         Тарировки_                    : 
OTHER_11           .         TM.GRD = 0.00403*TM$.UE + -1.19: 
OTHER_12           .         MN.ATM = (7.1e-006*TM.GRD + 0.02017)*(MN$.UE + -3.03*TM.GRD + -1833): 
OTHER_13           .         Id error                      : 
OTHER_2            .         Kedr.exe версия 3.4.2.51      : 
OTHER_3            .         KedrData.dll версия 3.4.2.24  : 
OTHER_4            .         Драйвер версия 2.1.1.8        : 
OTHER_5            .         Мнемоники версия 3.3 S        : 
OTHER_6            .         Прибор_ КСА-М1                : 
OTHER_7            .         Номер прибора_ 265            : 
OTHER_8            .         Режим_ КСА-М1                 : 
OTHER_9            .         Форма_ ТЕРМОМЕТР              : 
PROJECT_UPGRADE_TIME .         2021-03-18T21_24_49           : 
TLFamily_DEPT      .         Measured Depth                : 
TLFamily_GK        .         Gamma Ray                     : 
TLFamily_GK$       .                                       : 
TLFamily_LM        .         Casing Collar locator         : 
TLFamily_METKA     .                                       : 
TLFamily_MN        .                                       : 
TLFamily_MN$       .                                       : 
TLFamily_RCOR      .                                       : 
TLFamily_SPID      .         Spontaneous Potential         : 
TLFamily_STD       .                                       : 
TLFamily_TENS      .         Cable Tension                 : 
TLFamily_TIME      .         Time                          : 
TLFamily_TM        .         Temperature                   : 
TLFamily_TM$       .         Temperature                   : 
TLFamily_VGD       .         Gas Volume                    : 
group              .         prim                          : 
~Curve Information
#_______________________________________________________________________________
#
#LOGNAME           .UNIT     LOG_ID                        : DESCRIPTION
#_______________________________________________________________________________
DEPT               .M                                      : 1 Глубина, м -    0.0 см 
GK                 .MKR/H                                  : 15 Гамма-активность, мкр./ч -  110.0 см 
GK$                .UE                                     : 12 Гамма-активность, усл.ед. -  110.0 см 
LM                 .                                       : 10 Локатор муфт,  -   20.0 см 
METKA              .                                       : 3 Метки,  -    0.0 см 
MN                 .ATM                                    : 14 Давление, атм. -  160.0 см 
MN$                .UE                                     : 8 Давление, усл.ед. -  160.0 см 
RCOR               .CM/KM                                  : 5 Коррекция по ролику, см/км -    0.0 см 
SPID               .M/H                                    : 2 Скорость, м/час -    0.0 см 
STD                .                                       : 11 Приток,  -  170.0 см 
TENS               .T                                      : 6 Натяжение кабеля, т -    0.0 см 
TIME               .S                                      : 4 Время, сек -    0.0 см 
TM                 .GRD                                    : 13 Температура, °C -  180.0 см 
TM$                .UE                                     : 7 Температура, усл.ед. -  180.0 см 
VGD                .                                       : 9 Влагомер,  -  170.0 см 
~Ascii
# ...
220.4      2.22       106        160        0          18.073     2758       -1400      2023       150        0          10815.18   10.57      2918       6415      
220.6      2.31       106        161        0          18.093     2759       -1400      2026       151        0          10815.54   10.567     2917       6414      
220.8      2.37       106        147        0          18.112     2760       -1400      2029       150        0          10815.92   10.566     2917       6414      
221        2.41       106        152        0          18.133     2761       -1400      2023       151        0          10816.28   10.563     2916       6416      
221.2      2.43       106        137        0          18.154     2762       -1400      2020       149        0          10816.63   10.561     2916       6414      
221.4      2.45       106        160        0          18.174     2763       -1400      2023       147        0          10817      10.559     2915       6413      
221.6      2.46       106        174        0          18.194     2764       -1400      2022       145        0          10817.36   10.555     2914       6413      
221.8      2.47       106        167        0          18.214     2765       -1400      2022       143        0          10817.72   10.553     2914       6414      
222        2.47       106        164        0          18.234     2766       -1400      2025       143        0          10818.08   10.551     2913       6414      
222.2      2.47       106        157        0          18.254     2767       -1400      2019       143        0          10818.45   10.547     2912       6414      
222.4      2.48       106        177        0          18.275     2768       -1400      2013       142        0          10818.81   10.545     2912       6414      
222.6      2.48       106        164        0          18.295     2769       -1400      2010       142        0          10819.15   10.545     2912       6414      
222.8      2.48       106        138        0          18.315     2770       -1400      2011       142        0          10819.52   10.543     2911       6413      
223        2.45       103        157        0          18.336     2771       -1400      2011       140        0          10819.89   10.539     2910       6414      
223.2      2.44       103        149        0          18.356     2772       -1400      2008       139        0          10820.25   10.537     2910       6415      
223.4      2.43       103        141        0          18.376     2773       -1400      2005       138        0          10820.62   10.535     2909       6415      
223.6      2.42       103        147        0          18.396     2774       -1400      2002       136        0          10820.96   10.531     2908       6415      
223.8      2.42       103        150        0          18.417     2775       -1400      2000       135        0          10821.3    10.527     2907       6415      
224        2.41       103        141        0          18.438     2776       -1400      2002       135        0          10821.66   10.525     2907       6415      
224.2      2.43       105        124        0          18.457     2777       -1400      2006       134        0          10822.02   10.523     2906       6415      
224.4      2.57       122        178        0          18.477     2778       -1400      2004       134        0          10822.39   10.521     2906       6412      
224.6      2.67       122        2957       0          18.498     2779       -1400      2002       135        0          10822.75   10.519     2905       6412      
224.8      2.73       122        1948       0          18.519     2780       -1400      2007       134        0          10823.11   10.517     2905       6412      
225        2.77       122        1948       0          18.539     2781       -1400      2008       133        0          10823.47   10.515     2904       6413      
225.2      2.8        122        1301       0          18.558     2782       -1400      2005       131        0          10823.83   10.511     2903       6413      
225.4      2.82       122        602        0          18.568     2782       -1400      2003       129        0          10824.19   10.507     2902       6413      
225.6      2.83       122        602        0          18.587     2783       -1400      2004       128        0          10824.56   10.503     2902       6413      
225.8      2.83       121        435        0          18.618     2784       -1400      2002       127        0          10824.92   10.501     2901       6413      
226        2.83       121        267        0          18.629     2785       -1400      1994       126        0          10825.28   10.499     2901       6412      
226.2      2.83       121        267        0          18.639     2785       -1400      1993       130        0          10825.64   10.495     2900       6412      
226.4      2.83       121        241        0          18.668     2787       -1400      1995       127        0          10826      10.491     2899       6412      
226.6      2.83       121        228        0          18.69      2788       -1400      1994       122        0          10826.36   10.487     2898       6412      
226.8      2.83       121        204        0          18.7       2788       -1400      1992       119        0          10826.71   10.483     2897       6414      
227        2.83       121        219        0          18.72      2789       -1400      1991       120        0          10827.05   10.481     2896       6412      
227.2      2.74       110        214        0          18.741     2790       -1400      1990       120        0          10827.43   10.479     2896       6412      
227.4      2.67       109        179        0          18.762     2791       -1400      1989       120        0          10827.78   10.473     2894       6411      
227.6      2.63       109        180        0          18.781     2792       -1400      1988       119        0          10828.13   10.467     2893       6411      
227.8      2.6        109        167        0          18.802     2793       -1400      1990       119        0          10828.48   10.465     2892       6410      
228        2.59       109        167        0          18.822     2794       -1400      1993       117        0          10828.86   10.463     2892       6411      
228.2      2.57       109        157        0          18.843     2795       -1400      1992       114        0          10829.23   10.459     2891       6409      
228.4      2.57       109        155        0          18.862     2796       -1400      1991       112        0          10829.59   10.455     2890       6412      
228.6      2.69       125        172        0          18.875     2797       -1400      1990       111        0          10829.95   10.451     2889       6410      
228.8      2.79       128        184        0          18.89      2798       -1400      1989       110        0          10830.3    10.447     2888       6410      
229        2.86       128        172        0          18.923     2799       -1400      1988       109        0          10830.65   10.443     2887       6411      
229.2      2.91       128        171        0          18.936     2800       -1400      1987       108        0          10831.02   10.439     2886       6409      
229.4      2.94       128        162        0          18.942     2800       -1400      1986       109        0          10831.4    10.437     2885       6410      
229.6      2.96       128        155        0          18.964     2801       -1400      1988       108        0          10831.76   10.434     2884       6411      
229.8      2.97       128        159        0          18.984     2802       -1400      1992       105        0          10832.11   10.428     2883       6412      
230        2.98       129        153        0          19.004     2803       -1400      1991       102        0          10832.48   10.427     2883       6409      
