~Version
 VERS              .         2.0                           : CWLS LOG ASCII STANDARD - VERSION 2.0
 WRAP              .         NO                            : ONE LINE PER DEPTH STEP
 DLM               .         SPACE                         : DELIMITING CHARACTER(SPACE TAB OR COMMA)
~Well Information
#_______________________________________________________________________________
#
#PARAMETER_NAME    .UNIT     VALUE                         : DESCRIPTION
#_______________________________________________________________________________
STRT               .M        209.2                         : First reference value
STOP               .M        612.6                         : Last reference value
STEP               .M        0.2                           : Step increment
NULL               .         -9999                         : Missing value
COMP               .                                       : Company
WELL               .         616                           : Well name
FLD                .                                       : Field
LOC                .                                       : Location
CNTY               .                                       : County
STAT               .                                       : State
CTRY               .                                       : Country
SRVC               .                                       : Service Company
DATE               .                                       : Date
API                .                                       : API number
PROJECT_UPGRADE_TIME .         2021-03-18T21_24_50           : 
group              .         Good                          : 
~Parameter Information Block
#_______________________________________________________________________________
#
#PARAMETER_NAME    .UNIT     VALUE                         : DESCRIPTION
#_______________________________________________________________________________
SET                .         616_3                         : 
CONF               .         00                            : 
END                .         0                             : 
ERR                .         0                             : 
GS00               .M        0610.64                       : 
GS01               .M        0206.79                       : 
MM00               .M        0060.00                       : 
NOKG               .         1                             : 
NPR                .         980119                        : 
PART               .         Палагутин                     : 
PROJECT_UPGRADE_TIME .         2021-03-18T21_24_49           : 
PRZK               .         Шакиров                       : 
TLFamily_AZIMUTH   .         True Dip Azimuth              : 
TLFamily_DEPTH     .         Measured Depth                : 
TLFamily_METKA     .                                       : 
TLFamily_ROLL      .                                       : 
TLFamily_SPEED     .         Spontaneous Potential         : 
TLFamily_ZENIT     .                                       : 
VPRG               .         310                           : 
WAY                .         UP                            : 
group              .         prim                          : 
~Curve Information
#_______________________________________________________________________________
#
#LOGNAME           .UNIT     LOG_ID                        : DESCRIPTION
#_______________________________________________________________________________
DEPTH              .M                                      :  
AZIMUTH            .DEG                                    :  
METKA              .                                       :  
ROLL               .DEG                                    :  
SPEED              .M/H                                    :  
ZENIT              .DEG                                    :  
~Ascii
# ...
502        262.28     0          150.77     684        25.24     
502.2      261.97     1          148.91     648        25.27     
502.4      262.35     0          147.5      684        25.36     
502.6      262.35     0          146.92     648        25.42     
502.8      260.86     0          147.09     684        25.19     
503        261.51     0          148.17     684        25.36     
503.2      261.62     0          149.05     612        25.18     
503.4      261.7      0          148.89     648        25.18     
503.6      262.33     0          149.21     648        25.46     
503.8      260.79     0          151.14     684        25.23     
504        262.26     0          153.47     684        25.48     
504.2      261.23     0          154.67     684        25.29     
504.4      260.61     0          155.26     648        25.16     
504.6      262.5      0          155.78     648        25.55     
504.8      261.48     0          155.98     684        25.32     
505        261        0          155.97     684        25.25     
505.2      263.4      0          155.54     612        25.8      
505.4      261.44     0          155.07     684        25.28     
505.6      261.64     0          154.22     648        25.35     
505.8      262.49     0          153.53     684        25.67     
506        261.57     0          153.83     684        25.41     
506.2      263.02     0          154.2      684        25.73     
506.4      262.17     0          155.46     648        25.61     
506.6      261.22     0          156.85     684        25.34     
506.8      263.09     0          157.11     648        25.81     
507        261.82     0          157        684        25.49     
507.2      261.54     0          156.94     684        25.47     
507.4      262.92     0          157.12     648        25.79     
507.6      262.03     0          157.76     684        25.54     
507.8      261.72     0          158.41     648        25.54     
508        262.24     0          158.68     648        25.58     
508.2      262.04     0          158.02     648        25.49     
508.4      262.17     0          156.8      684        25.52     
508.6      261.77     0          155.59     648        25.48     
508.8      261.97     0          154.48     684        25.56     
509        261.43     0          153.78     648        25.5      
509.2      262.39     0          153.4      648        25.68     
509.4      261.56     0          153.26     684        25.49     
509.6      261        0          153.03     684        25.35     
509.8      262.07     0          152.93     684        25.6      
510        260.9      0          153.42     612        25.41     
510.2      261.16     0          154.07     684        25.41     
510.4      261.89     0          154.67     648        25.56     
510.6      260.46     0          155.13     684        25.23     
510.8      262.41     1          155.66     684        25.56     
511        263.82     0          156.37     756        25.76     
511.2      263.28     0          156.43     612        25.43     
511.4      266.74     0          156.2      648        25.77     
511.6      271.53     0          156.74     684        25.66     
511.8      290.95     0          156.95     684        25.4      
512        332.93     0          156.53     684        25.85     
512.2      188.95     1          155.9      684        25.69     
512.4      189.78     0          155.87     684        25.43     
512.6      348        0          155.83     684        25.88     
512.8      278.91     0          155.5      684        25.68     
513        267.61     0          155.69     648        25.76     
513.2      264.15     0          157.3      612        25.88     
513.4      262.06     0          157.85     648        25.64     
513.6      261.16     0          157.14     684        25.58     
513.8      261.54     0          156.26     684        25.56     
514        260.81     0          155.12     648        25.39     
514.2      261.47     0          154.38     684        25.58     
514.4      261.28     0          153.34     684        25.42     
514.6      260.4      0          151.81     648        25.43     
514.8      261.78     0          152.23     720        25.62     
515        260.06     0          153.31     648        25.36     
515.2      260.79     0          153.61     612        25.4      
515.4      261.61     0          153.88     684        25.5      
515.6      262.09     0          154.45     648        25.62     
515.8      261.57     0          155.69     684        25.58     
516        262.21     0          156.65     684        25.71     
516.2      261.1      0          156.89     648        25.59     
516.4      260.22     0          157.46     684        25.48     
516.6      261.54     0          158.24     684        25.73     
516.8      261.63     0          158.54     648        25.63     
517        259.83     0          158.43     684        25.3      
517.2      262.12     0          158.42     648        25.84     
517.4      260.79     0          158.48     648        25.49     
517.6      259.71     0          157.98     684        25.38     
517.8      262.16     0          157.46     648        25.8      
518        260.91     0          157        648        25.54     
518.2      260.73     0          157.19     684        25.6      
518.4      261.36     0          157.87     648        25.77     
518.6      260.02     0          158.55     684        25.41     
518.8      260.94     0          158.43     684        25.65     
519        261.46     0          158.16     612        25.79     
519.2      259.91     0          157.95     648        25.4      
519.4      262.64     0          157.21     684        26        
519.6      260.93     0          157.76     684        25.68     
519.8      259.83     0          159.19     684        25.53     
520        262.78     0          160.47     612        25.99     
520.2      261.12     0          160.99     684        25.68     
520.4      261.07     0          160.54     648        25.69     
520.6      261.88     0          159.38     684        25.9      
520.8      261.04     0          158.26     684        25.73     
521        261.64     0          157.66     684        25.89     
521.2      260.8      0          157.67     576        25.82     
521.4      260.43     0          157.86     684        25.73     
521.6      261.3      0          157.59     684        25.78     
521.8      260.18     0          157.39     720        25.69     
522        260.58     0          157        648        25.75     
522.2      261.52     1          156.08     684        25.77     
522.4      261.01     0          155.46     684        25.73     
522.6      261.02     0          155.44     684        25.71     
522.8      260.63     0          155.84     684        25.67     
523        262.62     0          156.73     684        25.96     
523.2      262.24     0          157.52     612        25.7      
523.4      263.34     0          157.55     648        25.73     
523.6      265.99     0          158        648        25.8      
523.8      271.82     0          158.62     684        25.56     
524        298.23     0          158.76     684        25.88     
524.2      334.76     0          158.8      648        25.94     
524.4      224.19     0          158.57     684        25.42     
524.6      225.34     0          157.99     684        26.1      
524.8      339.56     0          156.75     684        25.84     
525        281.85     0          156.22     612        25.6      
525.2      269.49     0          157.21     684        26.1      
525.4      262.87     0          158.48     684        25.72     
525.6      262.13     0          158.76     648        25.83     
525.8      262.66     0          158.72     648        25.88     
526        260.93     0          157.39     684        25.46     
526.2      262.37     0          155        648        25.74     
