~Version
 VERS              .         2.0                           : CWLS LOG ASCII STANDARD - VERSION 2.0
 WRAP              .         NO                            : ONE LINE PER DEPTH STEP
 DLM               .         SPACE                         : DELIMITING CHARACTER(SPACE TAB OR COMMA)
~Well Information
#_______________________________________________________________________________
#
#PARAMETER_NAME    .UNIT     VALUE                         : DESCRIPTION
#_______________________________________________________________________________
STRT               .M        2664                          : First reference value
STOP               .M        2769.2                        : Last reference value
STEP               .M        0.1999999                     : Step increment
NULL               .         -9999                         : Missing value
COMP               .                                       : Company
WELL               .         616                           : Well name
FLD                .                                       : Field
LOC                .                                       : Location
CNTY               .                                       : County
STAT               .                                       : State
CTRY               .                                       : Country
SRVC               .                                       : Service Company
DATE               .                                       : Date
API                .                                       : API number
PROJECT_UPGRADE_TIME .         2021-03-18T21_24_50           : 
group              .         Good                          : 
~Parameter Information Block
#_______________________________________________________________________________
#
#PARAMETER_NAME    .UNIT     VALUE                         : DESCRIPTION
#_______________________________________________________________________________
SET                .         D1161_D                       : 
OTHER              .         Программное обеспечение станции MONITOR-386EX 25/12/99 15_08_10   BGF V52 22/08/01 16_56_30   3.2_BGF_N_3070031: 
OTHER_10           .         Тарировки_                    : 
OTHER_11           .         TM.GRD = 0.00403*TM$.UE + -1.19: 
OTHER_12           .         MN.ATM = (7.1e-006*TM.GRD + 0.02017)*(MN$.UE + -3.03*TM.GRD + -1833): 
OTHER_13           .         Id error                      : 
OTHER_2            .         Kedr.exe версия 3.4.2.51      : 
OTHER_3            .         KedrData.dll версия 3.4.2.24  : 
OTHER_4            .         Драйвер версия 2.1.1.8        : 
OTHER_5            .         Мнемоники версия 3.3 S        : 
OTHER_6            .         Прибор_ КСА-М1                : 
OTHER_7            .         Номер прибора_ 265            : 
OTHER_8            .         Режим_ КСА-М1                 : 
OTHER_9            .         Форма_ ТЕРМОМЕТР              : 
PROJECT_UPGRADE_TIME .         2021-03-18T21_24_49           : 
TLFamily_DEPT      .         Measured Depth                : 
TLFamily_GK        .         Gamma Ray                     : 
TLFamily_GK$       .                                       : 
TLFamily_LM        .         Casing Collar locator         : 
TLFamily_METKA     .                                       : 
TLFamily_MN        .                                       : 
TLFamily_MN$       .                                       : 
TLFamily_RCOR      .                                       : 
TLFamily_SPID      .         Spontaneous Potential         : 
TLFamily_STD       .                                       : 
TLFamily_TENS      .         Cable Tension                 : 
TLFamily_TIME      .         Time                          : 
TLFamily_TM        .         Temperature                   : 
TLFamily_TM$       .         Temperature                   : 
TLFamily_VGD       .         Gas Volume                    : 
group              .         prim                          : 
~Curve Information
#_______________________________________________________________________________
#
#LOGNAME           .UNIT     LOG_ID                        : DESCRIPTION
#_______________________________________________________________________________
DEPT               .M                                      : 1 Глубина, м -    0.0 см 
GK                 .MKR/H                                  : 15 Гамма-активность, мкр./ч -  110.0 см 
GK$                .UE                                     : 12 Гамма-активность, усл.ед. -  110.0 см 
LM                 .                                       : 10 Локатор муфт,  -   20.0 см 
METKA              .                                       : 3 Метки,  -    0.0 см 
MN                 .ATM                                    : 14 Давление, атм. -  160.0 см 
MN$                .UE                                     : 8 Давление, усл.ед. -  160.0 см 
RCOR               .CM/KM                                  : 5 Коррекция по ролику, см/км -    0.0 см 
SPID               .M/H                                    : 2 Скорость, м/час -    0.0 см 
STD                .                                       : 11 Приток,  -  170.0 см 
TENS               .T                                      : 6 Натяжение кабеля, т -    0.0 см 
TIME               .S                                      : 4 Время, сек -    0.0 см 
TM                 .GRD                                    : 13 Температура, °C -  180.0 см 
TM$                .UE                                     : 7 Температура, усл.ед. -  180.0 см 
VGD                .                                       : 9 Влагомер,  -  170.0 см 
~Ascii
# ...
2683.6     9.68       413        1          0          248.962    14072      -1400      -305       32368      0          17122.99   87.743     22068      6508      
2683.8     9.75       415        1          0          248.999    14074      -1400      -311       32368      0          17120.62   87.748     22069      6507      
2684       9.61       419        1          0          249.02     14075      -1400      -304       32369      0          17118.32   87.754     22070      6507      
2684.2     9.83       402        1          0          249.041    14076      -1400      -309       32376      0          17115.88   87.76      22072      6506      
2684.4     10.22      428        1          0          249.062    14077      -1400      -300       32379      0          17113.62   87.768     22074      6506      
2684.6     10.3       448        1          0          249.083    14078      -1400      -304       32383      0          17111.32   87.776     22076      6505      
2684.8     10.28      427        1          0          249.104    14079      -1400      -306       32382      0          17109      87.78      22077      6505      
2685       11.08      462        1          0          249.062    14077      -1400      -306       32382      0          17106.63   87.784     22078      6505      
2685.2     11.95      511        1          0          249.145    14081      -1400      -311       32385      0          17104.27   87.792     22080      6504      
2685.4     11.81      514        1          0          249.166    14082      -1400      -304       32390      0          17102      87.792     22080      6503      
2685.6     11.02      482        1          0          249.187    14083      -1400      -310       32393      0          17099.63   87.796     22081      6502      
2685.8     9.85       430        1          0          249.208    14084      -1400      -303       32395      0          17097.27   87.804     22083      6499      
2686       8.51       372        1          0          249.208    14084      -1400      -306       32394      0          17094.94   87.809     22084      6495      
2686.2     7.12       310        1          0          249.229    14085      -1400      -310       32397      0          17092.64   87.816     22086      6482      
2686.4     6.35       270        1          0          249.25     14086      -1400      -302       32396      0          17090.27   87.821     22087      6511      
2686.6     6.65       283        1          0          249.271    14087      -1400      -303       32398      0          17087.9    87.825     22088      6511      
2686.8     6.88       290        1          0          249.292    14088      -1400      -302       32396      0          17085.53   87.829     22089      6511      
2687       7.01       296        1          0          249.313    14089      -1400      -302       32396      0          17083.16   87.837     22091      6511      
2687.2     7.14       301        1          0          249.334    14090      -1400      -309       32401      0          17080.8    87.841     22092      6512      
2687.4     7.15       311        1          0          249.355    14091      -1400      -309       32400      0          17078.54   87.849     22094      6511      
2687.6     6.8        302        1          0          249.376    14092      -1400      -310       32392      0          17076.14   87.857     22096      6511      
2687.8     6.57       278        1          0          249.397    14093      -1400      -311       32403      0          17073.69   87.86      22097      6511      
2688       6.84       282        1          0          249.417    14094      -1400      -303       32409      0          17071.39   87.865     22098      6512      
2688.2     7.49       318        1          0          249.438    14095      -1400      -298       32373      0          17069.06   87.869     22099      6511      
2688.4     7.68       326        1          0          249.449    14096      -1400      -301       32373      0          17066.66   87.873     22100      6511      
2688.6     7.91       336        1          0          249.48     14097      -1400      -303       32415      0          17064.33   87.881     22102      6511      
2688.8     8.04       344        1          0          249.512    14099      -1400      -299       32373      0          17061.96   87.885     22103      6511      
2689       7.99       344        1          0          249.522    14099      -1400      -305       32373      0          17059.62   87.893     22105      6510      
2689.2     7.7        331        1          0          249.529    14099      -1400      -304       32404      0          17057.18   87.9       22107      6510      
2689.4     7.42       315        1          0          249.564    14101      -1400      -303       32373      0          17054.89   87.901     22107      6509      
2689.6     7.89       336        1          0          249.585    14102      -1400      -294       32373      0          17052.59   87.909     22109      6509      
2689.8     8.07       345        1          0          249.626    14104      -1400      -307       32373      0          17050.01   87.912     22110      6510      
2690       8.05       343        1          2          249.627    14104      -1400      -303       32373      0          17047.42   87.908     22109      6510      
2690.2     8.45       354        1          0          249.647    14105      -1400      -298       32373      0          17045.06   87.923     22112      6510      
2690.4     8.56       365        1          0          249.684    14107      -1400      -295       32373      0          17042.8    87.929     22114      6510      
2690.6     8.64       366        1          0          249.71     14108      -1400      -299       32373      0          17040.26   87.934     22115      6510      
2690.8     8.87       371        1          0          249.731    14109      -1400      -296       32374      0          17037.96   87.937     22116      6510      
2691       8.46       387        1          0          249.745    14110      -1400      -287       32373      0          17035.52   87.943     22117      6509      
2691.2     8.18       343        28         0          249.752    14110      -1400      -301       32373      0          17033.08   87.95      22119      6509      
2691.4     8.88       349        2018       0          249.773    14111      -1400      -303       32373      0          17030.74   87.958     22121      6509      
2691.6     9.32       414        301        0          249.815    14113      -1400      -300       32373      0          17028.37   87.966     22123      6509      
2691.8     8.75       380        1          0          249.836    14114      -1400      -297       32373      0          17026      87.966     22123      6508      
2692       8.83       367        1          0          249.857    14115      -1400      -308       32373      0          17023.52   87.972     22125      6509      
2692.2     9.12       395        1          0          249.877    14116      -1400      -307       32373      0          17021.16   87.978     22126      6508      
2692.4     8.86       380        1          0          249.878    14116      -1400      -297       32373      0          17018.79   87.982     22127      6509      
2692.6     8.83       374        1          0          249.919    14118      -1400      -306       32373      0          17016.31   87.99      22129      6509      
2692.8     9.24       383        1          0          249.94     14119      -1400      -304       32374      0          17013.98   87.991     22129      6509      
2693       9.88       425        1          0          249.94     14119      -1400      -301       32374      0          17011.68   87.998     22131      6509      
2693.2     9.65       417        1          0          249.966    14120      -1400      -307       32373      0          17009.32   88.006     22133      6508      
