~Version
 VERS              .         2.0                           : CWLS LOG ASCII STANDARD - VERSION 2.0
 WRAP              .         NO                            : ONE LINE PER DEPTH STEP
 DLM               .         SPACE                         : DELIMITING CHARACTER(SPACE TAB OR COMMA)
~Well Information
#_______________________________________________________________________________
#
#PARAMETER_NAME    .UNIT     VALUE                         : DESCRIPTION
#_______________________________________________________________________________
STRT               .M        10.2                          : First reference value
STOP               .M        2753.6                        : Last reference value
STEP               .M        0.2                           : Step increment
NULL               .         -9999                         : Missing value
COMP               .                                       : Company
WELL               .         616                           : Well name
FLD                .                                       : Field
LOC                .                                       : Location
CNTY               .                                       : County
STAT               .                                       : State
CTRY               .                                       : Country
SRVC               .                                       : Service Company
DATE               .                                       : Date
API                .                                       : API number
PROJECT_UPGRADE_TIME .         2021-03-18T21_24_50           : 
group              .         Good                          : 
~Parameter Information Block
#_______________________________________________________________________________
#
#PARAMETER_NAME    .UNIT     VALUE                         : DESCRIPTION
#_______________________________________________________________________________
SET                .         D7028_D                       : 
OTHER              .         Kedr.exe версия 2.1.2.32      : 
OTHER_10           .         TM.GRD = 0.00404*TM$.UE + 0.07: 
OTHER_11           .         MN.ATM = (6.33279e-006*TM.GRD + 0.02401)*(MN$.UE + 2.72*TM.GRD + -2018): 
OTHER_12           .         GK.MKR/H = GK$.UE / 43.5489 + 0: 
OTHER_13           .         RES.SM = 0.00476*CRES.UE - 1.51709: 
OTHER_14           .         PL.GSM3 = 0 + 0 * (PL.UE / 1) +  0 * (PL.UE / 1)^2: 
OTHER_15           .         Постоянная времени ГГП = 6 сек: 
OTHER_16           .         Постоянная времени ГК = 6 сек : 
OTHER_2            .         KedrData.dll версия 3.2.2.14  : 
OTHER_3            .         LasInf.dll версия 3.2.0.13    : 
OTHER_4            .         Драйвер версия 1.2.0.5        : 
OTHER_5            .         Прибор_ КСА-M1                : 
OTHER_6            .         Номер прибора_ 155+р204       : 
OTHER_7            .         Режим_ КСА-М1 + ГГП + Резистивиметр: 
OTHER_8            .         Форма_ 223\2                  : 
OTHER_9            .         Тарировки_                    : 
PROJECT_UPGRADE_TIME .         2021-03-18T21_24_50           : 
TLFamily_CRES      .                                       : 
TLFamily_DEPT      .         Measured Depth                : 
TLFamily_GK        .         Gamma Ray                     : 
TLFamily_GK$       .                                       : 
TLFamily_LM        .         Casing Collar locator         : 
TLFamily_METKA     .                                       : 
TLFamily_MN        .                                       : 
TLFamily_MN$       .                                       : 
TLFamily_PL        .                                       : 
TLFamily_PL_2      .                                       : 
TLFamily_RCOR      .                                       : 
TLFamily_RES       .         Mud Resistivity               : 
TLFamily_SPID      .         Spontaneous Potential         : 
TLFamily_STD       .                                       : 
TLFamily_TIME      .         Time                          : 
TLFamily_TM        .         Temperature                   : 
TLFamily_TM$       .         Temperature                   : 
TLFamily_VGD       .         Gas Volume                    : 
group              .         prim                          : 
~Curve Information
#_______________________________________________________________________________
#
#LOGNAME           .UNIT     LOG_ID                        : DESCRIPTION
#_______________________________________________________________________________
DEPT               .M                                      : 1 Глубина, м -    0.0 см 
CRES               .UE                                     : 9 Проводимость, усл.ед. -  222.0 см 
GK                 .MKR/H                                  : 16 Гамма-активность, мкр./ч -  106.0 см 
GK$                .UE                                     : 13 Гамма-активность, усл.ед. -  106.0 см 
LM                 .                                       : 11 Локатор муфт,  -   16.0 см 
METKA              .                                       : 3 Метки,  -    0.0 см 
MN                 .ATM                                    : 15 Давление, атм. -  160.0 см 
MN$                .UE                                     : 7 Давление, усл.ед. -  160.0 см 
PL                 .UE                                     : 10 Плотность, усл.ед. -  270.0 см 
PL_2               .GSM3                                   : 18 Плотность, г./см3 -  270.0 см 
RCOR               .CM/KM                                  : 5 Коррекция по ролику, см/км -    0.0 см 
RES                .SM                                     : 17 Проводимость,  -  222.0 см 
SPID               .M/H                                    : 2 Скорость, м/час -    0.0 см 
STD                .                                       : 12 Приток,  -  170.0 см 
TIME               .S                                      : 4 Время, сек -    0.0 см 
TM                 .GRD                                    : 14 Температура, °C -  180.0 см 
TM$                .UE                                     : 6 Температура, усл.ед. -  180.0 см 
VGD                .                                       : 8 Влагомер,  -  170.0 см 
~Ascii
# ...
2749       1243       7.65       332        31         0          253.927    12280      14         0          0          4.4004     -1677      11592      18701.1    57.486     14212      6548      
2749.2     1211       7.66       332        31         0          253.934    12280      14         0          0          4.2477     -1502      11599      18700.67   57.461     14206      6549      
2749.4     1007       7.67       332        31         0          253.954    12281      14         0          0          3.2778     -1470      11602      18700.24   57.455     14204      6554      
2749.6     936        7.68       334        31         0          253.958    12281      14         0          0          2.9371     -1353      11601      18699.75   57.458     14205      6557      
2749.8     919        7.68       336        30         1          253.937    12280      14         0          0          2.8552     -1090      11598      18699.27   57.458     14205      6558      
2750       880        7.68       336        32         0          253.935    12280      13         0          0          2.6695     -1090      11597      18698.82   57.462     14206      6558      
2750.2     873        7.67       336        31         0          253.935    12280      14         0          0          2.6396     -980       11596      18698.3    57.462     14206      6558      
2750.4     875        7.65       336        31         0          253.954    12281      14         0          0          2.6479     -925       11596      18697.62   57.462     14206      6558      
2750.6     875        7.64       336        32         0          253.959    12281      14         0          0          2.6479     -698       11594      18696.84   57.462     14206      6557      
2750.8     875        7.61       328        31         0          253.959    12281      13         0          0          2.6479     -510       11594      18695.87   57.462     14206      6557      
2751       875        7.64       328        31         -9999      253.959    12281      14         0          -9999      2.6479     -9999      11593      -9999      57.462     14206      6557      
2751.2     875        7.67       328        -9999      -9999      253.959    12281      14         0          -9999      2.6479     -9999      11591      -9999      57.462     14206      6557      
2751.4     875        7.73       328        -9999      -9999      253.959    12281      14         0          -9999      2.6479     -9999      11592      -9999      57.466     14207      6557      
2751.6     875        7.81       328        -9999      -9999      253.959    12281      13         0          -9999      2.6479     -9999      11589      -9999      57.466     14207      6558      
2751.8     875        7.92       338        -9999      -9999      253.959    12281      14         0          -9999      2.6479     -9999      11591      -9999      57.466     14207      6559      
2752       875        -9999      -9999      -9999      -9999      253.984    12282      14         0          -9999      2.6479     -9999      11588      -9999      57.466     14207      6558      
2752.2     875        -9999      -9999      -9999      -9999      253.997    12283      14         0          -9999      2.6479     -9999      11586      -9999      57.466     14207      6555      
2752.4     875        -9999      -9999      -9999      -9999      254.009    12283      14         0          -9999      2.6479     -9999      11583      -9999      57.466     14207      6560      
2752.6     875        -9999      -9999      -9999      -9999      -9999      -9999      14         0          -9999      2.6479     -9999      11580      -9999      57.47      14208      6553      
2752.8     875        -9999      -9999      -9999      -9999      -9999      -9999      14         0          -9999      2.6479     -9999      -9999      -9999      -9999      -9999      -9999     
2753       875        -9999      -9999      -9999      -9999      -9999      -9999      14         0          -9999      2.6479     -9999      -9999      -9999      -9999      -9999      -9999     
2753.2     -9999      -9999      -9999      -9999      -9999      -9999      -9999      14         0          -9999      -9999      -9999      -9999      -9999      -9999      -9999      -9999     
2753.4     -9999      -9999      -9999      -9999      -9999      -9999      -9999      14         0          -9999      -9999      -9999      -9999      -9999      -9999      -9999      -9999     
2753.6     -9999      -9999      -9999      -9999      -9999      -9999      -9999      14         0          -9999      -9999      -9999      -9999      -9999      -9999      -9999      -9999     
