~Version
 VERS              .         2.0                           : CWLS LOG ASCII STANDARD - VERSION 2.0
 WRAP              .         NO                            : ONE LINE PER DEPTH STEP
 DLM               .         SPACE                         : DELIMITING CHARACTER(SPACE TAB OR COMMA)
~Well Information
#_______________________________________________________________________________
#
#PARAMETER_NAME    .UNIT     VALUE                         : DESCRIPTION
#_______________________________________________________________________________
STRT               .M        10.2                          : First reference value
STOP               .M        2753.6                        : Last reference value
STEP               .M        0.2                           : Step increment
NULL               .         -9999                         : Missing value
COMP               .                                       : Company
WELL               .         616                           : Well name
FLD                .                                       : Field
LOC                .                                       : Location
CNTY               .                                       : County
STAT               .                                       : State
CTRY               .                                       : Country
SRVC               .                                       : Service Company
DATE               .                                       : Date
API                .                                       : API number
PROJECT_UPGRADE_TIME .         2021-03-18T21_24_50           : 
group              .         Good                          : 
~Parameter Information Block
#_______________________________________________________________________________
#
#PARAMETER_NAME    .UNIT     VALUE                         : DESCRIPTION
#_______________________________________________________________________________
SET                .         D7028_D                       : 
OTHER              .         Kedr.exe версия 2.1.2.32      : 
OTHER_10           .         TM.GRD = 0.00404*TM$.UE + 0.07: 
OTHER_11           .         MN.ATM = (6.33279e-006*TM.GRD + 0.02401)*(MN$.UE + 2.72*TM.GRD + -2018): 
OTHER_12           .         GK.MKR/H = GK$.UE / 43.5489 + 0: 
OTHER_13           .         RES.SM = 0.00476*CRES.UE - 1.51709: 
OTHER_14           .         PL.GSM3 = 0 + 0 * (PL.UE / 1) +  0 * (PL.UE / 1)^2: 
OTHER_15           .         Постоянная времени ГГП = 6 сек: 
OTHER_16           .         Постоянная времени ГК = 6 сек : 
OTHER_2            .         KedrData.dll версия 3.2.2.14  : 
OTHER_3            .         LasInf.dll версия 3.2.0.13    : 
OTHER_4            .         Драйвер версия 1.2.0.5        : 
OTHER_5            .         Прибор_ КСА-M1                : 
OTHER_6            .         Номер прибора_ 155+р204       : 
OTHER_7            .         Режим_ КСА-М1 + ГГП + Резистивиметр: 
OTHER_8            .         Форма_ 223\2                  : 
OTHER_9            .         Тарировки_                    : 
PROJECT_UPGRADE_TIME .         2021-03-18T21_24_50           : 
TLFamily_CRES      .                                       : 
TLFamily_DEPT      .         Measured Depth                : 
TLFamily_GK        .         Gamma Ray                     : 
TLFamily_GK$       .                                       : 
TLFamily_LM        .         Casing Collar locator         : 
TLFamily_METKA     .                                       : 
TLFamily_MN        .                                       : 
TLFamily_MN$       .                                       : 
TLFamily_PL        .                                       : 
TLFamily_PL_2      .                                       : 
TLFamily_RCOR      .                                       : 
TLFamily_RES       .         Mud Resistivity               : 
TLFamily_SPID      .         Spontaneous Potential         : 
TLFamily_STD       .                                       : 
TLFamily_TIME      .         Time                          : 
TLFamily_TM        .         Temperature                   : 
TLFamily_TM$       .         Temperature                   : 
TLFamily_VGD       .         Gas Volume                    : 
group              .         prim                          : 
~Curve Information
#_______________________________________________________________________________
#
#LOGNAME           .UNIT     LOG_ID                        : DESCRIPTION
#_______________________________________________________________________________
DEPT               .M                                      : 1 Глубина, м -    0.0 см 
CRES               .UE                                     : 9 Проводимость, усл.ед. -  222.0 см 
GK                 .MKR/H                                  : 16 Гамма-активность, мкр./ч -  106.0 см 
GK$                .UE                                     : 13 Гамма-активность, усл.ед. -  106.0 см 
LM                 .                                       : 11 Локатор муфт,  -   16.0 см 
METKA              .                                       : 3 Метки,  -    0.0 см 
MN                 .ATM                                    : 15 Давление, атм. -  160.0 см 
MN$                .UE                                     : 7 Давление, усл.ед. -  160.0 см 
PL                 .UE                                     : 10 Плотность, усл.ед. -  270.0 см 
PL_2               .GSM3                                   : 18 Плотность, г./см3 -  270.0 см 
RCOR               .CM/KM                                  : 5 Коррекция по ролику, см/км -    0.0 см 
RES                .SM                                     : 17 Проводимость,  -  222.0 см 
SPID               .M/H                                    : 2 Скорость, м/час -    0.0 см 
STD                .                                       : 12 Приток,  -  170.0 см 
TIME               .S                                      : 4 Время, сек -    0.0 см 
TM                 .GRD                                    : 14 Температура, °C -  180.0 см 
TM$                .UE                                     : 6 Температура, усл.ед. -  180.0 см 
VGD                .                                       : 8 Влагомер,  -  170.0 см 
~Ascii
# ...
1650.2     1135       9.95       442        1017       0          146.722    7918       14         0          0          3.8858     -1849      9561       20900.75   48.894     12085      6615      
1650.4     1136       9.9        442        628        0          146.749    7919       14         0          0          3.8898     -1860      9563       20900.36   48.898     12086      6616      
1650.6     1135       9.84       442        756        0          146.77     7920       14         0          0          3.8855     -1860      9564       20899.96   48.903     12087      6616      
1650.8     1136       9.76       442        896        0          146.773    7920       14         0          0          3.89       -1803      9565       20899.58   48.91      12089      6607      
1651       1137       9.68       442        676        0          146.799    7921       14         0          0          3.8948     -1849      9566       20899.18   48.91      12089      6605      
1651.2     1136       9.53       426        703        0          146.82     7922       14         0          0          3.8903     -1801      9567       20898.78   48.915     12090      6611      
1651.4     1136       9.47       426        728        0          146.826    7922       14         0          0          3.8903     -1790      9567       20898.38   48.922     12092      6612      
1651.6     1136       9.39       426        699        0          146.857    7924       14         0          0          3.8903     -1853      9568       20897.98   48.926     12093      6610      
1651.8     1136       9.31       426        858        0          146.891    7925       14         0          0          3.8903     -1860      9570       20897.6    48.928     12094      6608      
1652       1136       9.19       426        573        0          146.895    7925       14         0          0          3.8907     -1860      9571       20897.18   48.937     12096      6605      
1652.2     1137       9.05       426        551        0          146.916    7926       14         0          0          3.895      -1794      9572       20896.8    48.941     12097      6606      
1652.4     1136       8.88       402        676        0          146.94     7927       14         0          0          3.8915     -1790      9573       20896.42   48.945     12098      6605      
1652.6     1137       8.8        384        514        0          146.945    7927       14         0          0          3.8937     -1790      9573       20896.02   48.949     12099      6606      
1652.8     1137       8.8        384        444        0          146.967    7928       14         0          0          3.895      -1857      9574       20895.62   48.953     12100      6608      
1653       1137       8.79       384        448        0          146.992    7929       14         0          0          3.895      -1790      9576       20895.2    48.961     12102      6609      
1653.2     1138       8.79       384        473        0          146.996    7929       14         0          0          3.8985     -1790      9577       20894.82   48.962     12102      6608      
1653.4     1137       8.78       384        503        0          147.018    7930       14         0          0          3.8962     -1856      9577       20894.42   48.969     12104      6607      
1653.6     1137       8.77       383        546        0          147.044    7931       14         0          0          3.895      -1794      9578       20894.02   48.974     12105      6608      
1653.8     1137       8.77       382        707        0          147.069    7932       14         0          0          3.895      -1860      9579       20893.63   48.978     12106      6607      
1654       1137       8.77       382        953        0          147.071    7932       14         0          0          3.895      -1856      9580       20893.23   48.982     12107      6607      
1654.2     1138       8.77       382        1252       0          147.094    7933       14         0          0          3.899      -1794      9580       20892.83   48.99      12109      6608      
1654.4     1138       8.76       382        1864       0          147.119    7934       14         0          0          3.8998     -1860      9581       20892.45   48.99      12109      6610      
1654.6     1138       8.76       382        2983       0          147.121    7934       14         0          0          3.8998     -1860      9582       20892.03   48.998     12111      6610      
1654.8     1138       8.76       382        4664       0          147.145    7935       14         0          0          3.8998     -1860      9583       20891.65   48.999     12111      6613      
1655       1138       8.76       384        638        0          147.171    7936       14         0          0          3.8998     -1860      9584       20891.25   49.007     12113      6613      
1655.2     1138       8.74       385        622        0          147.195    7937       14         0          0          3.8998     -1860      9585       20890.87   49.011     12114      6612      
1655.4     1137       8.72       385        506        0          147.197    7937       14         0          0          3.8955     -1853      9584       20890.47   49.015     12115      6613      
1655.6     1137       8.69       385        684        0          147.221    7938       14         0          0          3.895      -1790      9586       20890.09   49.019     12116      6614      
1655.8     1138       8.66       385        576        0          147.245    7939       14         0          0          3.8996     -1794      9586       20889.71   49.023     12117      6612      
1656       1137       8.61       385        542        0          147.246    7939       14         0          0          3.8953     -1853      9586       20889.29   49.027     12118      6609      
1656.2     1138       8.56       376        497        0          147.272    7940       14         0          0          3.8996     -1790      9588       20888.91   49.031     12119      6608      
1656.4     1138       8.54       373        629        0          147.295    7941       14         0          0          3.8998     -1790      9591       20888.51   49.035     12120      6609      
1656.6     1137       8.54       373        730        0          147.297    7941       14         0          0          3.8953     -1797      9591       20888.11   49.039     12121      6610      
1656.8     1138       8.53       373        731        0          147.321    7942       14         0          0          3.8998     -1860      9591       20887.72   49.043     12122      6608      
1657       1139       8.53       373        956        0          147.347    7943       14         0          0          3.9043     -1860      9592       20887.31   49.047     12123      6605      
1657.2     1139       8.52       373        1526       0          147.371    7944       14         0          0          3.9045     -1849      9592       20886.92   49.051     12124      6606      
1657.4     1139       8.51       367        2392       0          147.394    7945       14         0          0          3.9045     -1803      9593       20886.51   49.055     12125      6609      
1657.6     1139       8.52       366        1082       0          147.396    7945       14         0          0          3.9045     -1860      9593       20886.13   49.055     12125      6609      
1657.8     1139       8.55       366        622        0          147.42     7946       14         0          0          3.9045     -1849      9594       20885.74   49.059     12126      6608      
1658       1140       8.58       366        554        0          147.444    7947       14         0          0          3.9091     -1790      9595       20885.34   49.064     12127      6607      
1658.2     1139       8.63       366        606        0          147.447    7947       14         0          0          3.9046     -1805      9596       20884.94   49.072     12129      6609      
