~Version
 VERS              .         2.0                           : CWLS LOG ASCII STANDARD - VERSION 2.0
 WRAP              .         NO                            : ONE LINE PER DEPTH STEP
 DLM               .         SPACE                         : DELIMITING CHARACTER(SPACE TAB OR COMMA)
~Well Information
#_______________________________________________________________________________
#
#PARAMETER_NAME    .UNIT     VALUE                         : DESCRIPTION
#_______________________________________________________________________________
STRT               .M        2338.9                        : First reference value
STOP               .M        2799.2                        : Last reference value
STEP               .M        0.1                           : Step increment
NULL               .         -9999                         : Missing value
COMP               .                                       : Company
WELL               .         616                           : Well name
FLD                .                                       : Field
LOC                .                                       : Location
CNTY               .                                       : County
STAT               .                                       : State
CTRY               .                                       : Country
SRVC               .                                       : Service Company
DATE               .                                       : Date
API                .                                       : API number
PROJECT_UPGRADE_TIME .         2021-03-18T21_24_50           : 
group              .         Good                          : 
~Parameter Information Block
#_______________________________________________________________________________
#
#PARAMETER_NAME    .UNIT     VALUE                         : DESCRIPTION
#_______________________________________________________________________________
SET                .         D2662_D                       : 
OTHER              .         Программное обеспечение станции MONITOR-386EX 25/12/99 15_08_10   BGF V50 26/12/00 07_26_01   3.1_SNGF___BGF_N_092085: 
OTHER_10           .         Тарировки_                    : 
OTHER_11           .         IK1.GRD = IK1$.UE - -5.96     : 
OTHER_12           .         IK5.GRD = IK5$.UE - -0.74     : 
OTHER_13           .         IK4.GRD = IK4$.UE - -0.9      : 
OTHER_14           .         IK3.GRD = IK3$.UE - -1.28     : 
OTHER_15           .         IK2.GRD = IK2$.UE - -3.55     : 
OTHER_2            .         Kedr.exe версия 3.3.2.32      : 
OTHER_3            .         KedrData.dll версия 3.3.2.17  : 
OTHER_4            .         Драйвер версия 2.1.0.4        : 
OTHER_5            .         Мнемоники версия 3.3 S        : 
OTHER_6            .         Прибор_ Викиз                 : 
OTHER_7            .         Номер прибора_ 0006012        : 
OTHER_8            .         Режим_ Викиз                  : 
OTHER_9            .         Форма_ ВИКИЗ                  : 
PROJECT_UPGRADE_TIME .         2021-03-18T21_24_49           : 
TLFamily_DEPT      .         Measured Depth                : 
TLFamily_IK1       .         Extra Shallow Resistivity     : 
TLFamily_IK1$      .         Extra Shallow Resistivity     : 
TLFamily_IK2       .         Shallow Resistivity           : 
TLFamily_IK2$      .         Shallow Resistivity           : 
TLFamily_IK3       .         Medium Resistivity            : 
TLFamily_IK3$      .         Medium Resistivity            : 
TLFamily_IK4       .         Deep Resistivity              : 
TLFamily_IK4$      .         Deep Resistivity              : 
TLFamily_IK5       .         Resistivity 20                : 
TLFamily_IK5$      .         Resistivity 20                : 
TLFamily_METKA     .                                       : 
TLFamily_PS        .         Spontaneous Potential         : 
TLFamily_RCOR      .                                       : 
TLFamily_SPID      .         Spontaneous Potential         : 
TLFamily_TENS      .         Cable Tension                 : 
TLFamily_TIME      .         Time                          : 
group              .         prim                          : 
~Curve Information
#_______________________________________________________________________________
#
#LOGNAME           .UNIT     LOG_ID                        : DESCRIPTION
#_______________________________________________________________________________
DEPT               .M                                      : 1 Глубина, м -    0.0 см 
IK1                .GRD                                    : 13 3Ф0.5, град. -  226.0 см 
IK1$               .UE                                     : 7 3Ф0.5, усл.ед. -  226.0 см 
IK2                .GRD                                    : 17 3Ф0.7, град. -  240.0 см 
IK2$               .UE                                     : 11 3Ф0.7, усл.ед. -  240.0 см 
IK3                .GRD                                    : 16 3Ф1.0, град. -  260.0 см 
IK3$               .UE                                     : 10 3Ф1.0, усл.ед. -  260.0 см 
IK4                .GRD                                    : 15 3Ф1.4, град. -  288.0 см 
IK4$               .UE                                     : 9 3Ф1.4, усл.ед. -  288.0 см 
IK5                .GRD                                    : 14 3Ф2.0, град. -  328.0 см 
IK5$               .UE                                     : 8 3Ф2.0, усл.ед. -  328.0 см 
METKA              .                                       : 3 Метки,  -    0.0 см 
PS                 .mV                                     : 12 ПС, мВ -  372.0 см 
RCOR               .CM/KM                                  : 5 Коррекция по ролику, см/км -    0.0 см 
SPID               .M/H                                    : 2 Скорость, м/час -    0.0 см 
TENS               .T                                      : 6 Натяжение кабеля, т -    0.0 см 
TIME               .S                                      : 4 Время, сек -    0.0 см 
~Ascii
# ...
2644.2     24.96      19         23.97      20.42      24.09      22.81      23.91      23.01      23.92      23.18      0          322.64     -342       -1810      0          34888.61  
2644.3     24.95      18.99      24.01      20.46      24.18      22.9       23.99      23.09      24         23.26      0          322.56     -342       -1816      0          34888.4   
2644.4     24.88      18.92      24.05      20.5       24.26      22.98      24.08      23.18      24.06      23.32      0          322.69     -342       -1822      0          34888.21  
2644.5     24.9       18.94      24.15      20.6       24.37      23.09      24.15      23.25      24.13      23.39      0          322.8      -342       -1829      0          34888.02  
2644.6     25.12      19.16      24.37      20.82      24.5       23.22      24.21      23.31      24.17      23.43      0          322.86     -342       -1840      0          34887.81  
2644.7     25.28      19.32      24.45      20.9       24.55      23.27      24.26      23.36      24.2       23.46      0          322.9      -342       -1836      0          34887.63  
2644.8     25.32      19.36      24.46      20.91      24.58      23.3       24.32      23.42      24.24      23.5       0          322.95     -342       -1831      0          34887.44  
2644.9     25.49      19.53      24.6       21.05      24.69      23.41      24.41      23.51      24.3       23.56      0          322.85     -342       -1822      0          34887.22  
2645       25.77      19.81      24.83      21.28      24.86      23.58      24.52      23.62      24.36      23.62      0          322.76     -342       -1813      0          34887.04  
2645.1     25.95      19.99      24.94      21.39      24.96      23.68      24.62      23.72      24.41      23.67      0          322.65     -342       -1802      0          34886.85  
2645.2     26.05      20.09      25.01      21.46      24.98      23.7       24.63      23.73      24.43      23.69      0          322.65     -342       -1791      0          34886.64  
2645.3     26.12      20.16      25.04      21.49      24.94      23.66      24.57      23.67      24.4       23.66      0          322.47     -342       -1791      0          34886.44  
2645.4     26.06      20.1       24.94      21.39      24.82      23.54      24.43      23.53      24.32      23.58      0          322.46     -342       -1791      0          34886.25  
2645.5     25.85      19.89      24.74      21.19      24.58      23.3       24.27      23.37      24.21      23.47      0          322.35     -342       -1795      0          34886.07  
2645.6     25.57      19.61      24.51      20.96      24.37      23.09      24.12      23.22      24.14      23.4       0          322.22     -342       -1814      0          34885.84  
2645.7     25.26      19.3       24.28      20.73      24.27      22.99      24.06      23.16      24.14      23.4       0          322.66     -342       -1833      0          34885.65  
2645.8     25.22      19.26      24.41      20.86      24.45      23.17      24.25      23.35      24.29      23.55      0          322.98     -342       -1843      0          34885.46  
2645.9     25.9       19.94      24.91      21.36      24.92      23.64      24.55      23.65      24.48      23.74      0          322.65     -342       -1838      0          34885.25  
2646       26.27      20.31      25.3       21.75      25.22      23.94      24.84      23.94      24.72      23.98      0          322.59     -342       -1833      0          34885.05  
2646.1     26.51      20.55      25.47      21.92      25.37      24.09      25.01      24.11      24.93      24.19      0          322.44     -342       -1826      0          34884.87  
2646.2     26.72      20.76      25.57      22.02      25.46      24.18      25.09      24.19      25.06      24.32      0          322.31     -342       -1819      0          34884.68  
2646.3     26.83      20.87      25.62      22.07      25.48      24.2       25.13      24.23      25.12      24.38      0          322.33     -342       -1807      0          34884.46  
2646.4     26.84      20.88      25.67      22.12      25.51      24.23      25.18      24.28      25.15      24.41      0          322.56     -342       -1809      0          34884.28  
2646.5     26.98      21.02      25.86      22.31      25.64      24.36      25.24      24.34      25.16      24.42      0          322.59     -342       -1813      0          34884.09  
2646.6     27.12      21.16      26.02      22.47      25.74      24.46      25.25      24.35      25.14      24.4       0          322.55     -342       -1819      0          34883.87  
2646.7     27.08      21.12      25.95      22.4       25.68      24.4       25.18      24.28      25.06      24.32      0          322.61     -342       -1826      0          34883.69  
2646.8     26.87      20.91      25.74      22.19      25.51      24.23      24.97      24.07      24.93      24.19      0          322.67     -342       -1836      0          34883.48  
2646.9     26.65      20.69      25.51      21.96      25.29      24.01      24.75      23.85      24.72      23.98      0          322.71     -342       -1845      0          34883.28  
2647       26.39      20.43      25.23      21.68      25.08      23.8       24.56      23.66      24.53      23.79      0          322.83     -342       -1841      0          34883.07  
2647.1     26.1       20.14      25.02      21.47      24.9       23.62      24.39      23.49      24.38      23.64      0          323.07     -342       -1836      0          34882.89  
2647.2     25.97      20.01      24.94      21.39      24.8       23.52      24.31      23.41      24.23      23.49      0          323.25     -342       -1831      0          34882.7   
2647.3     25.92      19.96      24.88      21.33      24.75      23.47      24.27      23.37      24.15      23.41      0          323.31     -342       -1823      0          34882.49  
2647.4     25.85      19.89      24.81      21.26      24.68      23.4       24.22      23.32      24.07      23.33      0          323.33     -342       -1814      0          34882.31  
2647.5     25.73      19.77      24.69      21.14      24.55      23.27      24.11      23.21      23.99      23.25      0          323.45     -342       -1810      0          34882.12  
2647.6     25.61      19.65      24.54      20.99      24.42      23.14      24.01      23.11      23.94      23.2       0          323.37     -342       -1815      0          34881.92  
2647.7     25.43      19.47      24.37      20.82      24.28      23         23.91      23.01      23.9       23.16      0          322.98     -342       -1820      0          34881.73  
2647.8     25.22      19.26      24.26      20.71      24.19      22.91      23.89      22.99      23.94      23.2       0          323.09     -342       -1820      0          34881.54  
2647.9     25.22      19.26      24.35      20.8       24.31      23.03      24.01      23.11      24.09      23.35      0          323.29     -342       -1810      0          34881.35  
2648       25.5       19.54      24.75      21.2       24.64      23.36      24.26      23.36      24.31      23.57      0          323.31     -342       -1796      0          34881.13  
2648.1     26.12      20.16      25.26      21.71      25.07      23.79      24.65      23.75      24.59      23.85      0          323.23     -342       -1792      0          34880.94  
2648.2     26.65      20.69      25.64      22.09      25.49      24.21      24.95      24.05      24.9       24.16      0          323.17     -342       -1793      0          34880.75  
2648.3     26.93      20.97      25.88      22.33      25.68      24.4       25.15      24.25      25.12      24.38      0          323.12     -342       -1793      0          34880.55  
2648.4     27.14      21.18      26.05      22.5       25.82      24.54      25.29      24.39      25.28      24.54      0          323.27     -342       -1807      0          34880.35  
