~Version
 VERS              .         2.0                           : CWLS LOG ASCII STANDARD - VERSION 2.0
 WRAP              .         NO                            : ONE LINE PER DEPTH STEP
 DLM               .         SPACE                         : DELIMITING CHARACTER(SPACE TAB OR COMMA)
~Well Information
#_______________________________________________________________________________
#
#PARAMETER_NAME    .UNIT     VALUE                         : DESCRIPTION
#_______________________________________________________________________________
STRT               .M        8.21                          : First reference value
STOP               .M        2780.41                       : Last reference value
STEP               .M        0.2                           : Step increment
NULL               .         -9999                         : Missing value
COMP               .                                       : Company
WELL               .         616                           : Well name
FLD                .                                       : Field
LOC                .                                       : Location
CNTY               .                                       : County
STAT               .                                       : State
CTRY               .                                       : Country
SRVC               .                                       : Service Company
DATE               .                                       : Date
API                .                                       : API number
PROJECT_UPGRADE_TIME .         2021-03-18T21_24_50           : 
group              .         Good                          : 
~Parameter Information Block
#_______________________________________________________________________________
#
#PARAMETER_NAME    .UNIT     VALUE                         : DESCRIPTION
#_______________________________________________________________________________
SET                .         ULN_2                         : 
PROJECT_UPGRADE_TIME .         2021-03-18T21_24_50           : 
TLFamily_AK4       .                                       : 
TLFamily_ALFAK     .                                       : 
TLFamily_AMPL      .                                       : 
TLFamily_DEPTH     .         Measured Depth                : 
TLFamily_DK1       .                                       : 
TLFamily_DK2       .                                       : 
TLFamily_DTK       .         Compressional Slowness        : 
TLFamily_QCBL      .                                       : 
TLFamily_T1        .         Travel Time 1                 : 
TLFamily_T2        .         Travel Time 2                 : 
group              .         prim                          : 
~Curve Information
#_______________________________________________________________________________
#
#LOGNAME           .UNIT     LOG_ID                        : DESCRIPTION
#_______________________________________________________________________________
DEPTH              .M                                      : 0 Depth curve 
AK4                .                                       : 2 Амплитуда - Волна по колонне - Канал1 
ALFAK              .дБ/м                                   : 1 Затухание - Волна по колонне 
AMPL               .                                       : 8 Коэффициент усиления ВС 
DK1                .дБ                                     : 3 Кривая ослабления - Волна по колонне - Канал1 
DK2                .дБ                                     : 4 Кривая ослабления - Волна по колонне - Канал2 
DTK                .мкс/м                                  : 5 ДельтаТ - Волна по породе 
QCBL               .                                       : 9 Контакт цемент-колонна 
T1                 .мкс                                    : 6 Время пробега - Волна по породе - Канал1 
T2                 .мкс                                    : 7 Время пробега - Волна по породе - Канал2 
~Ascii
# ...
373.21     15260.32   15.923     1          4.372      12.333     166.139    2          343.248    426.317   
373.41     15713.19   16.525     1          4.117      12.379     165.379    2          343.502    426.191   
373.61     16114.13   17.362     1          3.899      12.581     163.847    2          344.046    425.969   
373.81     16369.95   18.167     1          3.76       12.844     163.706    2          344.127    425.98    
374.01     16492.84   18.783     1          3.695      13.086     164.764    2          344.09     426.471   
374.21     16242.18   18.62      1          3.829      13.139     166.064    2          344.051    427.082   
374.41     16210.49   18.233     1          3.846      12.962     166.95     2          344.081    427.555   
374.61     16286.64   17.894     1          3.806      12.753     166.368    2          343.949    427.133   
374.81     16253.32   17.674     1          3.825      12.662     165.211    2          343.979    426.585   
375.01     15983.18   18.274     1          4.018      13.155     163.875    2          344.055    425.992   
375.21     16328.41   18.317     1          4.705      13.77      164.048    2          344.125    426.149   
375.41     15456.55   19.989     1          5.828      13.949     166.785    2          346.036    429.428   
375.61     13208.82   18.055     1          7.441      14.595     168.624    2          347.166    431.478   
375.81     9933.374   18.043     1          8.914      16.156     169.571    2          348.452    433.237   
376.01     7968.27    16.36      1          10.04      18.22      169.126    2          347.273    431.836   
376.21     7744.843   18.849     1          10.274     19.699     169.132    2          346.779    431.344   
376.41     8461.049   21.321     1          9.583      20.244     169.129    2          346.221    430.785   
376.61     10216.2    25.104     1          8.003      20.555     171.264    2          345.289    430.921   
376.81     12309.28   25.571     1          6.331      19.116     173.596    2          344.544    431.342   
377.01     14076.6    24.878     1          5.104      17.543     173.333    2          343.695    430.361   
377.21     15287.71   22.093     1          4.364      15.411     169.454    2          343.701    428.427   
377.41     15915.58   21.343     1          4.007      14.678     165.782    2          343.61     426.501   
377.61     16300.79   20.101     1          3.797      13.848     164.239    2          343.87     425.989   
377.81     16626.56   19.967     1          3.627      13.61      164.878    2          344.109    426.548   
378.01     16712.87   19.627     1          3.581      13.395     164.617    2          344.309    426.617   
378.21     16900.57   19.429     1          3.484      13.199     165.246    2          344.207    426.829   
378.41     16817.33   19.202     1          3.527      13.128     165.378    2          344.133    426.822   
378.61     16761.74   19.04      1          3.556      13.076     165.683    2          344.077    426.918   
378.81     16398.63   18.87      1          3.746      13.181     165.845    2          343.898    426.82    
379.01     16083.95   18.45      1          3.913      13.138     165.922    2          343.359    426.319   
379.21     15718.98   18.032     1          4.114      13.13      167.029    2          342.711    426.225   
379.41     15253.77   17.366     1          4.379      13.062     168.108    2          342.141    426.194   
379.61     14582.65   17.228     1          4.77       13.384     168.063    2          342.567    426.598   
379.81     14227.22   17.66      1          4.98       13.81      166.951    2          343.185    426.66    
380.01     14079.62   18.496     1          5.069      14.317     166.054    2          343.739    426.765   
380.21     14428.14   19.037     1          4.86       14.378     165.038    2          343.752    426.271   
380.41     14900.34   19.187     1          4.583      14.177     166.09     2          343.258    426.302   
380.61     15370.44   18.792     1          4.308      13.704     166.021    2          343.264    426.274   
380.81     15474.19   17.844     1          4.249      13.171     166.369    2          343.183    426.367   
381.01     15424.29   17.12      1          4.277      12.837     165.368    2          343.522    426.205   
381.21     15406.06   17.278     1          4.287      12.926     165.942    2          343.026    425.997   
381.41     15393.06   17.957     1          4.294      13.273     165.181    2          343.206    425.796   
381.61     15272.03   18.354     1          4.363      13.54      165.238    2          343.325    425.944   
381.81     15119.93   18.422     1          4.45       13.66      164.217    2          343.842    425.95    
382.01     15122.62   18.436     1          4.448      13.666     163.76     2          343.67     425.549   
382.21     15263.7    18.407     1          4.368      13.572     163.863    2          343.581    425.512   
382.41     15784.47   18.494     1          4.083      13.33      165.763    2          343.199    426.08    
382.61     16416.17   18.731     1          3.743      13.109     167.049    2          343.184    426.708   
382.81     16900.82   19.003     1          3.483      12.984     166.951    2          343.209    426.684   
383.01     16987.04   18.873     1          3.438      12.875     165.352    2          343.57     426.245   
383.21     16656.48   18.529     1          3.611      12.876     165.03     2          343.572    426.087   
383.41     16514.53   18.228     1          3.685      12.799     165.561    2          343.185    425.965   
383.61     16141.11   18.198     1          3.883      12.983     164.9      2          343.408    425.858   
383.81     16102.2    18.243     1          3.904      13.026     165.787    2          343.556    426.449   
384.01     15886.26   18.499     1          4.02       13.27      164.994    2          344.056    426.553   
384.21     16029.82   18.71      1          3.942      13.297     166.323    2          343.955    427.116   
384.41     15967.36   18.841     1          3.976      13.397     166.223    2          343.974    427.085   
384.61     15846.62   18.795     1          4.043      13.441     167.236    2          343.94     427.558   
384.81     15808.82   18.731     1          4.064      13.429     166.521    2          343.935    427.196   
385.01     15908.17   18.637     1          4.01       13.328     165.339    2          344.061    426.73    
385.21     16415.52   19.313     1          3.738      13.395     164.397    2          344.022    426.22    
385.41     16701.95   19.594     1          3.588      13.385     164.483    2          343.924    426.166   
385.61     16631.69   19.401     1          3.626      13.326     164.926    2          343.659    426.122   
385.81     16104.03   18.63      1          3.91       13.225     165.78     2          343.827    426.716   
386.01     15065.4    17.674     1          4.498      13.335     166.574    2          343.911    427.198   
386.21     14071.41   16.631     1          5.103      13.418     166.166    2          344.104    427.104   
386.41     12225.72   15.112     1          6.389      13.945     165.097    2          345.127    426.015   
386.61     10770.37   12.573     1          7.487      13.774     163.521    2          347.23     427.331   
386.81     9313.22    12.48      1          8.675      14.915     164.613    2          349.275    430.004   
387.01     8658.646   14.921     1          9.315      16.776     164.734    2          350.16     432.526   
387.21     8060.249   18.732     1          9.927      19.282     165.25     2          349.948    432.572   
387.41     8163.242   21.452     1          9.851      20.376     164.675    2          349.615    431.952   
387.61     8954.431   22.903     1          9.107      20.357     168.228    2          347.723    431.836   
