~Version
 VERS              .         2.0                           : CWLS LOG ASCII STANDARD - VERSION 2.0
 WRAP              .         NO                            : ONE LINE PER DEPTH STEP
 DLM               .         SPACE                         : DELIMITING CHARACTER(SPACE TAB OR COMMA)
~Well Information
#_______________________________________________________________________________
#
#PARAMETER_NAME    .UNIT     VALUE                         : DESCRIPTION
#_______________________________________________________________________________
STRT               .M        2648.2                        : First reference value
STOP               .M        2758.600166                   : Last reference value
STEP               .M        0.2000003                     : Step increment
NULL               .         -9999                         : Missing value
COMP               .                                       : Company
WELL               .         616                           : Well name
FLD                .                                       : Field
LOC                .                                       : Location
CNTY               .                                       : County
STAT               .                                       : State
CTRY               .                                       : Country
SRVC               .                                       : Service Company
DATE               .                                       : Date
API                .                                       : API number
PROJECT_UPGRADE_TIME .         2021-03-18T21_24_50           : 
group              .         Good                          : 
~Parameter Information Block
#_______________________________________________________________________________
#
#PARAMETER_NAME    .UNIT     VALUE                         : DESCRIPTION
#_______________________________________________________________________________
SET                .         D7020_D                       : 
OTHER              .         Kedr.exe версия 2.1.2.32      : 
OTHER_10           .         TM.GRD = 0.00404*TM$.UE + 0.07: 
OTHER_11           .         MN.ATM = (6.33279e-006*TM.GRD + 0.02401)*(MN$.UE + 2.72*TM.GRD + -2018): 
OTHER_12           .         GK.MKR/H = GK$.UE / 43.5489 + 0: 
OTHER_13           .         RES.SM = 0.00476*CRES.UE - 1.51709: 
OTHER_14           .         PL.GSM3 = 0 + 0 * (PL.UE / 1) +  0 * (PL.UE / 1)^2: 
OTHER_15           .         Постоянная времени ГГП = 6 сек: 
OTHER_16           .         Постоянная времени ГК = 6 сек : 
OTHER_2            .         KedrData.dll версия 3.2.2.14  : 
OTHER_3            .         LasInf.dll версия 3.2.0.13    : 
OTHER_4            .         Драйвер версия 1.2.0.5        : 
OTHER_5            .         Прибор_ КСА-M1                : 
OTHER_6            .         Номер прибора_ 155+р204       : 
OTHER_7            .         Режим_ КСА-М1 + ГГП + Резистивиметр: 
OTHER_8            .         Форма_ 223\2                  : 
OTHER_9            .         Тарировки_                    : 
PROJECT_UPGRADE_TIME .         2021-03-18T21_24_50           : 
TLFamily_CRES      .                                       : 
TLFamily_DEPT      .         Measured Depth                : 
TLFamily_GK        .         Gamma Ray                     : 
TLFamily_GK$       .                                       : 
TLFamily_LM        .         Casing Collar locator         : 
TLFamily_METKA     .                                       : 
TLFamily_MN        .                                       : 
TLFamily_MN$       .                                       : 
TLFamily_PL        .                                       : 
TLFamily_PL_2      .                                       : 
TLFamily_RCOR      .                                       : 
TLFamily_RES       .         Mud Resistivity               : 
TLFamily_SPID      .         Spontaneous Potential         : 
TLFamily_STD       .                                       : 
TLFamily_TIME      .         Time                          : 
TLFamily_TM        .         Temperature                   : 
TLFamily_TM$       .         Temperature                   : 
TLFamily_VGD       .         Gas Volume                    : 
group              .         prim                          : 
~Curve Information
#_______________________________________________________________________________
#
#LOGNAME           .UNIT     LOG_ID                        : DESCRIPTION
#_______________________________________________________________________________
DEPT               .M                                      : 1 Глубина, м -    0.0 см 
CRES               .UE                                     : 9 Проводимость, усл.ед. -  222.0 см 
GK                 .MKR/H                                  : 16 Гамма-активность, мкр./ч -  106.0 см 
GK$                .UE                                     : 13 Гамма-активность, усл.ед. -  106.0 см 
LM                 .                                       : 11 Локатор муфт,  -   16.0 см 
METKA              .                                       : 3 Метки,  -    0.0 см 
MN                 .ATM                                    : 15 Давление, атм. -  160.0 см 
MN$                .UE                                     : 7 Давление, усл.ед. -  160.0 см 
PL                 .UE                                     : 10 Плотность, усл.ед. -  270.0 см 
PL_2               .GSM3                                   : 18 Плотность, г./см3 -  270.0 см 
RCOR               .CM/KM                                  : 5 Коррекция по ролику, см/км -    0.0 см 
RES                .SM                                     : 17 Проводимость,  -  222.0 см 
SPID               .M/H                                    : 2 Скорость, м/час -    0.0 см 
STD                .                                       : 12 Приток,  -  170.0 см 
TIME               .S                                      : 4 Время, сек -    0.0 см 
TM                 .GRD                                    : 14 Температура, °C -  180.0 см 
TM$                .UE                                     : 6 Температура, усл.ед. -  180.0 см 
VGD                .                                       : 8 Влагомер,  -  170.0 см 
~Ascii
# ...
2681.000049 1227       10.76      464        55         0          246.073    12011      13         0          0          4.3258     580        9293       11379.28   47.496     11739      6669      
2681.200049 1227       10.56      454        53         0          246.119    12013      15         0          0          4.3234     550        9287       11380.57   47.483     11736      6669      
2681.40005 1226       10.46      448        70         0          246.121    12013      15         0          0          4.3187     568        9283       11381.86   47.469     11732      6669      
2681.60005 1228       10.37      448        86         0          246.119    12013      13         0          0          4.3268     510        9280       11383.13   47.447     11727      6670      
2681.80005 1225       10.18      430        1132       0          246.164    12015      14         0          0          4.3115     580        9273       11384.44   47.435     11724      6670      
2682.000051 1227       10.03      430        697        0          246.184    12016      13         0          0          4.325      533        9270       11385.76   47.409     11717      6669      
2682.200051 1226       10.06      446        114        0          246.189    12016      15         0          0          4.3187     580        9266       11387.01   47.375     11709      6668      
2682.400051 1226       10.15      446        40         0          246.231    12018      14         0          0          4.3187     568        9264       11388.34   47.361     11706      6670      
2682.600052 1226       10.2       447        38         0          246.253    12019      14         0          0          4.3187     550        9264       11389.63   47.358     11705      6669      
2682.800052 1227       10.23      447        38         0          246.278    12020      14         0          0          4.3255     580        9261       11390.93   47.341     11701      6670      
2683.000052 1229       10.43      466        28         0          246.275    12020      14         0          0          4.3316     580        9261       11392.22   47.321     11696      6670      
2683.200052 1231       10.56      466        32         0          246.294    12021      14         0          0          4.3425     557        9258       11393.54   47.298     11690      6669      
2683.400053 1231       11.04      515        41         0          246.315    12022      14         0          0          4.3411     580        9255       11394.79   47.281     11686      6669      
2683.600053 1229       11.43      515        43         0          246.337    12023      14         0          0          4.333      569        9251       11396.1    47.263     11681      6669      
2683.800053 1228       11.3       483        47         0          246.361    12024      14         0          0          4.3302     520        9248       11397.41   47.242     11676      6668      
2684.000054 1230       11.2       483        31         0          246.385    12025      14         0          0          4.3377     580        9248       11398.7    47.242     11676      6668      
2684.200054 1232       10.59      434        32         0          246.407    12026      14         0          0          4.3488     533        9247       11399.98   47.241     11676      6669      
2684.400054 1231       10.29      434        34         0          246.405    12026      13         0          0          4.3448     580        9247       11401.29   47.22      11671      6670      
2684.600055 1232       10.27      448        47         0          246.427    12027      14         0          0          4.3472     580        9245       11402.6    47.207     11668      6669      
2684.800055 1233       10.3       454        46         0          246.474    12029      15         0          0          4.3513     550        9241       11403.88   47.189     11663      6669      
2685.000055 1233       10.67      481        37         0          246.473    12029      14         0          0          4.3499     520        9238       11405.16   47.175     11660      6669      
2685.200055 1233       10.8       468        35         0          246.496    12030      15         0          0          4.3504     568        9234       11406.47   47.166     11657      6669      
2685.400056 1232       10.7       462        30         0          246.509    12031      14         0          0          4.3472     538        9233       11407.82   47.156     11655      6669      
2685.600056 1232       10.66      464        30         0          246.538    12032      14         0          0          4.3464     580        9230       11409.17   47.148     11653      6669      
2685.800056 1233       10.71      468        36         0          246.549    12032      14         0          0          4.352      533        9226       11410.47   47.134     11650      6670      
2686.000057 1234       10.89      505        41         0          246.565    12033      14         0          0          4.356      557        9221       11411.78   47.132     11649      6670      
2686.200057 1233       11.23      505        39         0          246.596    12034      13         0          0          4.3527     580        9218       11413.04   47.124     11647      6670      
2686.400057 1234       11.39      501        22         0          246.61     12035      13         0          0          4.3583     580        9214       11414.34   47.116     11645      6670      
2686.600058 1234       11.45      501        25         0          246.637    12036      14         0          0          4.3568     545        9211       11415.66   47.101     11641      6670      
2686.800058 1233       11.86      570        37         0          246.66     12037      14         0          0          4.352      568        9211       11416.97   47.092     11639      6669      
2687.000058 1234       12.47      570        38         0          246.687    12038      15         0          0          4.3568     522        9211       11418.29   47.079     11636      6669      
2687.200058 1234       13.11      612        16         0          246.674    12038      14         0          0          4.3547     545        9208       11419.6    47.058     11631      6669      
2687.400059 1234       13.56      612        83         0          246.728    12040      14         0          0          4.356      580        9203       11420.85   47.031     11624      6670      
2687.600059 1234       12.69      491        124        0          246.734    12041      14         0          0          4.3558     580        9201       11422.17   47.009     11619      6670      
2687.800059 1233       11.98      491        79         0          246.758    12042      14         0          0          4.352      580        9201       11423.46   46.992     11614      6669      
2688.00006 1233       10.78      389        54         0          246.768    12042      13         0          0          4.352      557        9201       11424.77   46.979     11611      6669      
2688.20006 1232       9.86       389        75         0          246.81     12044      14         0          0          4.3456     510        9202       11426.09   46.97      11609      6670      
2688.40006 1232       9.08       356        62         0          246.808    12044      14         0          0          4.3452     560        9201       11427.39   46.956     11605      6669      
2688.600061 1228       8.63       356        47         0          246.831    12045      14         0          0          4.3305     580        9200       11428.66   46.939     11601      6669      
2688.800061 1230       8.28       345        56         0          246.853    12046      13         0          0          4.3377     568        9200       11429.97   46.933     11600      6669      
2689.000061 1230       8.1        345        55         0          246.878    12047      14         0          0          4.3377     522        9199       11431.28   46.914     11595      6669      
