~Version
 VERS              .         2.0                           : CWLS LOG ASCII STANDARD - VERSION 2.0
 WRAP              .         NO                            : ONE LINE PER DEPTH STEP
 DLM               .         SPACE                         : DELIMITING CHARACTER(SPACE TAB OR COMMA)
~Well Information
#_______________________________________________________________________________
#
#PARAMETER_NAME    .UNIT     VALUE                         : DESCRIPTION
#_______________________________________________________________________________
STRT               .M        2648.2                        : First reference value
STOP               .M        2758.600166                   : Last reference value
STEP               .M        0.2000003                     : Step increment
NULL               .         -9999                         : Missing value
COMP               .                                       : Company
WELL               .         616                           : Well name
FLD                .                                       : Field
LOC                .                                       : Location
CNTY               .                                       : County
STAT               .                                       : State
CTRY               .                                       : Country
SRVC               .                                       : Service Company
DATE               .                                       : Date
API                .                                       : API number
PROJECT_UPGRADE_TIME .         2021-03-18T21_24_50           : 
group              .         Good                          : 
~Parameter Information Block
#_______________________________________________________________________________
#
#PARAMETER_NAME    .UNIT     VALUE                         : DESCRIPTION
#_______________________________________________________________________________
SET                .         D7020_D                       : 
OTHER              .         Kedr.exe версия 2.1.2.32      : 
OTHER_10           .         TM.GRD = 0.00404*TM$.UE + 0.07: 
OTHER_11           .         MN.ATM = (6.33279e-006*TM.GRD + 0.02401)*(MN$.UE + 2.72*TM.GRD + -2018): 
OTHER_12           .         GK.MKR/H = GK$.UE / 43.5489 + 0: 
OTHER_13           .         RES.SM = 0.00476*CRES.UE - 1.51709: 
OTHER_14           .         PL.GSM3 = 0 + 0 * (PL.UE / 1) +  0 * (PL.UE / 1)^2: 
OTHER_15           .         Постоянная времени ГГП = 6 сек: 
OTHER_16           .         Постоянная времени ГК = 6 сек : 
OTHER_2            .         KedrData.dll версия 3.2.2.14  : 
OTHER_3            .         LasInf.dll версия 3.2.0.13    : 
OTHER_4            .         Драйвер версия 1.2.0.5        : 
OTHER_5            .         Прибор_ КСА-M1                : 
OTHER_6            .         Номер прибора_ 155+р204       : 
OTHER_7            .         Режим_ КСА-М1 + ГГП + Резистивиметр: 
OTHER_8            .         Форма_ 223\2                  : 
OTHER_9            .         Тарировки_                    : 
PROJECT_UPGRADE_TIME .         2021-03-18T21_24_50           : 
TLFamily_CRES      .                                       : 
TLFamily_DEPT      .         Measured Depth                : 
TLFamily_GK        .         Gamma Ray                     : 
TLFamily_GK$       .                                       : 
TLFamily_LM        .         Casing Collar locator         : 
TLFamily_METKA     .                                       : 
TLFamily_MN        .                                       : 
TLFamily_MN$       .                                       : 
TLFamily_PL        .                                       : 
TLFamily_PL_2      .                                       : 
TLFamily_RCOR      .                                       : 
TLFamily_RES       .         Mud Resistivity               : 
TLFamily_SPID      .         Spontaneous Potential         : 
TLFamily_STD       .                                       : 
TLFamily_TIME      .         Time                          : 
TLFamily_TM        .         Temperature                   : 
TLFamily_TM$       .         Temperature                   : 
TLFamily_VGD       .         Gas Volume                    : 
group              .         prim                          : 
~Curve Information
#_______________________________________________________________________________
#
#LOGNAME           .UNIT     LOG_ID                        : DESCRIPTION
#_______________________________________________________________________________
DEPT               .M                                      : 1 Глубина, м -    0.0 см 
CRES               .UE                                     : 9 Проводимость, усл.ед. -  222.0 см 
GK                 .MKR/H                                  : 16 Гамма-активность, мкр./ч -  106.0 см 
GK$                .UE                                     : 13 Гамма-активность, усл.ед. -  106.0 см 
LM                 .                                       : 11 Локатор муфт,  -   16.0 см 
METKA              .                                       : 3 Метки,  -    0.0 см 
MN                 .ATM                                    : 15 Давление, атм. -  160.0 см 
MN$                .UE                                     : 7 Давление, усл.ед. -  160.0 см 
PL                 .UE                                     : 10 Плотность, усл.ед. -  270.0 см 
PL_2               .GSM3                                   : 18 Плотность, г./см3 -  270.0 см 
RCOR               .CM/KM                                  : 5 Коррекция по ролику, см/км -    0.0 см 
RES                .SM                                     : 17 Проводимость,  -  222.0 см 
SPID               .M/H                                    : 2 Скорость, м/час -    0.0 см 
STD                .                                       : 12 Приток,  -  170.0 см 
TIME               .S                                      : 4 Время, сек -    0.0 см 
TM                 .GRD                                    : 14 Температура, °C -  180.0 см 
TM$                .UE                                     : 6 Температура, усл.ед. -  180.0 см 
VGD                .                                       : 8 Влагомер,  -  170.0 см 
~Ascii
# ...
2656.400012 1272       9.21       386        68         0          243.739    11905      14         0          0          4.5376     580        9661       11217.59   49.338     12195      6669      
2656.600013 1271       8.92       357        55         0          243.737    11905      13         0          0          4.5342     521        9659       11218.91   49.326     12192      6668      
2656.800013 1271       8.24       329        65         0          243.76     11906      13         0          0          4.5322     570        9655       11220.23   49.318     12190      6668      
2657.000013 1271       7.9        329        93         0          243.783    11907      14         0          0          4.5329     580        9648       11221.49   49.301     12186      6667      
2657.200013 1270       7.48       307        96         0          243.794    11908      13         0          0          4.53       552        9645       11222.79   49.293     12184      6668      
2657.400014 1270       7.33       321        93         0          243.822    11909      13         0          0          4.5265     580        9644       11224.07   49.285     12182      6669      
2657.600014 1270       7.53       336        58         0          243.85     11910      14         0          0          4.5274     522        9645       11225.39   49.27      12178      6667      
2657.800014 1270       7.67       349        69         0          243.872    11911      13         0          0          4.5281     545        9642       11226.71   49.249     12173      6668      
2658.000015 1269       7.84       349        86         0          243.894    11912      14         0          0          4.5254     533        9641       11227.97   49.231     12169      6669      
2658.200015 1269       8          365        73         0          243.916    11913      14         0          0          4.5218     580        9635       11229.29   49.215     12164      6669      
2658.400015 1269       8.32       377        105        0          243.918    11913      14         0          0          4.5227     580        9628       11230.58   49.192     12159      6667      
2658.600016 1270       8.58       395        55         0          243.92     11913      14         0          0          4.5273     545        9622       11231.87   49.179     12156      6667      
2658.800016 1270       8.82       395        59         0          243.949    11915      13         0          0          4.5281     580        9618       11233.19   49.163     12152      6668      
2659.000016 1269       9.08       415        56         0          243.978    11916      14         0          0          4.5233     580        9618       11234.49   49.145     12147      6669      
2659.200016 1269       9.3        415        61         0          244.008    11917      15         0          0          4.5234     533        9617       11235.77   49.136     12145      6669      
2659.400017 1269       9.27       388        75         0          244.014    11918      14         0          0          4.5253     580        9618       11237.08   49.119     12141      6668      
2659.600017 1266       9.09       388        4626       0          244.025    11918      15         0          0          4.5114     510        9618       11238.42   49.11      12138      6668      
2659.800017 1269       8.68       343        1809       0          244.049    11919      13         0          0          4.5226     510        9619       11239.74   49.095     12135      6669      
2660.000018 1267       8.28       343        462        0          244.054    11919      14         0          0          4.5138     580        9614       11241.03   49.091     12134      6668      
2660.200018 1267       8.18       354        121        1          244.081    11921      14         0          0          4.5154     557        9609       11243.05   49.075     12130      6667      
2660.400018 1267       8.15       354        302        0          244.116    11922      15         0          0          4.5138     510        9602       11244.37   49.063     12127      6667      
2660.600019 1266       8.03       344        170        0          244.137    11923      14         0          0          4.5091     580        9594       11245.62   49.049     12123      6670      
2660.800019 1267       7.97       344        91         0          244.134    11923      14         0          0          4.5138     545        9590       11246.94   49.026     12118      6668      
2661.000019 1266       7.83       333        67         0          244.131    11923      14         0          0          4.5114     568        9586       11248.27   49         12111      6668      
2661.200019 1266       8.16       401        79         0          244.178    11925      13         0          0          4.5091     522        9586       11249.58   48.977     12106      6667      
2661.40002 1265       8.69       401        100        0          244.2      11926      14         0          0          4.5043     550        9584       11250.87   48.962     12102      6667      
2661.60002 1265       9.09       419        166        0          244.223    11927      14         0          0          4.5043     521        9583       11252.23   48.949     12099      6668      
2661.80002 1266       9.35       419        150        0          244.229    11927      13         0          0          4.5091     580        9586       11253.48   48.933     12095      6667      
2662.000021 1265       9.29       392        157        0          244.246    11928      14         0          0          4.5043     557        9588       11254.8    48.922     12092      6669      
2662.200021 1264       9.15       392        140        0          244.289    11930      14         0          0          4.5005     580        9587       11256.12   48.922     12092      6669      
2662.400021 1263       8.94       377        114        0          244.303    11931      14         0          0          4.4948     520        9587       11257.39   48.914     12090      6669      
2662.600022 1263       8.8        377        87         0          244.333    11932      13         0          0          4.4932     530        9579       11258.75   48.897     12086      6668      
2662.800022 1263       8.42       349        106        0          244.334    11932      14         0          0          4.4956     580        9571       11260.02   48.874     12080      6667      
2663.000022 1263       8.22       349        101        0          244.357    11933      14         0          0          4.4948     560        9564       11261.3    48.852     12075      6669      
2663.200022 1263       7.96       333        68         0          244.38     11934      14         0          0          4.4924     510        9558       11262.59   48.843     12073      6668      
2663.400023 1263       7.8        333        106        0          244.404    11935      14         0          0          4.4948     580        9553       11263.86   48.838     12071      6668      
2663.600023 1262       7.36       300        107        0          244.41     11935      14         0          0          4.4907     545        9549       11265.18   48.829     12069      6669      
2663.800023 1263       7.07       286        139        0          244.448    11937      14         0          0          4.4924     580        9549       11266.45   48.814     12065      6668      
2664.000024 1261       6.65       272        85         0          244.446    11937      14         0          0          4.4853     580        9550       11267.76   48.795     12061      6670      
2664.200024 1261       6.46       272        71         0          244.473    11938      15         0          0          4.4853     580        9550       11269.08   48.777     12056      6668      
2664.400024 1262       6.16       254        86         0          244.476    11939      14         0          0          4.49       580        9550       11270.39   48.75      12049      6669      
