~Version
 VERS              .         2.0                           : CWLS LOG ASCII STANDARD - VERSION 2.0
 WRAP              .         NO                            : ONE LINE PER DEPTH STEP
 DLM               .         SPACE                         : DELIMITING CHARACTER(SPACE TAB OR COMMA)
~Well Information
#_______________________________________________________________________________
#
#PARAMETER_NAME    .UNIT     VALUE                         : DESCRIPTION
#_______________________________________________________________________________
STRT               .M        2656                          : First reference value
STOP               .M        2756.3999                     : Last reference value
STEP               .M        0.1999998                     : Step increment
NULL               .         -9999                         : Missing value
COMP               .                                       : Company
WELL               .         616                           : Well name
FLD                .                                       : Field
LOC                .                                       : Location
CNTY               .                                       : County
STAT               .                                       : State
CTRY               .                                       : Country
SRVC               .                                       : Service Company
DATE               .                                       : Date
API                .                                       : API number
PROJECT_UPGRADE_TIME .         2021-03-18T21_24_50           : 
group              .         Good                          : 
~Parameter Information Block
#_______________________________________________________________________________
#
#PARAMETER_NAME    .UNIT     VALUE                         : DESCRIPTION
#_______________________________________________________________________________
SET                .         D4404_D                       : 
OTHER              .         Запись производится в присутствии: 
OTHER_10           .         Максимальная температура      : 
OTHER_11           .         Тип промывочной жидкости      : 
OTHER_12           .         Сопротивление ПЖ (Ом*м) при 20°C: 
OTHER_13           .         Плотность ПЖ(г/см3)           : 
OTHER_14           .         Вязкость ПЖ(с)                : 
OTHER_15           .         Водоотдача ПЖ(см3/30мин)      : 
OTHER_16           .         Уровень ПЖ                    : 
OTHER_17           .         Нефть ПЖ (%)                  : 
OTHER_18           .         Барит ПЖ (%)                  : 
OTHER_19           .         Гематит ПЖ (%)                : 
OTHER_2            .         Заказчик ННСН  ЦДНГ-1         : 
OTHER_20           .         КМЦ ПЖ (%)                    : 
OTHER_21           .         Разгазирование ПЖ (да,нет)    : 
OTHER_22           .         Подъемник                     : 
OTHER_23           .         Лаборатория                   : 
OTHER_24           .         Тип кабеля                    : 
OTHER_25           .         Длина кабеля (м)              : 
OTHER_26           .         Цена последней метки          : 
OTHER_27           .         Цена контрольной метки        : 
OTHER_28           .         Диаметр долота (мм)           : 
OTHER_29           .         Глубина бурения (м)           : 
OTHER_3            .         Площадь                       : 
OTHER_30           .         Искусственный забой (м)       : 
OTHER_31           .         Диаметр колонны (мм)          : 
OTHER_32           .         Толщина колонны (мм)          : 
OTHER_33           .         Башмак колонны (м)            : 
OTHER_34           .         Диаметр НКТ (мм)              : 
OTHER_35           .         Толщина НКТ (мм)              : 
OTHER_36           .         Воронка НКТ (м)               : 
OTHER_37           .         Дата цементожа                : 
OTHER_38           .         Тип, количество(т) и плотность цемента: 
OTHER_39           .         Интервалы перфорации (м)      : 
OTHER_4            .         Категория                     : 
OTHER_40           .         Направление, диаметр (мм)     : 
OTHER_41           .         Направление, глубина (м)      : 
OTHER_42           .         Кондуктор, диаметр (мм)       : 
OTHER_43           .         Кондуктор, глубина (м)        : 
OTHER_44           .         Техническая колонна, диаметр (мм): 
OTHER_45           .         Техническая колонна, глубина (м): 
OTHER_46           .         Эксплуатационная колонна, диаметр (мм): 
OTHER_47           .         Эксплуатационная колонна, глубина (м): 
OTHER_48           .         Программа Кедр-02 версия 3.4  : 
OTHER_49           .         Операционная система Windows NT 5.1 build 2600 Service Pack 2: 
OTHER_5            .         Назначение исследований       : 
OTHER_50           .         Программное обеспечение станции MONITOR-386EX 25/12/99 15_08_10   BGF V54 20/09/05 15_32_17   3.3__BGF_9030071: 
OTHER_51           .         Kedr.exe версия 3.4.2.74      : 
OTHER_52           .         KedrData.dll версия 3.4.2.29  : 
OTHER_53           .         Мнемоники версия 3.18 S       : 
OTHER_54           .         Драйвер версия 2.1.1.4        : 
OTHER_55           .         LasInf.dll 4.3.0.35           : 
OTHER_56           .         Прибор_ КСА-Т4                : 
OTHER_57           .         Номер прибора_ 160            : 
OTHER_58           .         Режим_ КСА-Т4                 : 
OTHER_59           .         Форма_ С.А.Б.                 : 
OTHER_6            .         Альтитуда стола ротора        : 
OTHER_60           .         Тарировки_                    : 
OTHER_61           .         <_techsia_sc_> Дата тарировки температуры 25.05.2010: 
OTHER_62           .         Ручной ввод коэффициентов     : 
OTHER_63           .         TM.DEGC = 0.00402*RTM.E.ACP + -0.994: 
OTHER_64           .         <_techsia_sc_> Дата тарировки давления 25.05.2010: 
OTHER_65           .         Ручной ввод коэффициентов     : 
OTHER_66           .         MN.ATM = (2.27521e-006*TM.DEGC + 0.02078)*(RMN.E.ACP + 6.2*TM.DEGC + -1688): 
OTHER_67           .         <_techsia_sc_> Дата тарировки ГК 25.05.2010: 
OTHER_68           .         Ручной ввод коэффициентов     : 
OTHER_69           .         GR.UR/H = RGR.IMP/MIN / 45.5144: 
OTHER_7            .         Вид исследований 3  6         : 
OTHER_70           .         GK.FLT = 0.1*GR.UR/H[-1] + (1-0.1)*GR.UR/H[0]: 
OTHER_8            .         Начало бурения интервала каротажа: 
OTHER_9            .         Окончание бурения интервала каротажа: 
PROJECT_UPGRADE_TIME .         2021-03-18T21_24_50           : 
TLFamily_CCLC      .                                       : 
TLFamily_DEPT      .         Measured Depth                : 
TLFamily_GK        .         Gamma Ray                     : 
TLFamily_GR        .         Gamma Ray                     : 
TLFamily_METKA     .                                       : 
TLFamily_MN        .                                       : 
TLFamily_RCOR      .                                       : 
TLFamily_RGR       .                                       : 
TLFamily_RMN       .                                       : 
TLFamily_RTEN      .                                       : 
TLFamily_RTM       .                                       : 
TLFamily_SPEE      .         Cable Speed                   : 
TLFamily_TIME      .         Time                          : 
TLFamily_TM        .         Temperature                   : 
group              .         prim                          : 
~Curve Information
#_______________________________________________________________________________
#
#LOGNAME           .UNIT     LOG_ID                        : DESCRIPTION
#_______________________________________________________________________________
DEPT               .M                                      : 1 Глубина, м -    0.0 см 
CCLC               .E.ACP                                  : 9 Локатор муфт,  -   20.0 см 
GK                 .FLT                                    : 14 Гамма-активность фильтрованная, мкр./ч -  110.0 см 
GR                 .UR/H                                   : 13 Гамма-активность, мкр./ч -  110.0 см 
METKA              .CU                                     : 3 Метки,  -    0.0 см 
MN                 .ATM                                    : 12 Давление, атм. -  160.0 см 
RCOR               .CM/KM                                  : 5 Коррекция по ролику, см/км -    0.0 см 
RGR                .IMP/MIN                                : 10 Гамма-активность, усл.ед. -  110.0 см 
RMN                .E.ACP                                  : 8 Давление, усл.ед. -  160.0 см 
RTEN               .T                                      : 6 Натяжение кабеля, т -    0.0 см 
RTM                .E.ACP                                  : 7 Температура, усл.ед. -  170.0 см 
SPEE               .M/H                                    : 2 Скорость, м/час -    0.0 см 
TIME               .S                                      : 4 Время, сек -    0.0 см 
TM                 .DEGC                                   : 11 Температура, °C -  170.0 см 
~Ascii
# ...
2697.599958 105        12.46      12.46      0          241.849    -1117      567        12912      0.21       14069      579        257.86     55.563    
2697.799958 57         13.12      13.12      0          241.854    -1117      597        12913      0.21       14044      579        259.11     55.464    
2697.999958 101        13.12      13.12      0          241.863    -1117      597        12914      0.21       14024      578        260.31     55.382    
2698.199958 132        12.35      12.35      0          241.892    -1117      562        12916      0.21       14004      578        261.58     55.303    
2698.399958 88         12.35      12.35      0          241.906    -1117      562        12917      0.21       13982      578        262.86     55.215    
2698.599957 72         9.69       9.69       0          241.918    -1117      441        12919      0.21       13959      578        264.12     55.121    
2698.799957 65         9.69       9.69       0          241.935    -1117      441        12920      0.21       13938      576        265.37     55.038    
2698.999957 84         7.82       7.82       0          241.961    -1117      356        12922      0.21       13916      577        266.63     54.95     
2699.199957 75         7.82       7.82       0          241.964    -1117      356        12923      0.21       13890      576        267.88     54.844    
2699.399957 64         7.56       7.56       0          241.994    -1117      344        12925      0.21       13862      576        269.19     54.733    
2699.599956 86         7.56       7.56       0          242.002    -1117      344        12926      0.21       13845      577        270.38     54.661    
2699.799956 68         8.09       8.09       0          242.008    -1117      368        12927      0.21       13825      577        271.66     54.582    
2699.999956 64         8.09       8.09       0          242.013    -1117      368        12928      0.21       13799      576        272.88     54.477    
2700.199956 25         7.47       7.47       0          242.039    -1117      340        12930      0.21       13772      576        274.19     54.368    
2700.399956 44         7.47       7.47       0          242.047    -1117      340        12931      0.21       13751      576        275.44     54.285    
2700.599955 76         7.34       7.34       0          242.082    -1117      334        12933      0.21       13734      577        276.69     54.217    
2700.799955 59         7.34       7.34       0          242.098    -1117      334        12934      0.21       13726      578        277.94     54.186    
2700.999955 70         9.03       9.03       0          242.117    -1117      411        12936      0.21       13706      578        279.2      54.105    
2701.199955 51         9.03       9.03       0          242.101    -1117      411        12936      0.21       13674      578        280.45     53.976    
2701.399955 79         9.87       9.87       0          242.136    -1117      449        12938      0.21       13647      578        281.7      53.867    
2701.599954 95         9.87       9.87       0          242.15     -1117      449        12940      0.21       13621      576        282.95     53.762    
2701.799954 138        9.23       9.23       0          242.15     -1117      420        12941      0.21       13586      577        284.2      53.624    
2701.999954 81         9.23       9.23       0          242.153    -1117      420        12942      0.21       13558      577        285.5      53.507    
2702.199954 61         9.78       9.78       0          242.184    -1117      445        12944      0.21       13534      577        286.77     53.413    
2702.399954 83         9.78       9.78       0          242.202    -1117      445        12945      0.21       13520      577        288.02     53.357    
2702.599953 109        11.05      11.05      0          242.226    -1117      503        12947      0.21       13504      577        289.2      53.293    
2702.799953 79         11.05      11.05      0          242.242    -1117      503        12948      0.21       13486      577        290.49     53.219    
2702.999953 119        10.61      10.61      0          242.279    -1117      483        12950      0.21       13484      576        291.78     53.212    
2703.199953 4279       10.61      10.61      0          242.28     -1117      483        12951      0.21       13468      576        293.03     53.147    
2703.399953 1927       9.89       9.89       0          242.295    -1117      450        12952      0.21       13449      575        294.28     53.07     
2703.599952 568        9.89       9.89       0          242.317    -1117      450        12954      0.21       13419      576        295.53     52.952    
2703.799952 197        10.13      10.13      0          242.335    -1117      461        12956      0.21       13391      575        296.85     52.838    
2703.999952 134        10.13      10.13      0          242.349    -1117      461        12957      0.21       13365      574        298.11     52.734    
2704.199952 91         10.13      10.13      0          242.36     -1117      461        12958      0.21       13347      575        299.35     52.661    
2704.399952 95         10.13      10.13      0          242.385    -1117      461        12960      0.21       13331      574        300.61     52.597    
2704.599951 89         10.06      10.06      0          242.406    -1117      458        12961      0.21       13319      575        301.86     52.547    
2704.799951 81         10.06      10.06      0          242.414    -1117      458        12962      0.21       13306      576        303.12     52.496    
2704.999951 102        9.32       9.32       0          242.444    -1117      424        12964      0.21       13281      575        304.36     52.396    
2705.199951 99         9.32       9.32       0          242.454    -1117      424        12965      0.21       13264      576        305.61     52.327    
2705.399951 108        9.51       9.51       0          242.485    -1117      433        12967      0.21       13247      575        306.87     52.26     
2705.59995 150        9.52       9.52       0          242.494    -1117      433        12968      0.21       13233      575        308.17     52.202    
2705.79995 220        10.7       10.7       0          242.503    -1117      487        12969      0.21       13206      576        309.42     52.094    
2705.99995 125        10.7       10.7       2          242.541    -1113      487        12972      0.21       13187      574        310.45     52.018    
2706.19995 91         10.72      10.72      0          242.562    -1112      488        12973      0.21       13173      573        311.61     51.961    
2706.39995 139        10.72      10.72      0          242.582    -1112      488        12974      0.21       13160      575        312.93     51.908    
2706.599949 118        10.74      10.74      0          242.6      -1112      489        12976      0.21       13148      574        314.18     51.859    
2706.799949 77         10.84      10.84      0          242.621    -1112      493        12977      0.21       13131      575        315.44     51.793    
2706.999949 92         11.03      11.03      0          242.636    -1112      502        12978      0.21       13113      574        316.69     51.722    
2707.199949 78         11.03      11.03      0          242.663    -1112      502        12980      0.21       13097      573        317.94     51.656    
2707.399949 58         10.74      10.74      0          242.696    -1112      489        12982      0.21       13082      568        319.26     51.597    
2707.599948 64         10.74      10.74      0          242.705    -1112      489        12983      0.21       13070      566        320.56     51.547    
2707.799948 73         9.97       9.97       0          242.722    -1112      454        12984      0.21       13061      563        321.81     51.513    
