~Version
 VERS              .         2.0                           : CWLS LOG ASCII STANDARD - VERSION 2.0
 WRAP              .         NO                            : ONE LINE PER DEPTH STEP
 DLM               .         SPACE                         : DELIMITING CHARACTER(SPACE TAB OR COMMA)
~Well Information
#_______________________________________________________________________________
#
#PARAMETER_NAME    .UNIT     VALUE                         : DESCRIPTION
#_______________________________________________________________________________
STRT               .M        11                            : First reference value
STOP               .M        2775.8                        : Last reference value
STEP               .M        0.2                           : Step increment
NULL               .         -9999                         : Missing value
COMP               .                                       : Company
WELL               .         616                           : Well name
FLD                .                                       : Field
LOC                .                                       : Location
CNTY               .                                       : County
STAT               .                                       : State
CTRY               .                                       : Country
SRVC               .                                       : Service Company
DATE               .                                       : Date
API                .                                       : API number
PROJECT_UPGRADE_TIME .         2021-03-18T21_24_50           : 
group              .         Good                          : 
~Parameter Information Block
#_______________________________________________________________________________
#
#PARAMETER_NAME    .UNIT     VALUE                         : DESCRIPTION
#_______________________________________________________________________________
SET                .         D1813_D                       : 
OTHER              .         Программное обеспечение станции MONITOR-386EX 25/12/99 15_08_10   BGF V52 22/08/01 16_56_30   3.1_SNGF___BGF_N_092049: 
OTHER_10           .         Тарировки_                    : 
OTHER_11           .         TM.GRD = 0.00403*TM$.UE + -1.07: 
OTHER_12           .         MN.ATM = (9.34907e-006*TM.GRD + 0.02171)*(MN$.UE + -7.93*TM.GRD + -1787): 
OTHER_13           .         GK.MKR/H = LM. / 42.4676      : 
OTHER_14           .         GK.FLT = 0.1*GK.MKR/H[-1] + (1-0.1)*GK.MKR/H[0]: 
OTHER_2            .         Kedr.exe версия 3.4.2.51      : 
OTHER_3            .         KedrData.dll версия 3.4.2.24  : 
OTHER_4            .         Драйвер версия 2.1.1.3        : 
OTHER_5            .         Мнемоники версия 3.3 S        : 
OTHER_6            .         Прибор_ КСА-Т4                : 
OTHER_7            .         Номер прибора_ 03             : 
OTHER_8            .         Режим_ КСА-Т4                 : 
OTHER_9            .         Форма_ КВА.                   : 
PROJECT_UPGRADE_TIME .         2021-03-18T21_24_49           : 
TLFamily_DEPT      .         Measured Depth                : 
TLFamily_GK        .         Gamma Ray                     : 
TLFamily_GK$       .                                       : 
TLFamily_GK_2      .         Gamma Ray                     : 
TLFamily_LM        .         Casing Collar locator         : 
TLFamily_METKA     .                                       : 
TLFamily_MN        .                                       : 
TLFamily_MN$       .                                       : 
TLFamily_RCOR      .                                       : 
TLFamily_SPID      .         Spontaneous Potential         : 
TLFamily_TENS      .         Cable Tension                 : 
TLFamily_TIME      .         Time                          : 
TLFamily_TM        .         Temperature                   : 
TLFamily_TM$       .         Temperature                   : 
group              .         prim                          : 
~Curve Information
#_______________________________________________________________________________
#
#LOGNAME           .UNIT     LOG_ID                        : DESCRIPTION
#_______________________________________________________________________________
DEPT               .M                                      : 1 Глубина, м -    0.0 см 
GK                 .MKR/H                                  : 13 Гамма-активность, мкр./ч -  110.0 см 
GK$                .UE                                     : 10 Гамма-активность, усл.ед. -  110.0 см 
GK_2               .FLT                                    : 14 Гамма-активность фильтрованная, мкр./ч -  110.0 см 
LM                 .                                       : 9 Локатор муфт,  -   20.0 см 
METKA              .                                       : 3 Метки,  -    0.0 см 
MN                 .ATM                                    : 12 Давление, атм. -  160.0 см 
MN$                .UE                                     : 8 Давление, усл.ед. -  160.0 см 
RCOR               .CM/KM                                  : 5 Коррекция по ролику, см/км -    0.0 см 
SPID               .M/H                                    : 2 Скорость, м/час -    0.0 см 
TENS               .T                                      : 6 Натяжение кабеля, т -    0.0 см 
TIME               .S                                      : 4 Время, сек -    0.0 см 
TM                 .GRD                                    : 11 Температура, °C -  170.0 см 
TM$                .UE                                     : 7 Температура, усл.ед. -  170.0 см 
~Ascii
# ...
562.2      4.64       197        4.66       435        0          53.374     4425       -1251      -1893      -0.07      11376.03   26.066     6733      
562.4      4.64       197        4.7        426        0          53.375     4425       -1251      -1890      -0.07      11375.66   26.07      6734      
562.6      4.79       204        4.82       411        0          53.396     4426       -1251      -1889      -0.07      11375.29   26.074     6736      
562.8      4.87       207        4.87       456        0          53.419     4427       -1251      -1893      -0.07      11374.92   26.078     6737      
563        4.87       207        4.87       519        0          53.442     4428       -1251      -1893      -0.07      11374.52   26.083     6738      
563.2      4.87       207        4.87       433        0          53.463     4429       -1251      -1894      -0.07      11374.16   26.089     6739      
563.4      4.87       207        4.87       442        0          53.486     4430       -1251      -1898      -0.07      11373.8    26.092     6740      
563.6      4.87       207        4.86       438        0          53.503     4431       -1251      -1898      -0.07      11373.42   26.095     6741      
563.8      4.87       207        4.84       428        0          53.51      4431       -1251      -1896      -0.07      11373.04   26.1       6742      
564        4.78       203        4.78       427        0          53.532     4432       -1251      -1893      -0.07      11372.65   26.104     6743      
564.2      4.78       203        4.78       433        0          53.554     4433       -1251      -1894      -0.07      11372.28   26.108     6744      
564.4      4.78       203        4.78       504        0          53.576     4434       -1251      -1893      -0.07      11371.89   26.112     6745      
564.6      4.78       203        4.78       507        0          53.588     4435       -1251      -1890      -0.07      11371.51   26.116     6746      
564.8      4.78       203        4.77       542        0          53.61      4436       -1251      -1887      -0.07      11371.15   26.121     6747      
565        4.78       203        4.76       590        0          53.63      4437       -1251      -1883      -0.07      11370.77   26.128     6749      
565.2      4.76       202        4.72       579        0          53.642     4438       -1251      -1885      -0.07      11370.36   26.129     6749      
565.4      4.66       198        4.66       634        0          53.65      4438       -1251      -1881      -0.07      11370      26.137     6751      
565.6      4.66       198        4.66       567        0          53.68      4439       -1251      -1877      -0.07      11369.6    26.145     6753      
565.8      4.66       198        4.66       601        0          53.693     4440       -1251      -1878      -0.07      11369.24   26.145     6753      
566        4.66       198        4.67       462        0          53.709     4441       -1251      -1873      -0.07      11368.86   26.15      6754      
566.2      4.66       198        4.67       456        0          53.731     4442       -1251      -1867      -0.07      11368.46   26.158     6756      
566.4      4.66       198        4.69       461        0          53.753     4443       -1251      -1864      -0.07      11368.13   26.162     6757      
566.6      4.73       201        4.75       454        0          53.775     4444       -1251      -1873      -0.07      11367.75   26.166     6758      
566.8      4.78       203        4.78       479        0          53.799     4445       -1251      -1877      -0.07      11367.37   26.171     6759      
567        4.78       203        4.78       502        0          53.798     4445       -1251      -1869      -0.07      11366.98   26.175     6761      
567.2      4.78       203        4.78       473        0          53.822     4446       -1251      -1870      -0.07      11366.6    26.179     6762      
567.4      4.78       203        4.78       440        0          53.841     4447       -1251      -1871      -0.07      11366.22   26.183     6763      
567.6      4.78       203        4.79       459        0          53.844     4447       -1251      -1873      -0.07      11365.84   26.187     6764      
567.8      4.78       203        4.82       521        0          53.867     4448       -1251      -1874      -0.07      11365.45   26.192     6765      
568        4.88       207        4.89       548        0          53.886     4449       -1251      -1876      -0.07      11365.07   26.196     6766      
568.2      4.9        208        4.9        504        0          53.908     4450       -1251      -1878      -0.07      11364.68   26.202     6767      
568.4      4.9        208        4.9        520        0          53.931     4451       -1251      -1880      -0.07      11364.28   26.208     6769      
568.6      4.9        208        4.91       556        0          53.954     4452       -1251      -1877      -0.07      11363.88   26.212     6770      
568.8      4.9        208        4.95       672        0          53.967     4453       -1251      -1872      -0.07      11363.52   26.22      6772      
569        4.93       209        5.04       858        0          53.976     4453       -1251      -1873      -0.07      11363.14   26.225     6773      
569.2      5.23       222        5.23       1133       0          53.999     4455       -1251      -1874      -0.07      11362.77   26.229     6774      
569.4      5.23       222        5.23       1626       0          54.022     4456       -1251      -1876      -0.07      11362.39   26.233     6775      
569.6      5.23       222        5.22       2358       0          54.044     4457       -1251      -1871      -0.07      11362      26.238     6776      
569.8      5.23       222        5.21       3610       0          54.067     4458       -1251      -1872      -0.07      11361.61   26.242     6777      
570        5.23       222        5.19       5626       2          54.073     4458       -1251      -1873      -0.07      11361.21   26.246     6778      
570.2      5.23       222        5.11       1117       0          54.092     4459       -1253      -1874      -0.07      11360.85   26.251     6779      
570.4      5          213        4.91       373        0          54.113     4460       -1253      -1869      -0.07      11360.49   26.255     6780      
570.6      4.76       202        4.76       416        0          54.136     4461       -1253      -1864      -0.07      11360.12   26.259     6781      
570.8      4.76       202        4.76       366        0          54.136     4461       -1253      -1863      -0.07      11359.73   26.265     6783      
571        4.76       202        4.75       366        0          54.157     4462       -1253      -1856      -0.07      11359.34   26.271     6784      
571.2      4.76       202        4.74       391        0          54.179     4463       -1253      -1854      -0.07      11358.98   26.276     6786      
571.4      4.76       202        4.72       437        0          54.202     4464       -1253      -1858      -0.07      11358.6    26.28      6787      
571.6      4.76       202        4.67       453        0          54.221     4465       -1253      -1858      -0.07      11358.2    26.284     6788      
571.8      4.52       192        4.49       506        0          54.225     4465       -1253      -1854      -0.07      11357.8    26.288     6789      
572        4.45       189        4.45       417        0          54.246     4466       -1253      -1846      -0.07      11357.42   26.292     6790      
572.2      4.45       189        4.45       415        0          54.268     4467       -1253      -1848      -0.07      11357.03   26.297     6791      
572.4      4.45       189        4.46       386        0          54.284     4468       -1253      -1848      -0.07      11356.64   26.301     6792      
