~Version
 VERS              .         2.0                           : CWLS LOG ASCII STANDARD - VERSION 2.0
 WRAP              .         NO                            : ONE LINE PER DEPTH STEP
 DLM               .         SPACE                         : DELIMITING CHARACTER(SPACE TAB OR COMMA)
~Well Information
#_______________________________________________________________________________
#
#PARAMETER_NAME    .UNIT     VALUE                         : DESCRIPTION
#_______________________________________________________________________________
STRT               .M        2664                          : First reference value
STOP               .M        2769.2                        : Last reference value
STEP               .M        0.1999999                     : Step increment
NULL               .         -9999                         : Missing value
COMP               .                                       : Company
WELL               .         616                           : Well name
FLD                .                                       : Field
LOC                .                                       : Location
CNTY               .                                       : County
STAT               .                                       : State
CTRY               .                                       : Country
SRVC               .                                       : Service Company
DATE               .                                       : Date
API                .                                       : API number
PROJECT_UPGRADE_TIME .         2021-03-18T21_24_50           : 
group              .         Good                          : 
~Parameter Information Block
#_______________________________________________________________________________
#
#PARAMETER_NAME    .UNIT     VALUE                         : DESCRIPTION
#_______________________________________________________________________________
SET                .         D1161_D                       : 
OTHER              .         Программное обеспечение станции MONITOR-386EX 25/12/99 15_08_10   BGF V52 22/08/01 16_56_30   3.2_BGF_N_3070031: 
OTHER_10           .         Тарировки_                    : 
OTHER_11           .         TM.GRD = 0.00403*TM$.UE + -1.19: 
OTHER_12           .         MN.ATM = (7.1e-006*TM.GRD + 0.02017)*(MN$.UE + -3.03*TM.GRD + -1833): 
OTHER_13           .         Id error                      : 
OTHER_2            .         Kedr.exe версия 3.4.2.51      : 
OTHER_3            .         KedrData.dll версия 3.4.2.24  : 
OTHER_4            .         Драйвер версия 2.1.1.8        : 
OTHER_5            .         Мнемоники версия 3.3 S        : 
OTHER_6            .         Прибор_ КСА-М1                : 
OTHER_7            .         Номер прибора_ 265            : 
OTHER_8            .         Режим_ КСА-М1                 : 
OTHER_9            .         Форма_ ТЕРМОМЕТР              : 
PROJECT_UPGRADE_TIME .         2021-03-18T21_24_49           : 
TLFamily_DEPT      .         Measured Depth                : 
TLFamily_GK        .         Gamma Ray                     : 
TLFamily_GK$       .                                       : 
TLFamily_LM        .         Casing Collar locator         : 
TLFamily_METKA     .                                       : 
TLFamily_MN        .                                       : 
TLFamily_MN$       .                                       : 
TLFamily_RCOR      .                                       : 
TLFamily_SPID      .         Spontaneous Potential         : 
TLFamily_STD       .                                       : 
TLFamily_TENS      .         Cable Tension                 : 
TLFamily_TIME      .         Time                          : 
TLFamily_TM        .         Temperature                   : 
TLFamily_TM$       .         Temperature                   : 
TLFamily_VGD       .         Gas Volume                    : 
group              .         prim                          : 
~Curve Information
#_______________________________________________________________________________
#
#LOGNAME           .UNIT     LOG_ID                        : DESCRIPTION
#_______________________________________________________________________________
DEPT               .M                                      : 1 Глубина, м -    0.0 см 
GK                 .MKR/H                                  : 15 Гамма-активность, мкр./ч -  110.0 см 
GK$                .UE                                     : 12 Гамма-активность, усл.ед. -  110.0 см 
LM                 .                                       : 10 Локатор муфт,  -   20.0 см 
METKA              .                                       : 3 Метки,  -    0.0 см 
MN                 .ATM                                    : 14 Давление, атм. -  160.0 см 
MN$                .UE                                     : 8 Давление, усл.ед. -  160.0 см 
RCOR               .CM/KM                                  : 5 Коррекция по ролику, см/км -    0.0 см 
SPID               .M/H                                    : 2 Скорость, м/час -    0.0 см 
STD                .                                       : 11 Приток,  -  170.0 см 
TENS               .T                                      : 6 Натяжение кабеля, т -    0.0 см 
TIME               .S                                      : 4 Время, сек -    0.0 см 
TM                 .GRD                                    : 13 Температура, °C -  180.0 см 
TM$                .UE                                     : 7 Температура, усл.ед. -  180.0 см 
VGD                .                                       : 9 Влагомер,  -  170.0 см 
~Ascii
# ...
2703.2     6.76       289        1          0          250.988    14169      -1400      -306       32373      0          16890.05   88.326     22213      6505      
2703.4     6.8        291        1          0          251.024    14171      -1400      -300       32373      0          16887.68   88.336     22215      6504      
2703.6     6.29       266        1          0          251.035    14171      -1400      -298       32373      0          16885.32   88.345     22217      6505      
2703.8     6.83       285        1          0          251.051    14172      -1400      -308       32372      0          16882.84   88.357     22220      6504      
2704       7.15       294        1          0          251.072    14173      -1400      -305       32374      0          16880.47   88.371     22224      6504      
2704.2     7.19       312        1          0          251.093    14174      -1400      -301       32373      0          16878.21   88.387     22228      6504      
2704.4     7.41       302        1          0          251.114    14175      -1400      -296       32372      0          16875.84   88.401     22231      6504      
2704.6     7.92       331        1          0          251.151    14177      -1400      -306       32373      0          16873.26   88.411     22233      6504      
2704.8     8.14       343        1          0          251.156    14177      -1400      -302       32373      0          16870.89   88.42      22236      6504      
2705       8.08       355        1          0          251.177    14178      -1400      -304       32373      0          16868.59   88.427     22237      6504      
2705.2     7.83       333        1          0          251.198    14179      -1400      -304       32373      0          16866.15   88.429     22238      6504      
2705.4     8.08       335        1          0          251.219    14180      -1400      -296       32374      0          16863.79   88.427     22238      6503      
2705.6     8.65       378        1          0          251.24     14181      -1400      -306       32373      0          16861.42   88.437     22240      6503      
2705.8     8.03       346        1          0          251.26     14182      -1400      -304       32373      0          16859.05   88.444     22242      6504      
2706       7.91       336        1          0          251.271    14183      -1400      -308       32373      0          16856.57   88.445     22242      6503      
2706.2     8.04       347        1          0          251.281    14183      -1400      -306       32373      0          16854.24   88.453     22244      6503      
2706.4     7.71       331        1          0          251.302    14184      -1400      -303       32373      0          16851.83   88.455     22245      6502      
2706.6     7.59       322        1          0          251.344    14186      -1400      -306       32373      0          16849.36   88.461     22246      6503      
2706.8     7.94       337        1          0          251.344    14186      -1400      -304       32372      0          16846.99   88.463     22246      6503      
2707       8.23       352        1          0          251.365    14187      -1400      -300       32372      0          16844.73   88.465     22247      6502      
2707.2     8.21       350        1          0          251.386    14188      -1400      -293       32373      0          16842.37   88.465     22247      6501      
2707.4     8.39       360        1          0          251.417    14190      -1400      -299       32372      0          16839.89   88.465     22247      6503      
2707.6     8.1        350        1          0          251.433    14190      -1400      -303       32374      0          16837.53   88.469     22248      6503      
2707.8     7.22       316        1          0          251.448    14191      -1400      -298       32373      0          16835.16   88.473     22249      6501      
2708       7.1        301        1          0          251.469    14192      -1400      -299       32373      0          16832.72   88.473     22249      6501      
2708.2     7.62       320        1          0          251.49     14193      -1400      -309       32373      0          16830.31   88.478     22250      6502      
2708.4     7.69       329        1          0          251.511    14194      -1400      -300       32373      0          16827.95   88.482     22251      6502      
2708.6     7.8        328        1          1          251.531    14195      -1400      -294       32373      0          16825.58   88.482     22251      6502      
2708.8     8.15       334        1          0          251.552    14196      -1400      -307       32373      0          16823.1    88.486     22252      6501      
2709       8.57       361        1          0          251.573    14197      -1400      -297       32372      0          16820.73   88.486     22252      6501      
2709.2     8.3        373        1          0          251.584    14198      -1400      -303       32373      0          16818.36   88.49      22253      6501      
2709.4     7.52       344        1          0          251.615    14199      -1400      -301       32373      0          16816      88.492     22254      6502      
2709.6     6.84       292        1          0          251.643    14200      -1400      -291       32373      0          16813.63   88.494     22254      6501      
2709.8     7.03       290        1          0          251.662    14201      -1400      -298       32373      0          16811.26   88.495     22254      6501      
2710       7.67       325        1          2          251.693    14203      -1400      -297       32373      0          16808.46   88.498     22255      6500      
2710.2     7.9        331        1          0          251.699    14203      -1400      -304       32373      0          16806.02   88.501     22256      6501      
2710.4     8.37       353        1          0          251.719    14204      -1400      -307       32372      0          16803.72   88.505     22257      6501      
2710.6     8.87       371        1          0          251.761    14206      -1400      -304       32372      0          16801.36   88.506     22257      6501      
2710.8     9.66       404        1          0          251.782    14207      -1400      -304       32372      0          16798.88   88.508     22258      6500      
2711       10.59      461        1          0          251.792    14208      -1400      -304       32373      0          16796.51   88.51      22258      6500      
2711.2     9.62       427        1          0          251.803    14208      -1400      -303       32374      0          16794.14   88.516     22260      6500      
2711.4     8.4        370        1          0          251.824    14209      -1400      -297       32372      0          16791.81   88.522     22261      6500      
2711.6     7.31       323        1          0          251.845    14210      -1400      -306       32373      0          16789.3    88.528     22262      6499      
2711.8     6.14       263        1          0          251.88     14212      -1400      -303       32373      0          16786.93   88.538     22265      6499      
2712       6.08       260        1          1          251.908    14213      -1400      -299       32373      0          16784.63   88.542     22266      6499      
2712.2     6.07       260        1          0          251.918    14214      -1400      -307       32372      0          16782.19   88.55      22268      6499      
2712.4     6.03       258        1          0          251.929    14214      -1400      -304       32372      0          16779.82   88.556     22270      6500      
2712.6     5.99       260        1          0          251.971    14216      -1400      -301       32373      0          16777.46   88.567     22272      6499      
2712.8     5.24       227        1          0          251.971    14216      -1400      -297       32373      0          16775.1    88.578     22275      6498      
