~Version
 VERS              .         2.0                           : CWLS LOG ASCII STANDARD - VERSION 2.0
 WRAP              .         NO                            : ONE LINE PER DEPTH STEP
 DLM               .         SPACE                         : DELIMITING CHARACTER(SPACE TAB OR COMMA)
~Well Information
#_______________________________________________________________________________
#
#PARAMETER_NAME    .UNIT     VALUE                         : DESCRIPTION
#_______________________________________________________________________________
STRT               .M        2666.2                        : First reference value
STOP               .M        2778.8                        : Last reference value
STEP               .M        0.2000002                     : Step increment
NULL               .         -9999                         : Missing value
COMP               .                                       : Company
WELL               .         616                           : Well name
FLD                .                                       : Field
LOC                .                                       : Location
CNTY               .                                       : County
STAT               .                                       : State
CTRY               .                                       : Country
SRVC               .                                       : Service Company
DATE               .                                       : Date
API                .                                       : API number
PROJECT_UPGRADE_TIME .         2021-03-18T21_24_50           : 
group              .         Good                          : 
~Parameter Information Block
#_______________________________________________________________________________
#
#PARAMETER_NAME    .UNIT     VALUE                         : DESCRIPTION
#_______________________________________________________________________________
SET                .         D0400_D                       : 
OTHER              .         Прибор_ АКП4_90               : 
OTHER_2            .         Номер прибора_ 56             : 
OTHER_3            .         Режим_ АКП4_90 - все каналы   : 
OTHER_4            .         Форма_ Г-1                    : 
OTHER_5            .         Тарировки_                    : 
OTHER_6            .         TM.GRD = 0.00379*TM$.UE + 7.11: 
OTHER_7            .         MN.ATM = (8e-006*TM.GRD + 0.02)*(MN$.UE + -8*TM.GRD + -1800): 
OTHER_8            .         GK.MKR/H = GK$.UE / 57.17 + 0 : 
PROJECT_UPGRADE_TIME .         2021-03-18T21_24_49           : 
TLFamily_DEPT      .         Measured Depth                : 
TLFamily_GK        .         Gamma Ray                     : 
TLFamily_GK$       .                                       : 
TLFamily_LM        .         Casing Collar locator         : 
TLFamily_METKA     .                                       : 
TLFamily_METKA_1   .                                       : 
TLFamily_MN        .                                       : 
TLFamily_MN$       .                                       : 
TLFamily_RCOR      .                                       : 
TLFamily_SPID      .         Spontaneous Potential         : 
TLFamily_TIME      .         Time                          : 
TLFamily_TM        .         Temperature                   : 
TLFamily_TM$       .         Temperature                   : 
group              .         second                        : 
~Curve Information
#_______________________________________________________________________________
#
#LOGNAME           .UNIT     LOG_ID                        : DESCRIPTION
#_______________________________________________________________________________
DEPT               .M                                      : 1 Глубина, м -    0.0 см 
GK                 .MKR/H                                  : 12 Гамма-активность, мкр./ч -   65.0 см 
GK$                .UE                                     : 9 Гамма-активность, усл.ед. -   65.0 см 
LM                 .                                       : 8 Локатор муфт,  -   30.0 см 
METKA              .                                       : 3 Метки,  -    0.0 см 
METKA_1            .                                       : 13 Маркеры - 65 см 
MN                 .ATM                                    : 11 Давление, атм. -  140.0 см 
MN$                .UE                                     : 7 Давление, усл.ед. -  140.0 см 
RCOR               .CM/KM                                  : 5 Коррекция по ролику, см/км -    0.0 см 
SPID               .M/H                                    : 2 Скорость, м/час -    0.0 см 
TIME               .S                                      : 4 Время, сек -    0.0 см 
TM                 .GRD                                    : 10 Температура, °C -  145.0 см 
TM$                .UE                                     : 6 Температура, усл.ед. -  145.0 см 
~Ascii
# ...
2711       7.15       427        385        0          0          262.836    15187      0          -260       3095.26    84.134     20323     
2711.2     6.91       409        445        0          0          262.87     15189      0          -260       3092.56    84.142     20325     
2711.4     6.72       409        467        0          0          262.918    15191      0          -300       3089.85    84.143     20325     
2711.6     6.28       359        453        0          0          262.883    15189      0          -300       3087.15    84.149     20327     
2711.8     6.33       325        383        0          0          262.938    15192      0          -300       3084.45    84.153     20328     
2712       6.89       366        506        0          0          263.021    15196      0          -320       3081.75    84.157     20329     
2712.2     7.27       409        456        0          0          263        15195      0          -260       3079.04    84.161     20330     
2712.4     7.33       421        428        0          0          262.958    15193      0          -237       3076.22    84.167     20332     
2712.6     7.33       413        424        0          0          263.02     15196      0          -260       3073.51    84.172     20333     
2712.8     7.32       428        412        0          0          263.095    15200      0          -260       3070.49    84.172     20333     
2713       7.13       429        350        0          0          263.04     15197      0          -237       3067.47    84.178     20335     
2713.2     6.89       413        398        0          0          263.019    15196      0          -225       3064.32    84.182     20336     
2713.4     6.55       396        416        0          0          263.087    15199      0          -260       3061.04    84.186     20337     
2713.6     6.38       364        436        0          0          263.156    15203      0          -214       3057.82    84.19      20338     
2713.8     6.39       365        342        0          0          263.08     15199      0          -190       3054.48    84.191     20338     
2714       6.67       344        860        0          0          263.108    15200      0          -260       2941.39    84.195     20339     
2714.2     7.04       407        162        0          0          263.225    15206      0          -260       2938.82    84.199     20340     
2714.4     6.94       406        536        0          0          263.169    15203      0          -320       2936.37    84.202     20341     
2714.6     6.85       408        565        0          1          263.214    15206      0          -320       2933.92    84.21      20343     
2714.8     6.83       375        576        0          0          263.202    15205      0          -320       2931.49    84.225     20347     
2715       7.25       360        535        0          0          263.277    15209      0          -320       2929.03    84.237     20350     
2715.2     7.64       421        591        0          0          263.262    15208      0          -260       2926.6     84.252     20354     
2715.4     7.73       440        496        0          0          263.239    15207      0          -260       2924.02    84.297     20366     
2715.6     7.8        435        522        0          0          263.204    15205      0          -320       2921.57    84.301     20367     
2715.8     7.81       455        497        0          0          263.176    15204      0          -260       2919.14    84.305     20368     
2716       7.74       445        536        0          0          263.149    15203      0          -320       2916.68    84.315     20371     
2716.2     7.65       450        519        0          0          263.21     15206      0          -320       2914.27    84.316     20371     
2716.4     7.37       462        748        0          0          263.299    15210      0          -320       2911.79    84.316     20371     
2716.6     6.65       467        4585       0          0          263.369    15213      0          -260       2909.34    84.32      20372     
2716.8     5.73       405        662        0          0          263.382    15214      0          -320       2906.89    84.322     20373     
2717       5.09       306        506        0          0          263.381    15214      0          -260       2904.46    84.324     20373     
2717.2     4.94       293        618        0          0          263.34     15212      0          -275       2901.9     84.327     20374     
2717.4     4.76       294        633        0          0          263.299    15210      0          -260       2899.43    84.336     20376     
2717.6     4.55       271        593        0          0          263.298    15210      0          -320       2896.98    84.345     20379     
2717.8     4.46       253        640        0          0          263.402    15215      0          -320       2894.54    84.35      20380     
2718       4.52       250        824        0          0          263.525    15221      0          -300       2892.1     84.354     20381     
2718.2     4.57       268        690        0          0          263.559    15223      0          -320       2889.65    84.36      20383     
2718.4     4.56       251        1358       0          0          263.559    15223      0          -300       2887.19    84.365     20384     
2718.6     4.71       250        7323       0          0          263.456    15218      0          -320       2884.71    84.369     20385     
2718.8     4.92       274        5500       0          0          263.42     15216      0          -260       2882.24    84.377     20387     
2719       5.04       273        6023       0          0          263.42     15216      0          -280       2879.81    84.381     20388     
2719.2     5.24       285        660        0          0          263.44     15217      0          -260       2877.36    84.388     20390     
2719.4     5.41       300        1541       0          0          263.57     15223      0          -280       2874.78    84.396     20392     
2719.6     5.46       327        734        0          0          263.666    15228      0          -280       2872.34    84.407     20395     
2719.8     5.29       312        721        1          0          263.7      15230      0          -320       2869.91    84.415     20397     
2720       5.25       279        547        0          0          263.63     15226      0          -320       2866.8     84.422     20399     
2720.2     5.51       299        670        0          0          263.52     15221      0          -280       2864.36    84.43      20401     
2720.4     5.7        327        696        0          0          263.54     15222      0          -305       2861.88    84.437     20403     
2720.6     5.71       321        595        0          0          263.595    15225      0          -260       2859.35    84.446     20405     
2720.8     5.84       322        581        0          0          263.746    15232      0          -280       2856.9     84.453     20407     
2721       6.1        313        568        0          0          263.85     15237      0          -260       2854.45    84.46      20409     
2721.2     6.7        311        588        0          0          263.89     15239      0          -320       2852.02    84.464     20410     
2721.4     7.36       392        630        0          0          263.663    15228      0          -320       2849.44    84.465     20410     
2721.6     7.63       437        765        0          0          263.69     15229      0          -320       2846.99    84.471     20412     
2721.8     7.54       449        558        0          0          263.729    15231      0          -260       2844.55    84.479     20414     
2722       7.26       440        583        0          0          263.883    15239      0          -320       2842.12    84.483     20415     
