~Version
 VERS              .         2.0                           : CWLS LOG ASCII STANDARD - VERSION 2.0
 WRAP              .         NO                            : ONE LINE PER DEPTH STEP
 DLM               .         SPACE                         : DELIMITING CHARACTER(SPACE TAB OR COMMA)
~Well Information
#_______________________________________________________________________________
#
#PARAMETER_NAME    .UNIT     VALUE                         : DESCRIPTION
#_______________________________________________________________________________
STRT               .M        2714.4                        : First reference value
STOP               .M        2769                          : Last reference value
STEP               .M        0.2000004                     : Step increment
NULL               .         -9999                         : Missing value
COMP               .                                       : Company
WELL               .         616                           : Well name
FLD                .                                       : Field
LOC                .                                       : Location
CNTY               .                                       : County
STAT               .                                       : State
CTRY               .                                       : Country
SRVC               .                                       : Service Company
DATE               .                                       : Date
API                .                                       : API number
PROJECT_UPGRADE_TIME .         2021-03-18T21_24_50           : 
group              .         Good                          : 
~Parameter Information Block
#_______________________________________________________________________________
#
#PARAMETER_NAME    .UNIT     VALUE                         : DESCRIPTION
#_______________________________________________________________________________
SET                .         D1163_D                       : 
OTHER              .         Программное обеспечение станции MONITOR-386EX 25/12/99 15_08_10   BGF V52 22/08/01 16_56_30   3.2_BGF_N_3070031: 
OTHER_10           .         Тарировки_                    : 
OTHER_11           .         TM.GRD = 0.00403*TM$.UE + -1.19: 
OTHER_12           .         MN.ATM = (7.1e-006*TM.GRD + 0.02017)*(MN$.UE + -3.03*TM.GRD + -1833): 
OTHER_13           .         Id error                      : 
OTHER_2            .         Kedr.exe версия 3.4.2.51      : 
OTHER_3            .         KedrData.dll версия 3.4.2.24  : 
OTHER_4            .         Драйвер версия 2.1.1.8        : 
OTHER_5            .         Мнемоники версия 3.3 S        : 
OTHER_6            .         Прибор_ КСА-М1                : 
OTHER_7            .         Номер прибора_ 265            : 
OTHER_8            .         Режим_ КСА-М1                 : 
OTHER_9            .         Форма_ ТЕРМОМЕТР              : 
PROJECT_UPGRADE_TIME .         2021-03-18T21_24_49           : 
TLFamily_DEPT      .         Measured Depth                : 
TLFamily_GK        .         Gamma Ray                     : 
TLFamily_GK$       .                                       : 
TLFamily_LM        .         Casing Collar locator         : 
TLFamily_METKA     .                                       : 
TLFamily_MN        .                                       : 
TLFamily_MN$       .                                       : 
TLFamily_RCOR      .                                       : 
TLFamily_SPID      .         Spontaneous Potential         : 
TLFamily_STD       .                                       : 
TLFamily_TENS      .         Cable Tension                 : 
TLFamily_TIME      .         Time                          : 
TLFamily_TM        .         Temperature                   : 
TLFamily_TM$       .         Temperature                   : 
TLFamily_VGD       .         Gas Volume                    : 
group              .         prim                          : 
~Curve Information
#_______________________________________________________________________________
#
#LOGNAME           .UNIT     LOG_ID                        : DESCRIPTION
#_______________________________________________________________________________
DEPT               .M                                      : 1 Глубина, м -    0.0 см 
GK                 .MKR/H                                  : 15 Гамма-активность, мкр./ч -  110.0 см 
GK$                .UE                                     : 12 Гамма-активность, усл.ед. -  110.0 см 
LM                 .                                       : 10 Локатор муфт,  -   20.0 см 
METKA              .                                       : 3 Метки,  -    0.0 см 
MN                 .ATM                                    : 14 Давление, атм. -  160.0 см 
MN$                .UE                                     : 8 Давление, усл.ед. -  160.0 см 
RCOR               .CM/KM                                  : 5 Коррекция по ролику, см/км -    0.0 см 
SPID               .M/H                                    : 2 Скорость, м/час -    0.0 см 
STD                .                                       : 11 Приток,  -  170.0 см 
TENS               .T                                      : 6 Натяжение кабеля, т -    0.0 см 
TIME               .S                                      : 4 Время, сек -    0.0 см 
TM                 .GRD                                    : 13 Температура, °C -  180.0 см 
TM$                .UE                                     : 7 Температура, усл.ед. -  180.0 см 
VGD                .                                       : 9 Влагомер,  -  170.0 см 
~Ascii
# ...
2753.6     8.25       352        1          0          255.459    14382      -1400      -315       32373      0          18225.71   90.057     22642      6446      
2753.8     7.98       356        1          0          255.48     14383      -1400      -318       32372      0          18223.3    90.059     22643      6445      
2754       7.72       329        1          0          255.501    14384      -1400      -317       32372      0          18221.11   90.065     22644      6444      
2754.2     8.31       325        1          0          255.522    14385      -1400      -316       32374      0          18218.92   90.073     22646      6443      
2754.4     9.15       396        1          0          255.522    14385      -1400      -313       32372      0          18216.61   90.077     22647      6441      
2754.6     8.57       386        1          0          255.543    14386      -1400      -318       32374      0          18214.31   90.089     22650      6438      
2754.8     6.89       295        1          0          255.575    14388      -1400      -317       32373      0          18212.01   90.094     22651      6438      
2755       6.85       293        1          0          255.585    14388      -1400      -315       32373      0          18209.81   90.104     22654      6438      
2755.2     6.79       294        1          0          255.606    14389      -1400      -319       32372      0          18207.51   90.11      22655      6435      
2755.4     6.18       269        1          0          255.627    14390      -1400      -318       32372      0          18205.29   90.114     22656      6437      
2755.6     6.18       264        1          0          255.632    14390      -1400      -317       32372      0          18203.02   90.119     22657      6435      
2755.8     6.21       265        1          0          255.653    14391      -1400      -314       32372      0          18200.72   90.134     22661      6435      
2756       5.94       268        1          0          255.669    14392      -1400      -319       32373      0          18198.42   90.138     22662      6437      
2756.2     6.04       238        1          0          255.695    14393      -1400      -318       32373      0          18196.22   90.146     22664      6440      
2756.4     6.69       272        1          0          255.711    14394      -1400      -317       32373      0          18193.92   90.151     22665      6481      
2756.6     7.23       306        1          0          255.732    14395      -1400      -322       32373      0          18191.69   90.158     22667      6481      
2756.8     7.45       316        1          0          255.753    14396      -1400      -324       32373      0          18189.32   90.17      22670      6481      
2757       7.66       332        1          0          255.775    14397      -1400      -315       32373      0          18187.13   90.186     22674      6482      
2757.2     7.24       316        1          0          255.796    14398      -1400      -312       32373      0          18184.94   90.213     22681      6481      
2757.4     6.45       276        1          0          255.813    14399      -1400      -315       32372      0          18182.53   90.243     22688      6482      
2757.6     6.45       269        1          0          255.84     14400      -1400      -319       32372      0          18180.29   90.289     22700      6481      
2757.8     7.87       332        690        0          255.862    14401      -1400      -315       32372      0          18178.03   90.343     22713      6482      
2758       8.58       344        1595       0          255.868    14401      -1400      -316       32374      0          18175.76   90.384     22723      6482      
2758.2     8.84       379        1          0          255.905    14403      -1400      -316       32373      0          18173.53   90.414     22731      6481      
2758.4     8.66       379        1          0          255.927    14404      -1400      -313       32372      0          18171.23   90.447     22739      6481      
2758.6     8.36       366        1          0          255.966    14406      -1400      -308       32373      0          18169.03   90.502     22752      6482      
2758.8     8          345        1          0          255.989    14407      -1400      -317       32372      0          18166.7    90.568     22769      6483      
2759       7.76       338        1          0          255.997    14407      -1400      -314       32372      0          18164.43   90.67      22794      6483      
2759.2     7.41       315        1          0          256.033    14409      -1400      -310       32373      0          18162.24   90.782     22822      6482      
2759.4     7.58       321        1          0          256.051    14409      -1400      -303       32373      0          18159.97   90.831     22834      6482      
2759.6     8.04       345        1          0          256.061    14410      -1400      -301       32374      0          18157.64   90.857     22841      6480      
2759.8     7.79       336        1          0          256.082    14411      -1400      -297       32373      0          18155.45   90.87      22844      6482      
2760       7.66       328        1          2          256.124    14413      -1400      -305       32373      0          18153.23   90.879     22846      6482      
2760.2     7.56       328        1          0          256.145    14414      -1400      -315       32372      0          18152.37   90.887     22848      6481      
2760.4     7.48       321        1          0          256.166    14415      -1400      -313       32373      0          18150.07   90.896     22850      6480      
2760.6     7.66       315        1          0          256.187    14416      -1400      -321       32372      0          18147.82   90.9       22851      6481      
2760.8     8.3        335        1          0          256.208    14417      -1400      -315       32373      0          18145.58   90.906     22853      6479      
2761       9.02       392        1          0          256.229    14418      -1400      -322       32373      0          18143.28   90.912     22854      6481      
2761.2     8.66       381        1          0          256.25     14419      -1400      -316       32374      0          18140.98   90.918     22856      6480      
2761.4     7.89       375        1          0          256.271    14420      -1400      -313       32373      0          18138.78   90.924     22857      6480      
2761.6     6.45       282        1          0          256.292    14421      -1400      -309       32373      0          18136.5    90.928     22858      6480      
2761.8     6.35       264        1          0          256.292    14421      -1400      -318       32372      0          18134.18   90.936     22860      6481      
2762       6.81       290        1          0          256.313    14422      -1400      -317       32373      0          18131.88   90.936     22860      6479      
2762.2     6.96       295        1          0          256.334    14423      -1400      -314       32373      0          18129.69   90.945     22862      6480      
2762.4     7.14       305        1          0          256.355    14424      -1400      -318       32373      0          18127.39   90.952     22864      6479      
2762.6     7.14       306        1          0          256.376    14425      -1400      -317       32373      0          18125.19   90.958     22866      6480      
2762.8     7.03       299        1          0          256.376    14425      -1400      -315       32373      0          18122.89   90.96      22866      6480      
2763       7.29       311        1          0          256.418    14427      -1400      -315       32372      0          18120.59   90.968     22868      6479      
2763.2     7.39       313        1          0          256.439    14428      -1400      -316       32373      0          18118.29   90.976     22870      6481      
