~Version
 VERS              .         2.0                           : CWLS LOG ASCII STANDARD - VERSION 2.0
 WRAP              .         NO                            : ONE LINE PER DEPTH STEP
 DLM               .         SPACE                         : DELIMITING CHARACTER(SPACE TAB OR COMMA)
~Well Information
#_______________________________________________________________________________
#
#PARAMETER_NAME    .UNIT     VALUE                         : DESCRIPTION
#_______________________________________________________________________________
STRT               .M        2310.8                        : First reference value
STOP               .M        2792.2                        : Last reference value
STEP               .M        0.2                           : Step increment
NULL               .         -9999                         : Missing value
COMP               .                                       : Company
WELL               .         616                           : Well name
FLD                .                                       : Field
LOC                .                                       : Location
CNTY               .                                       : County
STAT               .                                       : State
CTRY               .                                       : Country
SRVC               .                                       : Service Company
DATE               .                                       : Date
API                .                                       : API number
PROJECT_UPGRADE_TIME .         2021-03-18T21_24_50           : 
group              .         Good                          : 
~Parameter Information Block
#_______________________________________________________________________________
#
#PARAMETER_NAME    .UNIT     VALUE                         : DESCRIPTION
#_______________________________________________________________________________
SET                .         D2660_D                       : 
OTHER              .         Программное обеспечение станции MONITOR-386EX 25/12/99 15_08_10   BGF V50 26/12/00 07_26_01   3.1_SNGF___BGF_N_092085: 
OTHER_10           .         Тарировки_                    : 
OTHER_2            .         Kedr.exe версия 3.3.2.32      : 
OTHER_3            .         KedrData.dll версия 3.3.2.17  : 
OTHER_4            .         Драйвер версия 2.1.0.1        : 
OTHER_5            .         Мнемоники версия 3.3 S        : 
OTHER_6            .         Прибор_ ПС                    : 
OTHER_7            .         Номер прибора_ 348\072        : 
OTHER_8            .         Режим_ ПС                     : 
OTHER_9            .         Форма_ ПС                     : 
PROJECT_UPGRADE_TIME .         2021-03-18T21_24_49           : 
TLFamily_DEPT      .         Measured Depth                : 
TLFamily_METKA     .                                       : 
TLFamily_PS        .         Spontaneous Potential         : 
TLFamily_RCOR      .                                       : 
TLFamily_SPID      .         Spontaneous Potential         : 
TLFamily_TENS      .         Cable Tension                 : 
TLFamily_TIME      .         Time                          : 
group              .         prim                          : 
~Curve Information
#_______________________________________________________________________________
#
#LOGNAME           .UNIT     LOG_ID                        : DESCRIPTION
#_______________________________________________________________________________
DEPT               .M                                      : 1 Глубина, м -    0.0 см 
METKA              .                                       : 3 Метки,  -    0.0 см 
PS                 .mV                                     : 7 ПС, мВ - 1210.0 см 
RCOR               .CM/KM                                  : 5 Коррекция по ролику, см/км -    0.0 см 
SPID               .M/H                                    : 2 Скорость, м/час -    0.0 см 
TENS               .T                                      : 6 Натяжение кабеля, т -    0.0 см 
TIME               .S                                      : 4 Время, сек -    0.0 см 
~Ascii
# ...
2706       0          547.71     -314       -1831      0          30011.29  
2706.2     0          547.87     -314       -1791      0          30010.88  
2706.4     0          547.25     -314       -1795      0          30010.52  
2706.6     0          546.99     -314       -1829      0          30010.11  
2706.8     0          547.65     -314       -1859      0          30009.72  
2707       0          547.16     -314       -1853      0          30009.33  
2707.2     0          548.33     -314       -1806      0          30008.93  
2707.4     0          548.31     -314       -1790      0          30008.54  
2707.6     0          548.09     -314       -1791      0          30008.15  
2707.8     0          547.32     -314       -1796      0          30007.75  
2708       0          548.46     -314       -1834      0          30007.38  
2708.2     1          548.12     -314       -1886      0          30006.95  
2708.4     0          548.05     -314       -1739      0          30006.59  
2708.6     0          547.78     -314       -1801      0          30006.19  
2708.8     0          548.43     -314       -1843      0          30005.8   
2709       0          548.59     -314       -1790      0          30005.4   
2709.2     0          548.2      -314       -1790      0          30005     
2709.4     1          549.71     -314       -1790      0          30004.61  
2709.6     0          547.28     -314       -1791      0          30004.21  
2709.8     1          546.28     -314       -1795      0          30003.81  
2710       1          541.45     -315       -1827      0          30003.42  
2710.2     0          537.67     -334       -1829      0          30003.41  
2710.4     0          535.93     -352       -1841      0          30003.36  
2710.6     0          534.35     -352       -1859      0          30002.99  
2710.8     0          534.15     -352       -1852      0          30002.61  
2711       0          533.79     -352       -1797      0          30002.21  
2711.2     0          531.02     -352       -1791      0          30001.82  
2711.4     0          523.75     -352       -1799      0          30001.41  
2711.6     0          515.33     -352       -1856      0          30001.04  
2711.8     0          518.77     -352       -1828      0          30000.65  
2712       0          530.97     -352       -1790      0          30000.26  
2712.2     1          508.41     -352       -1790      0          29999.83  
2712.4     1          522.83     -352       -1790      0          29999.43  
2712.6     0          534.65     -352       -1791      0          29999.06  
2712.8     0          537.58     -352       -1799      0          29998.67  
2713       0          539.22     -352       -1860      0          29998.27  
2713.2     0          538.78     -352       -1860      0          29997.87  
2713.4     0          541.46     -352       -1859      0          29997.46  
2713.6     0          542.71     -352       -1854      0          29997.08  
2713.8     0          542.73     -352       -1821      0          29996.72  
2714       0          541.63     -352       -1791      0          29996.32  
2714.2     0          536.4      -352       -1796      0          29995.92  
2714.4     0          528.29     -352       -1836      0          29995.52  
2714.6     0          517.03     -352       -1819      0          29995.12  
2714.8     0          511.35     -352       -1749      0          29994.72  
2715       0          520.29     -352       -1860      0          29994.34  
2715.2     0          538.33     -352       -1858      0          29993.94  
2715.4     0          541.28     -352       -1846      0          29993.56  
2715.6     0          542.63     -352       -1790      0          29993.17  
2715.8     0          538.27     -352       -1792      0          29992.79  
2716       0          542.96     -352       -1809      0          29992.38  
2716.2     0          544.19     -352       -1860      0          29991.96  
2716.4     0          544.26     -352       -1856      0          29991.58  
2716.6     0          542.66     -352       -1831      0          29991.2   
2716.8     0          537.41     -352       -1790      0          29990.82  
2717       0          530.45     -352       -1793      0          29990.43  
2717.2     0          538.62     -352       -1825      0          29989.99  
2717.4     0          544.41     -352       -1844      0          29989.6   
2717.6     0          545.47     -352       -1790      0          29989.2   
2717.8     0          545.68     -352       -1793      0          29988.83  
2718       0          545.66     -352       -1811      0          29988.44  
2718.2     0          545.29     -352       -1851      0          29988.04  
2718.4     0          540.85     -352       -1790      0          29987.65  
2718.6     0          536.88     -352       -1791      0          29987.25  
2718.8     0          537.6      -352       -1802      0          29986.86  
2719       0          536.28     -352       -1854      0          29986.46  
2719.2     0          537.48     -352       -1816      0          29986.08  
2719.4     0          541.78     -352       -1790      0          29985.68  
2719.6     0          542.83     -352       -1790      0          29985.29  
2719.8     1          542.82     -352       -1790      0          29984.95  
2720       0          539.86     -352       -1789      0          29984.51  
2720.2     0          532.56     -351       -1782      0          29984.11  
2720.4     0          538.9      -351       -1738      0          29983.71  
2720.6     0          544.39     -351       -1799      0          29983.3   
2720.8     0          545.87     -351       -1859      0          29982.9   
2721       0          546.09     -351       -1853      0          29982.5   
2721.2     0          546.08     -351       -1800      0          29982.11  
2721.4     0          545.7      -351       -1791      0          29981.72  
2721.6     0          545.79     -351       -1799      0          29981.34  
2721.8     0          542.96     -351       -1860      0          29980.95  
2722       0          531.87     -351       -1858      0          29980.55  
2722.2     0          521.35     -351       -1846      0          29980.16  
2722.4     0          521.07     -351       -1790      0          29979.77  
2722.6     0          511.01     -351       -1790      0          29979.38  
2722.8     0          500.12     -351       -1790      0          29978.99  
2723       0          493.83     -351       -1790      0          29978.61  
2723.2     0          489.67     -351       -1793      0          29978.21  
2723.4     0          486.97     -351       -1813      0          29977.82  
2723.6     0          483.93     -351       -1860      0          29977.39  
2723.8     0          483.22     -351       -1860      0          29977     
2724       0          484.12     -351       -1858      0          29976.62  
2724.2     0          483.85     -351       -1846      0          29976.22  
2724.4     0          485.23     -351       -1790      0          29975.83  
2724.6     0          486.87     -351       -1790      0          29975.43  
2724.8     0          490.44     -351       -1792      0          29975.03  
2725       0          499.4      -351       -1807      0          29974.64  
2725.2     0          511.36     -351       -1914      0          29974.25  
2725.4     0          510.82     -351       -1875      0          29973.87  
2725.6     0          499.26     -351       -1790      0          29973.48  
2725.8     0          492.39     -351       -1787      0          29973.08  
2726       0          490.07     -351       -1762      0          29972.69  
2726.2     0          489.16     -351       -1760      0          29972.29  
2726.4     0          489.67     -351       -1860      0          29971.9   
2726.6     0          493.27     -351       -1857      0          29971.49  
