~Version
 VERS              .         2.0                           : CWLS LOG ASCII STANDARD - VERSION 2.0
 WRAP              .         NO                            : ONE LINE PER DEPTH STEP
 DLM               .         SPACE                         : DELIMITING CHARACTER(SPACE TAB OR COMMA)
~Well Information
#_______________________________________________________________________________
#
#PARAMETER_NAME    .UNIT     VALUE                         : DESCRIPTION
#_______________________________________________________________________________
STRT               .M        19.65                         : First reference value
STOP               .M        2766.85                       : Last reference value
STEP               .M        0.2                           : Step increment
NULL               .         -9999                         : Missing value
COMP               .                                       : Company
WELL               .         616                           : Well name
FLD                .                                       : Field
LOC                .                                       : Location
CNTY               .                                       : County
STAT               .                                       : State
CTRY               .                                       : Country
SRVC               .                                       : Service Company
DATE               .                                       : Date
API                .                                       : API number
PROJECT_UPGRADE_TIME .         2021-03-18T21_24_50           : 
group              .         Good                          : 
~Parameter Information Block
#_______________________________________________________________________________
#
#PARAMETER_NAME    .UNIT     VALUE                         : DESCRIPTION
#_______________________________________________________________________________
SET                .         D7016_D_2                     : 
NPR                .         155                           : Номер прибора
OTHER              .         Kedr.exe версия 2.1.2.32      : 
OTHER_10           .         TM.GRD = 0.00404*TM$.UE + 0.07: 
OTHER_11           .         MN.ATM = (6.33279e-006*TM.GRD + 0.02401)*(MN$.UE + 2.72*TM.GRD + -2018): 
OTHER_12           .         GK.MKR/H = GK$.UE / 43.5489 + 0: 
OTHER_13           .         RES.SM = 0.00476*CRES.UE - 1.51709: 
OTHER_14           .         PL.GSM3 = 0 + 0 * (PL.UE / 1) +  0 * (PL.UE / 1)^2: 
OTHER_15           .         Постоянная времени ГГП = 6 сек: 
OTHER_16           .         Постоянная времени ГК = 6 сек : 
OTHER_2            .         KedrData.dll версия 3.2.2.14  : 
OTHER_3            .         LasInf.dll версия 3.2.0.13    : 
OTHER_4            .         Драйвер версия 1.2.0.5        : 
OTHER_5            .         Прибор_ КСА-M1                : 
OTHER_6            .         Номер прибора_ 155+р204       : 
OTHER_7            .         Режим_ КСА-М1 + ГГП + Резистивиметр: 
OTHER_8            .         Форма_ 223\2                  : 
OTHER_9            .         Тарировки_                    : 
PR                 .         КСА-Т7 М1                     : Тип прибора
PROJECT_UPGRADE_TIME .         2021-03-18T21_24_50           : 
PRTY               .         ПП-223_2                      : Номер партии
SRV                .         ЦКРС                          : Заказчик
SRVC               .         Лузин  А.Б.                   : Начальник партии
TLFamily_DEPT      .         Measured Depth                : 
TLFamily_LM        .         Casing Collar locator         : 
TLFamily_MN        .                                       : 
TLFamily_SPID      .         Spontaneous Potential         : 
TLFamily_TM        .         Temperature                   : 
group              .         second                        : 
~Curve Information
#_______________________________________________________________________________
#
#LOGNAME           .UNIT     LOG_ID                        : DESCRIPTION
#_______________________________________________________________________________
DEPT               .M                                      : Depth curve 
LM                 .е.ацп                                  : Локация муфт 
MN                 .атм                                    : Манометрия, атм 
SPID               .м/ч                                    : Скорость записи,м/час 
TM                 .град.С                                 : Термометрия,град.С 
~Ascii
# ...
924.85     383.997    83.98      1660       35.65     
925.05     332.995    84         1660.004   35.66     
925.25     253.996    83.93      1725.996   35.67     
925.45     198.002    84.05      1660       35.67     
925.65     229.002    84.05      1659.998   35.67     
925.85     262.999    84.06      1627.998   35.68     
926.05     242.004    84.09      1600.003   35.68     
926.25     306.001    84.12      1647.001   35.69     
926.45     317        84.13      1660       35.69     
926.65     309.996    84.13      1660       35.7      
926.85     256.004    84.15      1660       35.7      
927.05     323.006    84.18      1660       35.71     
927.25     415.996    84.2       1660       35.72     
927.45     352.997    84.21      1660       35.72     
927.65     300.015    84.23      1660       35.73     
927.85     523.335    84.25      1660       35.73     
928.05     5615.987   84.25      1660       35.73     
928.25     5410.868   84.28      1660       35.74     
928.45     3398.918   84.31      1660       35.74     
928.65     2146.949   84.32      1660       35.75     
928.85     1370.971   84.34      1660       35.75     
929.05     924.979    84.35      1660       35.76     
929.25     608.99     84.37      1660       35.76     
929.45     458.99     84.4       1660       35.77     
929.65     300.997    84.4       1660       35.77     
929.85     259.007    84.41      1659.996   35.78     
930.05     357.997    84.46      1603.004   35.78     
930.25     318        84.47      1660       35.79     
930.45     322.997    84.47      1660.002   35.79     
930.65     280.999    84.47      1686.003   35.8      
930.85     260.008    84.5       1729.997   35.8      
931.05     375.994    84.52      1685.998   35.81     
931.25     290.998    84.55      1660       35.82     
931.45     264.028    84.57      1660       35.82     
931.65     680.988    84.57      1660       35.83     
931.85     504.995    84.6       1660       35.83     
932.05     422.999    84.62      1660       35.83     
932.25     402.995    84.63      1660       35.84     
932.45     324.002    84.65      1660       35.85     
932.65     361.009    84.66      1660       35.85     
932.85     492.996    84.69      1660       35.86     
933.05     430.995    84.72      1660       35.86     
933.25     355.002    84.72      1660       35.86     
933.45     388.01     84.73      1660       35.87     
933.65     539.007    84.76      1660       35.87     
933.85     641.989    84.78      1660       35.88     
934.05     477.994    84.8       1660       35.88     
934.25     392.999    84.82      1660       35.89     
934.45     381.005    84.82      1660       35.89     
934.65     448.995    84.85      1660       35.9      
934.85     368.997    84.85      1660       35.9      
935.05     331.006    84.88      1660       35.9      
935.25     423.995    84.9       1660       35.91     
935.45     346.999    84.91      1660       35.92     
935.65     334.004    84.92      1660       35.92     
935.85     397.997    84.94      1660       35.93     
936.05     355        84.95      1660       35.93     
936.25     355.998    84.98      1660       35.93     
936.45     326.996    85         1660       35.94     
936.65     268        85.02      1660       35.95     
936.85     269        85.03      1660       35.95     
937.05     271.004    85.05      1660       35.96     
937.25     329.996    85.06      1660       35.96     
937.45     275        85.07      1659.999   35.96     
937.65     278.008    85.08      1641.997   35.97     
937.85     391.999    85.11      1600.002   35.97     
938.05     376.996    85.12      1633.005   35.98     
938.25     321.997    85.15      1707.002   35.98     
938.45     280.044    85.16      1729.996   35.98     
938.65     948.003    85.19      1664.004   35.99     
938.85     1000.352   85.19      1729.999   35.99     
939.05     6289.854   85.22      1714.995   36        
939.25     4102.899   85.24      1642.997   36        
939.45     2583.939   85.26      1600       36        
939.65     1670.942   85.28      1607.002   36.01     
939.85     807.986    85.31      1642.997   36.02     
940.05     591.989    85.32      1600.002   36.02     
940.25     430.994    85.32      1637.002   36.03     
940.45     348.015    85.32      1660       36.04     
940.65     566.008    85.35      1660       36.05     
940.85     681.989    85.38      1660       36.05     
941.05     520        85.42      1660       36.05     
941.25     521.995    85.42      1660.002   36.05     
941.45     443.995    85.44      1691.003   36.06     
941.65     373        85.45      1729.997   36.07     
941.85     367.998    85.47      1685.002   36.07     
942.05     342.999    85.49      1712.001   36.08     
942.25     332.022    85.51      1729.995   36.08     
942.45     657.01     85.52      1660       36.09     
942.65     810.986    85.54      1659.999   36.09     
942.85     601        85.55      1639.999   36.09     
943.05     599.995    85.58      1628.002   36.1      
943.25     523.01     85.59      1660.004   36.1      
943.45     677.996    85.59      1713.997   36.11     
943.65     616.003    85.61      1670.999   36.11     
943.85     654.01     85.64      1660       36.11     
944.05     807.992    85.64      1660       36.12     
944.25     690.993    85.69      1660       36.12     
944.45     583.011    85.7       1660       36.13     
944.65     747.999    85.72      1660       36.13     
944.85     732.992    85.73      1660       36.14     
945.05     620.005    85.74      1659.996   36.14     
945.25     688.982    85.76      1600.001   36.15     
945.45     425.994    85.77      1611.002   36.15     
945.65     330        85.79      1636.998   36.16     
945.85     330.999    85.82      1600       36.16     
946.05     321.026    85.83      1600.004   36.17     
946.25     703.997    85.84      1653       36.18     
946.45     664.978    85.86      1655.997   36.18     
946.65     340.999    85.87      1614.002   36.18     
946.85     329.998    85.89      1636.998   36.19     
947.05     294.998    85.84      1600.003   36.19     
947.25     259.004    85.93      1640.005   36.2      
947.45     317.001    85.94      1714.001   36.2      
947.65     325.997    85.98      1729.992   36.21     
947.85     287.003    85.99      1607.004   36.21     
948.05     337.015    85.99      1659.998   36.22     
948.25     562.992    86.02      1634       36.22     
948.45     447.002    86.03      1637.002   36.22     
948.65     470.008    86.04      1660       36.23     
948.85     594.999    86.1       1660       36.23     
949.05     586.985    86.09      1659.999   36.24     
949.25     360.995    86.09      1648.997   36.24     
949.45     283.006    86.11      1600       36.25     
949.65     369.14     86.13      1600       36.26     
949.85     2451.195   86.16      1604.004   36.26     
950.05     5350.866   86.18      1660       36.26     
950.25     3360.92    86.19      1660       36.27     
950.45     2176.951   86.21      1660       36.27     
950.65     1452.968   86.21      1660       36.28     
950.85     976.986    86.24      1660       36.28     
951.05     770.983    86.26      1660       36.29     
951.25     517.987    86.29      1652.997   36.3      
951.45     329.003    86.29      1614.003   36.3      
951.65     376.997    86.32      1660       36.3      
951.85     336.997    86.34      1660       36.31     
952.05     288.001    86.35      1660       36.31     
952.25     305.007    86.36      1660       36.32     
952.45     408.995    86.38      1660       36.33     
952.65     327.996    86.41      1660       36.33     
952.85     275.011    86.42      1660.001   36.33     
953.05     434.013    86.44      1680.999   36.34     
953.25     626.998    86.45      1671.995   36.34     
953.45     595.989    86.47      1600.003   36.34     
953.65     437.025    86.5       1646.005   36.35     
953.85     808.03     86.51      1722.001   36.35     
