~Version
 VERS              .         2.0                           : CWLS LOG ASCII STANDARD - VERSION 2.0
 WRAP              .         NO                            : ONE LINE PER DEPTH STEP
 DLM               .         SPACE                         : DELIMITING CHARACTER(SPACE TAB OR COMMA)
~Well Information
#_______________________________________________________________________________
#
#PARAMETER_NAME    .UNIT     VALUE                         : DESCRIPTION
#_______________________________________________________________________________
STRT               .M        2647.6                        : First reference value
STOP               .M        2755.199839                   : Last reference value
STEP               .M        0.1999997                     : Step increment
NULL               .         -9999                         : Missing value
COMP               .                                       : Company
WELL               .         616                           : Well name
FLD                .                                       : Field
LOC                .                                       : Location
CNTY               .                                       : County
STAT               .                                       : State
CTRY               .                                       : Country
SRVC               .                                       : Service Company
DATE               .                                       : Date
API                .                                       : API number
PROJECT_UPGRADE_TIME .         2021-03-18T21_24_50           : 
group              .         Good                          : 
~Parameter Information Block
#_______________________________________________________________________________
#
#PARAMETER_NAME    .UNIT     VALUE                         : DESCRIPTION
#_______________________________________________________________________________
SET                .         D7024_D                       : 
OTHER              .         Kedr.exe версия 2.1.2.32      : 
OTHER_10           .         TM.GRD = 0.00404*TM$.UE + 0.07: 
OTHER_11           .         MN.ATM = (6.33279e-006*TM.GRD + 0.02401)*(MN$.UE + 2.72*TM.GRD + -2018): 
OTHER_12           .         GK.MKR/H = GK$.UE / 43.5489 + 0: 
OTHER_13           .         RES.SM = 0.00476*CRES.UE - 1.51709: 
OTHER_14           .         PL.GSM3 = 0 + 0 * (PL.UE / 1) +  0 * (PL.UE / 1)^2: 
OTHER_15           .         Постоянная времени ГГП = 6 сек: 
OTHER_16           .         Постоянная времени ГК = 6 сек : 
OTHER_2            .         KedrData.dll версия 3.2.2.14  : 
OTHER_3            .         LasInf.dll версия 3.2.0.13    : 
OTHER_4            .         Драйвер версия 1.2.0.5        : 
OTHER_5            .         Прибор_ КСА-M1                : 
OTHER_6            .         Номер прибора_ 155+р204       : 
OTHER_7            .         Режим_ КСА-М1 + ГГП + Резистивиметр: 
OTHER_8            .         Форма_ 223\2                  : 
OTHER_9            .         Тарировки_                    : 
PROJECT_UPGRADE_TIME .         2021-03-18T21_24_50           : 
TLFamily_CRES      .                                       : 
TLFamily_DEPT      .         Measured Depth                : 
TLFamily_GK        .         Gamma Ray                     : 
TLFamily_GK$       .                                       : 
TLFamily_LM        .         Casing Collar locator         : 
TLFamily_METKA     .                                       : 
TLFamily_MN        .                                       : 
TLFamily_MN$       .                                       : 
TLFamily_PL        .                                       : 
TLFamily_PL_2      .                                       : 
TLFamily_RCOR      .                                       : 
TLFamily_RES       .         Mud Resistivity               : 
TLFamily_SPID      .         Spontaneous Potential         : 
TLFamily_STD       .                                       : 
TLFamily_TIME      .         Time                          : 
TLFamily_TM        .         Temperature                   : 
TLFamily_TM$       .         Temperature                   : 
TLFamily_VGD       .         Gas Volume                    : 
group              .         prim                          : 
~Curve Information
#_______________________________________________________________________________
#
#LOGNAME           .UNIT     LOG_ID                        : DESCRIPTION
#_______________________________________________________________________________
DEPT               .M                                      : 1 Глубина, м -    0.0 см 
CRES               .UE                                     : 9 Проводимость, усл.ед. -  222.0 см 
GK                 .MKR/H                                  : 16 Гамма-активность, мкр./ч -  106.0 см 
GK$                .UE                                     : 13 Гамма-активность, усл.ед. -  106.0 см 
LM                 .                                       : 11 Локатор муфт,  -   16.0 см 
METKA              .                                       : 3 Метки,  -    0.0 см 
MN                 .ATM                                    : 15 Давление, атм. -  160.0 см 
MN$                .UE                                     : 7 Давление, усл.ед. -  160.0 см 
PL                 .UE                                     : 10 Плотность, усл.ед. -  270.0 см 
PL_2               .GSM3                                   : 18 Плотность, г./см3 -  270.0 см 
RCOR               .CM/KM                                  : 5 Коррекция по ролику, см/км -    0.0 см 
RES                .SM                                     : 17 Проводимость,  -  222.0 см 
SPID               .M/H                                    : 2 Скорость, м/час -    0.0 см 
STD                .                                       : 12 Приток,  -  170.0 см 
TIME               .S                                      : 4 Время, сек -    0.0 см 
TM                 .GRD                                    : 14 Температура, °C -  180.0 см 
TM$                .UE                                     : 6 Температура, усл.ед. -  180.0 см 
VGD                .                                       : 8 Влагомер,  -  170.0 см 
~Ascii
# ...
2680.399951 1243       10.43      444        67         0          368.931    17006      14         0          0          4.3996     580        11036      16046.46   56.279     13913      6705      
2680.59995 1243       10.35      453        51         0          368.653    16995      14         0          0          4.3996     580        11036      16047.82   56.272     13911      6705      
2680.79995 1244       10.47      461        61         0          370.365    17065      14         0          0          4.4043     580        11035      16049.09   56.264     13909      6705      
2680.99995 1247       10.53      461        62         0          368.831    17002      14         0          0          4.4186     580        11035      16050.38   56.258     13908      6704      
2681.19995 1247       10.65      467        74         0          369.886    17045      14         0          0          4.4202     580        11034      16051.69   56.254     13907      6703      
2681.399949 1247       10.65      463        79         0          372.099    17136      14         0          0          4.4163     510        11031      16053.01   56.246     13905      6700      
2681.599949 1246       10.64      463        864        0          371.7      17120      14         0          0          4.4132     545        11025      16054.3    56.235     13902      6700      
2681.799949 1243       10.25      422        329        0          368.387    16984      14         0          0          4.398      580        11018      16055.58   56.226     13900      6701      
2681.999948 1245       9.97       422        60         0          368.319    16981      14         0          0          4.4067     580        11015      16056.9    56.218     13898      6702      
2682.199948 1247       9.69       408        34         0          369.422    17027      14         0          0          4.4186     522        11013      16058.17   56.21      13896      6702      
2682.399948 1246       9.53       408        36         0          370.296    17062      14         0          0          4.4162     545        11011      16059.48   56.202     13894      6701      
2682.599947 1245       9.83       449        29         0          370.306    17063      14         0          0          4.4107     580        11011      16060.75   56.2       13893      6701      
2682.799947 1247       10.07      449        30         0          371.845    17126      14         0          0          4.4186     510        11014      16062.09   56.198     13893      6701      
2682.999947 1248       10.54      482        32         0          371.331    17105      14         0          0          4.4234     580        11014      16063.35   56.194     13892      6701      
2683.199947 1247       10.81      484        32         0          371.248    17102      14         0          0          4.4193     557        11013      16064.62   56.184     13890      6700      
2683.399946 1246       11         488        27         0          372.443    17151      14         0          0          4.4139     580        11012      16065.92   56.178     13888      6701      
2683.599946 1244       10.98      460        29         0          372.298    17145      14         0          0          4.4044     521        11011      16067.23   56.173     13887      6701      
2683.799946 1245       10.65      449        28         0          371.94     17130      14         0          0          4.4099     522        11011      16068.56   56.173     13887      6701      
2683.999945 1246       10.48      448        24         0          371.066    17094      14         0          0          4.4139     533        11011      16069.83   56.173     13887      6701      
2684.199945 1246       10.37      446        29         0          370.627    17076      14         0          0          4.4155     580        11013      16071.13   56.167     13885      6701      
2684.399945 1243       10.44      477        35         0          370.016    17051      14         0          0          4.4003     510        11014      16072.44   56.159     13883      6700      
2684.599944 1244       10.87      493        38         0          369.649    17036      14         0          0          4.4052     580        11014      16073.77   56.153     13882      6700      
2684.799944 1244       10.99      471        36         0          369.169    17017      14         0          0          4.4044     580        11015      16075.04   56.145     13880      6700      
2684.999944 1245       10.9       471        29         0          369.566    17033      14         0          0          4.4091     533        11015      16076.37   56.14      13879      6700      
2685.199944 1244       10.87      473        21         0          368.661    16996      14         0          0          4.4036     520        11013      16077.65   56.137     13878      6700      
2685.399943 1241       10.87      473        18         0          369.48     17029      14         0          0          4.3901     580        11012      16078.98   56.137     13878      6699      
2685.599943 1243       10.88      476        41         0          369.743    17040      14         0          0          4.3996     580        11008      16080.25   56.132     13877      6699      
2685.799943 1245       10.9       476        39         0          371.096    17096      14         0          0          4.4091     533        11006      16081.59   56.125     13875      6699      
2685.999942 1245       10.82      461        21         0          371.54     17114      14         0          0          4.4091     510        11007      16082.92   56.121     13874      6700      
2686.199942 1246       10.7       461        18         0          372.557    17156      14         0          0          4.4139     568        11006      16084.18   56.117     13873      6700      
2686.399942 1245       11.23      532        18         0          371.683    17120      14         0          0          4.4078     580        11003      16085.47   56.113     13872      6699      
2686.599942 1244       11.71      532        52         0          372.651    17160      14         0          0          4.4067     557        11001      16086.8    56.109     13871      6698      
2686.799941 1244       12.88      626        44         0          372.51     17154      14         0          0          4.4043     510        11000      16088.12   56.102     13869      6699      
2686.999941 1244       13.61      626        83         0          372.451    17152      14         0          0          4.4044     568        10999      16089.41   56.093     13867      6699      
2687.199941 1246       13.57      588        133        0          371.86     17127      14         0          0          4.4123     580        10997      16090.68   56.088     13866      6699      
2687.39994 1244       13.54      588        132        0          370.767    17083      14         0          0          4.4064     580        10996      16092.02   56.079     13864      6700      
2687.59994 1245       12.15      449        94         0          370.019    17052      14         0          0          4.4099     580        10995      16093.29   56.072     13862      6699      
2687.79994 1243       11.26      449        55         0          370.16     17058      14         0          0          4.3996     568        10993      16094.62   56.064     13860      6700      
2687.999939 1244       9.87       366        80         0          370        17051      13         0          0          4.4043     580        10990      16095.89   56.06      13859      6701      
2688.199939 1245       9.13       361        58         0          371.122    17097      14         0          0          4.4072     580        10988      16097.22   56.056     13858      6701      
2688.399939 1242       8.65       355        69         0          369.337    17024      14         0          0          4.3948     580        10985      16098.49   56.051     13857      6698      
