~Version
 VERS              .         2.0                           : CWLS LOG ASCII STANDARD - VERSION 2.0
 WRAP              .         NO                            : ONE LINE PER DEPTH STEP
 DLM               .         SPACE                         : DELIMITING CHARACTER(SPACE TAB OR COMMA)
~Well Information
#_______________________________________________________________________________
#
#PARAMETER_NAME    .UNIT     VALUE                         : DESCRIPTION
#_______________________________________________________________________________
STRT               .M        2647.6                        : First reference value
STOP               .M        2755.199839                   : Last reference value
STEP               .M        0.1999997                     : Step increment
NULL               .         -9999                         : Missing value
COMP               .                                       : Company
WELL               .         616                           : Well name
FLD                .                                       : Field
LOC                .                                       : Location
CNTY               .                                       : County
STAT               .                                       : State
CTRY               .                                       : Country
SRVC               .                                       : Service Company
DATE               .                                       : Date
API                .                                       : API number
PROJECT_UPGRADE_TIME .         2021-03-18T21_24_50           : 
group              .         Good                          : 
~Parameter Information Block
#_______________________________________________________________________________
#
#PARAMETER_NAME    .UNIT     VALUE                         : DESCRIPTION
#_______________________________________________________________________________
SET                .         D7024_D                       : 
OTHER              .         Kedr.exe версия 2.1.2.32      : 
OTHER_10           .         TM.GRD = 0.00404*TM$.UE + 0.07: 
OTHER_11           .         MN.ATM = (6.33279e-006*TM.GRD + 0.02401)*(MN$.UE + 2.72*TM.GRD + -2018): 
OTHER_12           .         GK.MKR/H = GK$.UE / 43.5489 + 0: 
OTHER_13           .         RES.SM = 0.00476*CRES.UE - 1.51709: 
OTHER_14           .         PL.GSM3 = 0 + 0 * (PL.UE / 1) +  0 * (PL.UE / 1)^2: 
OTHER_15           .         Постоянная времени ГГП = 6 сек: 
OTHER_16           .         Постоянная времени ГК = 6 сек : 
OTHER_2            .         KedrData.dll версия 3.2.2.14  : 
OTHER_3            .         LasInf.dll версия 3.2.0.13    : 
OTHER_4            .         Драйвер версия 1.2.0.5        : 
OTHER_5            .         Прибор_ КСА-M1                : 
OTHER_6            .         Номер прибора_ 155+р204       : 
OTHER_7            .         Режим_ КСА-М1 + ГГП + Резистивиметр: 
OTHER_8            .         Форма_ 223\2                  : 
OTHER_9            .         Тарировки_                    : 
PROJECT_UPGRADE_TIME .         2021-03-18T21_24_50           : 
TLFamily_CRES      .                                       : 
TLFamily_DEPT      .         Measured Depth                : 
TLFamily_GK        .         Gamma Ray                     : 
TLFamily_GK$       .                                       : 
TLFamily_LM        .         Casing Collar locator         : 
TLFamily_METKA     .                                       : 
TLFamily_MN        .                                       : 
TLFamily_MN$       .                                       : 
TLFamily_PL        .                                       : 
TLFamily_PL_2      .                                       : 
TLFamily_RCOR      .                                       : 
TLFamily_RES       .         Mud Resistivity               : 
TLFamily_SPID      .         Spontaneous Potential         : 
TLFamily_STD       .                                       : 
TLFamily_TIME      .         Time                          : 
TLFamily_TM        .         Temperature                   : 
TLFamily_TM$       .         Temperature                   : 
TLFamily_VGD       .         Gas Volume                    : 
group              .         prim                          : 
~Curve Information
#_______________________________________________________________________________
#
#LOGNAME           .UNIT     LOG_ID                        : DESCRIPTION
#_______________________________________________________________________________
DEPT               .M                                      : 1 Глубина, м -    0.0 см 
CRES               .UE                                     : 9 Проводимость, усл.ед. -  222.0 см 
GK                 .MKR/H                                  : 16 Гамма-активность, мкр./ч -  106.0 см 
GK$                .UE                                     : 13 Гамма-активность, усл.ед. -  106.0 см 
LM                 .                                       : 11 Локатор муфт,  -   16.0 см 
METKA              .                                       : 3 Метки,  -    0.0 см 
MN                 .ATM                                    : 15 Давление, атм. -  160.0 см 
MN$                .UE                                     : 7 Давление, усл.ед. -  160.0 см 
PL                 .UE                                     : 10 Плотность, усл.ед. -  270.0 см 
PL_2               .GSM3                                   : 18 Плотность, г./см3 -  270.0 см 
RCOR               .CM/KM                                  : 5 Коррекция по ролику, см/км -    0.0 см 
RES                .SM                                     : 17 Проводимость,  -  222.0 см 
SPID               .M/H                                    : 2 Скорость, м/час -    0.0 см 
STD                .                                       : 12 Приток,  -  170.0 см 
TIME               .S                                      : 4 Время, сек -    0.0 см 
TM                 .GRD                                    : 14 Температура, °C -  180.0 см 
TM$                .UE                                     : 6 Температура, усл.ед. -  180.0 см 
VGD                .                                       : 8 Влагомер,  -  170.0 см 
~Ascii
# ...
2713.199902 1228       10.33      430        76         0          376.993    17346      14         0          0          4.3258     580        10734      16261.43   54.859     13562      6700      
2713.399901 1227       9.68       366        259        0          377.061    17349      14         0          0          4.3234     568        10734      16262.77   54.856     13561      6698      
2713.599901 1229       9.06       366        398        0          377.002    17347      14         0          0          4.333      510        10738      16264.04   54.852     13560      6696      
2713.799901 1231       8.66       357        606        0          376.267    17317      14         0          0          4.3409     533        10738      16265.37   54.848     13559      6695      
2713.9999  1231       8.44       357        730        0          375.392    17281      14         0          0          4.3425     580        10739      16266.66   54.84      13557      6701      
2714.1999  1229       8.27       351        1763       0          374.736    17254      14         0          0          4.333      560        10739      16267.95   54.838     13556      6697      
2714.3999  1230       8.16       351        1081       0          374.793    17256      14         0          0          4.3384     510        10740      16269.26   54.832     13555      6701      
2714.599899 1230       7.91       325        322        0          374.309    17236      14         0          0          4.3377     524        10740      16270.56   54.824     13553      6699      
2714.799899 1230       7.69       325        352        0          374.462    17243      14         0          0          4.3377     545        10740      16271.89   54.811     13550      6702      
2714.999899 1230       7.69       337        223        0          373.476    17203      14         0          0          4.3377     580        10738      16273.18   54.79      13544      6703      
2715.199899 1230       7.71       337        239        0          373.592    17207      14         0          0          4.337      580        10737      16274.49   54.776     13541      6701      
2715.399898 1230       8.04       366        135        0          374.571    17248      14         0          0          4.3369     510        10734      16275.87   54.768     13539      6701      
2715.599898 1230       8.27       377        80         0          375.979    17305      14         0          0          4.3377     510        10733      16277.16   54.768     13539      6697      
2715.799898 1230       8.77       405        50         0          375.864    17301      14         0          0          4.3377     580        10731      16278.45   54.768     13539      6692      
2715.999897 1230       8.9        372        85         0          377.772    17379      14         0          0          4.3377     580        10730      16279.79   54.765     13538      6691      
2716.199897 1230       8.66       366        46         0          376.694    17335      14         0          0          4.3377     580        10729      16281.09   54.759     13537      6698      
2716.399897 1230       8.39       335        57         0          377.257    17358      14         0          0          4.3357     580        10728      16282.39   54.747     13534      6696      
2716.599896 1230       7.71       304        91         0          377.157    17354      14         0          0          4.3377     580        10726      16283.73   54.737     13531      6697      
2716.799896 1229       7.59       359        116        0          377.786    17380      14         0          0          4.333      570        10727      16284.98   54.735     13531      6697      
2716.999896 1229       8.02       368        78         0          376.064    17309      14         0          0          4.333      580        10726      16286.25   54.731     13530      6701      
2717.199896 1229       8.62       431        83         0          375.71     17295      14         0          0          4.333      545        10720      16287.55   54.727     13529      6700      
2717.399895 1227       9.24       431        67         0          375.148    17272      14         0          0          4.325      580        10715      16288.82   54.716     13526      6701      
2717.599895 1228       10.04      497        63         0          375.418    17283      14         0          0          4.3282     510        10710      16290.16   54.7       13522      6702      
2717.799895 1227       10.72      497        52         0          374.615    17250      14         0          0          4.3234     568        10712      16291.42   54.685     13519      6703      
2717.999894 1226       11.13      505        35         0          376.199    17315      14         0          0          4.321      580        10711      16292.69   54.673     13516      6703      
2718.199894 1227       11.35      505        56         0          374.105    17229      14         0          0          4.3226     580        10711      16294.05   54.657     13512      6702      
2718.399894 1226       11.4       494        64         0          375.432    17284      14         0          0          4.3187     510        10710      16295.32   54.638     13507      6701      
2718.599893 1225       11.37      494        157        0          375.527    17288      14         0          0          4.3155     580        10709      16296.65   54.63      13505      6702      
2718.799893 1224       11.88      557        329        0          375.883    17302      14         0          0          4.3073     510        10706      16297.92   54.63      13505      6701      
2718.999893 1224       12.33      557        703        0          377.156    17355      14         0          0          4.3099     510        10705      16299.22   54.63      13505      6702      
2719.199893 1224       11.66      465        591        0          378.254    17400      14         0          0          4.3092     580        10703      16300.52   54.623     13503      6702      
2719.399892 1224       11.17      465        365        0          378.122    17395      14         0          0          4.3099     580        10697      16301.81   54.594     13496      6701      
2719.599892 1224       9.75       358        828        0          377.637    17375      14         0          0          4.3075     534        10687      16303.15   54.564     13488      6698      
2719.799892 1220       9.01       358        556        0          377.625    17375      14         0          0          4.2885     545        10680      16304.42   54.54      13483      6698      
2719.999891 1206       8.33       329        464        0          377.169    17356      14         0          0          4.2219     580        10676      16305.68   54.527     13479      6700      
2720.199891 1184       7.96       329        592        1          377.136    17355      14         0          0          4.1188     580        10669      16307.62   54.502     13473      6692      
2720.399891 1213       7.36       293        753        0          376.536    17330      14         0          0          4.2568     580        10664      16308.9    54.478     13467      6697      
2720.599891 1214       7.07       297        464        0          376.19     17317      14         0          0          4.2623     580        10654      16310.24   54.432     13456      6703      
2720.79989 1210       7.05       306        166        0          375.102    17274      14         0          0          4.2425     520        10637      16311.5    54.288     13420      6701      
2720.99989 1210       7.08       316        133        0          374.796    17262      14         0          0          4.2425     557        10606      16312.78   54.103     13374      6702      
2721.19989 1209       7.25       320        168        0          375.424    17289      14         0          0          4.2378     580        10573      16314.12   53.955     13338      6703      
