~Version
 VERS              .         2.0                           : CWLS LOG ASCII STANDARD - VERSION 2.0
 WRAP              .         NO                            : ONE LINE PER DEPTH STEP
 DLM               .         SPACE                         : DELIMITING CHARACTER(SPACE TAB OR COMMA)
~Well Information
#_______________________________________________________________________________
#
#PARAMETER_NAME    .UNIT     VALUE                         : DESCRIPTION
#_______________________________________________________________________________
STRT               .M        2648.2                        : First reference value
STOP               .M        2755.2                        : Last reference value
STEP               .M        0.2                           : Step increment
NULL               .         -9999                         : Missing value
COMP               .                                       : Company
WELL               .         616                           : Well name
FLD                .                                       : Field
LOC                .                                       : Location
CNTY               .                                       : County
STAT               .                                       : State
CTRY               .                                       : Country
SRVC               .                                       : Service Company
DATE               .                                       : Date
API                .                                       : API number
PROJECT_UPGRADE_TIME .         2021-03-18T21_24_50           : 
group              .         Good                          : 
~Parameter Information Block
#_______________________________________________________________________________
#
#PARAMETER_NAME    .UNIT     VALUE                         : DESCRIPTION
#_______________________________________________________________________________
SET                .         D7022_D                       : 
OTHER              .         Kedr.exe версия 2.1.2.32      : 
OTHER_10           .         TM.GRD = 0.00404*TM$.UE + 0.07: 
OTHER_11           .         MN.ATM = (6.33279e-006*TM.GRD + 0.02401)*(MN$.UE + 2.72*TM.GRD + -2018): 
OTHER_12           .         GK.MKR/H = GK$.UE / 43.5489 + 0: 
OTHER_13           .         RES.SM = 0.00476*CRES.UE - 1.51709: 
OTHER_14           .         PL.GSM3 = 0 + 0 * (PL.UE / 1) +  0 * (PL.UE / 1)^2: 
OTHER_15           .         Постоянная времени ГГП = 6 сек: 
OTHER_16           .         Постоянная времени ГК = 6 сек : 
OTHER_2            .         KedrData.dll версия 3.2.2.14  : 
OTHER_3            .         LasInf.dll версия 3.2.0.13    : 
OTHER_4            .         Драйвер версия 1.2.0.5        : 
OTHER_5            .         Прибор_ КСА-M1                : 
OTHER_6            .         Номер прибора_ 155+р204       : 
OTHER_7            .         Режим_ КСА-М1 + ГГП + Резистивиметр: 
OTHER_8            .         Форма_ 223\2                  : 
OTHER_9            .         Тарировки_                    : 
PROJECT_UPGRADE_TIME .         2021-03-18T21_24_50           : 
TLFamily_CRES      .                                       : 
TLFamily_DEPT      .         Measured Depth                : 
TLFamily_GK        .         Gamma Ray                     : 
TLFamily_GK$       .                                       : 
TLFamily_LM        .         Casing Collar locator         : 
TLFamily_METKA     .                                       : 
TLFamily_MN        .                                       : 
TLFamily_MN$       .                                       : 
TLFamily_PL        .                                       : 
TLFamily_PL_2      .                                       : 
TLFamily_RCOR      .                                       : 
TLFamily_RES       .         Mud Resistivity               : 
TLFamily_SPID      .         Spontaneous Potential         : 
TLFamily_STD       .                                       : 
TLFamily_TIME      .         Time                          : 
TLFamily_TM        .         Temperature                   : 
TLFamily_TM$       .         Temperature                   : 
TLFamily_VGD       .         Gas Volume                    : 
group              .         prim                          : 
~Curve Information
#_______________________________________________________________________________
#
#LOGNAME           .UNIT     LOG_ID                        : DESCRIPTION
#_______________________________________________________________________________
DEPT               .M                                      : 1 Глубина, м -    0.0 см 
CRES               .UE                                     : 9 Проводимость, усл.ед. -  222.0 см 
GK                 .MKR/H                                  : 16 Гамма-активность, мкр./ч -  106.0 см 
GK$                .UE                                     : 13 Гамма-активность, усл.ед. -  106.0 см 
LM                 .                                       : 11 Локатор муфт,  -   16.0 см 
METKA              .                                       : 3 Метки,  -    0.0 см 
MN                 .ATM                                    : 15 Давление, атм. -  160.0 см 
MN$                .UE                                     : 7 Давление, усл.ед. -  160.0 см 
PL                 .UE                                     : 10 Плотность, усл.ед. -  270.0 см 
PL_2               .GSM3                                   : 18 Плотность, г./см3 -  270.0 см 
RCOR               .CM/KM                                  : 5 Коррекция по ролику, см/км -    0.0 см 
RES                .SM                                     : 17 Проводимость,  -  222.0 см 
SPID               .M/H                                    : 2 Скорость, м/час -    0.0 см 
STD                .                                       : 12 Приток,  -  170.0 см 
TIME               .S                                      : 4 Время, сек -    0.0 см 
TM                 .GRD                                    : 14 Температура, °C -  180.0 см 
TM$                .UE                                     : 6 Температура, усл.ед. -  180.0 см 
VGD                .                                       : 8 Влагомер,  -  170.0 см 
~Ascii
# ...
2722       1140       7.36       338        148        0          348.455    16217      14         0          0          3.9077     580        9488       14327.55   48.435     11971      6677      
2722.2     1139       7.82       363        152        0          348.67     16227      13         0          0          3.9022     580        9457       14328.81   48.283     11934      6684      
2722.4     1137       8.07       363        120        0          349.065    16244      14         0          0          3.8958     580        9426       14330.08   48.134     11897      6683      
2722.6     1138       8.17       360        159        0          348.192    16209      14         0          0          3.8998     545        9396       14331.42   48.019     11868      6674      
2722.8     1138       8.22       360        213        0          347.999    16202      14         0          0          3.8998     568        9370       14332.73   47.875     11833      6686      
2723       1137       8.53       388        221        0          347.921    16199      13         0          0          3.895      510        9345       14334      47.766     11806      6683      
2723.2     1137       8.71       388        135        0          347.901    16199      14         0          0          3.895      560        9330       14335.32   47.702     11790      6678      
2723.4     1138       8.61       370        119        0          347.505    16183      14         0          0          3.8998     580        9315       14336.61   47.623     11770      6686      
2723.6     1138       8.5        357        141        0          346.738    16151      13         0          0          3.8998     580        9302       14337.87   47.578     11759      6685      
2723.8     1138       8.21       345        383        0          346.501    16142      14         0          0          3.8998     510        9293       14339.19   47.507     11742      6681      
2724       1138       8.17       368        264        0          347.003    16163      14         0          0          3.8998     568        9281       14340.46   47.447     11727      6693      
2724.2     1139       8.31       368        106        0          347.789    16196      14         0          0          3.9045     580        9273       14341.79   47.407     11717      6695      
2724.4     1140       8.39       371        288        0          349.428    16263      14         0          0          3.9077     560        9265       14343.06   47.36      11705      6688      
2724.6     1140       8.5        375        162        0          347.751    16194      14         0          0          3.91       510        9261       14344.36   47.335     11699      6701      
2724.8     1140       8.55       374        110        0          349.52     16267      14         0          0          3.9085     580        9259       14345.62   47.342     11701      6700      
2725       1139       8.57       374        112        0          348.812    16238      14         0          0          3.9069     545        9253       14346.94   47.326     11697      6702      
2725.2     1140       8.57       372        158        0          348.956    16244      14         0          0          3.9109     580        9247       14348.25   47.273     11684      6697      
2725.4     1142       8.55       372        4003       0          350.926    16326      14         0          0          3.9188     580        9240       14349.52   47.25      11678      6698      
2725.6     1143       8.04       307        5487       0          350.011    16288      14         0          0          3.9236     530        9233       14350.84   47.221     11671      6694      
2725.8     1143       7.55       307        1344       0          349.993    16287      14         0          0          3.9229     510        9231       14352.11   47.205     11667      6689      
2726       1143       7.23       295        386        0          349.626    16272      14         0          0          3.9236     580        9229       14353.43   47.201     11666      6693      
2726.2     1145       7.01       295        138        0          350.001    16288      14         0          0          3.9323     580        9224       14354.71   47.184     11662      6693      
2726.4     1146       7.24       340        101        0          349.689    16275      14         0          0          3.9371     580        9224       14355.99   47.176     11660      6696      
2726.6     1146       7.52       340        107        0          349.038    16248      14         0          0          3.9358     580        9226       14357.3    47.172     11659      6687      
2726.8     1146       7.76       351        119        0          348.287    16217      14         0          0          3.9379     568        9225       14358.63   47.164     11657      6681      
2727       1147       7.91       351        104        0          348.111    16210      14         0          0          3.9426     580        9227       14359.9    47.167     11658      6688      
2727.2     1148       8.04       358        84         0          348.515    16227      13         0          0          3.9466     522        9226       14361.17   47.164     11657      6683      
2727.4     1149       8.13       358        96         0          349.558    16269      14         0          0          3.9502     545        9228       14362.48   47.166     11657      6693      
2727.6     1150       8.51       394        111        0          348.167    16212      13         0          0          3.9553     580        9231       14363.77   47.199     11666      6680      
2727.8     1150       8.78       394        150        0          347.325    16177      13         0          0          3.9569     520        9234       14365.03   47.224     11672      6683      
2728       1150       9.2        421        111        0          348.818    16238      14         0          0          3.9585     568        9239       14366.35   47.253     11679      6687      
2728.2     1153       9.42       420        116        0          349.518    16267      14         0          0          3.9731     580        9249       14367.64   47.305     11692      6677      
2728.4     1154       9.46       414        135        0          351.67     16355      13         0          0          3.976      533        9256       14368.94   47.36      11706      6680      
2728.6     1155       9.48       414        131        0          351.549    16350      14         0          0          3.9807     580        9263       14370.27   47.393     11714      6681      
2728.8     1154       9.54       418        112        0          352.425    16386      14         0          0          3.9768     580        9269       14371.54   47.423     11721      6694      
2729       1155       9.62       431        105        0          351.152    16333      14         0          0          3.9807     510        9275       14372.89   47.428     11722      6680      
2729.2     1156       10.48      494        99         0          351.388    16343      15         0          0          3.9839     580        9279       14374.19   47.437     11725      6678      
2729.4     1157       11.08      537        130        0          351.534    16349      14         0          0          3.9902     580        9282       14375.46   47.443     11726      6674      
2729.6     1158       11.95      558        117        0          351.434    16345      14         0          0          3.995      534        9285       14376.8    47.447     11727      6673      
2729.8     1158       12.52      590        114        0          350.644    16312      14         0          0          3.997      580        9290       14378.07   47.452     11728      6677      
2730       1159       13.05      590        90         0          350.461    16305      14         0          0          3.9977     510        9293       14379.38   47.463     11731      6677      
