~Version
 VERS              .         2.0                           : CWLS LOG ASCII STANDARD - VERSION 2.0
 WRAP              .         NO                            : ONE LINE PER DEPTH STEP
 DLM               .         SPACE                         : DELIMITING CHARACTER(SPACE TAB OR COMMA)
~Well Information
#_______________________________________________________________________________
#
#PARAMETER_NAME    .UNIT     VALUE                         : DESCRIPTION
#_______________________________________________________________________________
STRT               .M        2658                          : First reference value
STOP               .M        2762                          : Last reference value
STEP               .M        0.2                           : Step increment
NULL               .         -9999                         : Missing value
COMP               .                                       : Company
WELL               .         616                           : Well name
FLD                .                                       : Field
LOC                .                                       : Location
CNTY               .                                       : County
STAT               .                                       : State
CTRY               .                                       : Country
SRVC               .                                       : Service Company
DATE               .                                       : Date
API                .                                       : API number
PROJECT_UPGRADE_TIME .         2021-03-18T21_24_50           : 
group              .         Good                          : 
~Parameter Information Block
#_______________________________________________________________________________
#
#PARAMETER_NAME    .UNIT     VALUE                         : DESCRIPTION
#_______________________________________________________________________________
SET                .         D8103_D                       : 
OTHER              .         Программное обеспечение станции MONITOR-386EX 25/12/99 15_08_10   BGF V52 22/08/01 16_56_30   4_SNGF_BGF_N_011645: 
OTHER_10           .         Тарировки_                    : 
OTHER_11           .         TM.GRD = 0.00412*TM$.UE + -2.13: 
OTHER_12           .         MN.ATM = (5.87652e-006*TM.GRD + 0.01993)*(MN$.UE + -2.72*TM.GRD + -1925): 
OTHER_13           .         GK.MKR/H = GK$.UE / 57.4657   : 
OTHER_2            .         Kedr.exe версия 3.4.2.51      : 
OTHER_3            .         KedrData.dll версия 3.4.2.24  : 
OTHER_4            .         Драйвер версия 2.1.0.2        : 
OTHER_5            .         Мнемоники версия 3.3 S        : 
OTHER_6            .         Прибор_ АКП4-90               : 
OTHER_7            .         Номер прибора_ 53             : 
OTHER_8            .         Режим_ АКП4_90                : 
OTHER_9            .         Форма_ ПК-53ое                : 
PROJECT_UPGRADE_TIME .         2021-03-18T21_24_50           : 
TLFamily_DEPT      .         Measured Depth                : 
TLFamily_GK        .         Gamma Ray                     : 
TLFamily_GK$       .                                       : 
TLFamily_LM        .         Casing Collar locator         : 
TLFamily_METKA     .                                       : 
TLFamily_METKA_1   .                                       : 
TLFamily_MN        .                                       : 
TLFamily_MN$       .                                       : 
TLFamily_RCOR      .                                       : 
TLFamily_SPID      .         Spontaneous Potential         : 
TLFamily_TENS      .         Cable Tension                 : 
TLFamily_TIME      .         Time                          : 
TLFamily_TM        .         Temperature                   : 
TLFamily_TM$       .         Temperature                   : 
group              .         prim                          : 
~Curve Information
#_______________________________________________________________________________
#
#LOGNAME           .UNIT     LOG_ID                        : DESCRIPTION
#_______________________________________________________________________________
DEPT               .M                                      : 1 Глубина, м -    0.0 см 
GK                 .MKR/H                                  : 13 Гамма-активность, мкр./ч -   65.0 см 
GK$                .UE                                     : 10 Гамма-активность, усл.ед. -   65.0 см 
LM                 .                                       : 9 Локатор муфт,  -   30.0 см 
METKA              .                                       : 3 Метки,  -    0.0 см 
METKA_1            .                                       : 14 Маркеры - 65 см 
MN                 .ATM                                    : 12 Давление, атм. -  140.0 см 
MN$                .UE                                     : 8 Давление, усл.ед. -  140.0 см 
RCOR               .CM/KM                                  : 5 Коррекция по ролику, см/км -    0.0 см 
SPID               .M/H                                    : 2 Скорость, м/час -    0.0 см 
TENS               .T                                      : 6 Натяжение кабеля, т -    0.0 см 
TIME               .S                                      : 4 Время, сек -    0.0 см 
TM                 .GRD                                    : 11 Температура, °C -  145.0 см 
TM$                .UE                                     : 7 Температура, усл.ед. -  145.0 см 
~Ascii
# ...
2678.8     5.64       324        87         0          0          245.099    14223      -29        -342       0.8        3756.8     64.979     16288     
2679       5.74       330        208        0          0          245.154    14226      -29        -335       0.8        3754.66    64.972     16287     
2679.2     6.21       357        163        0          0          245.179    14227      -29        -332       0.8        3752.58    64.944     16280     
2679.4     6.92       398        155        0          0          245.179    14227      -29        -334       0.8        3750.41    64.927     16276     
2679.6     6.8        391        234        0          0          245.199    14228      -29        -333       0.8        3748.32    64.91      16272     
2679.8     6.21       357        287        0          0          245.239    14230      -29        -332       0.8        3746.22    64.879     16264     
2680       6.16       354        156        0          0          245.239    14230      -29        -336       0.8        3744.07    64.869     16262     
2680.2     6.27       360        249        0          0          245.278    14232      -29        -334       0.8        3741.9     64.857     16259     
2680.4     6.53       375        213        0          0          245.358    14236      -29        -336       0.82       3739.82    64.839     16254     
2680.6     6.86       394        153        2          0          245.308    14234      -26        -327       0.8        3737.46    64.82      16250     
2680.8     7.04       404        205        0          0          245.303    14233      -26        -339       0.8        3735.25    64.796     16244     
2681       6.53       375        193        0          0          245.358    14236      -26        -336       0.8        3733.11    64.766     16237     
2681.2     6.53       375        281        0          0          245.391    14238      -26        -338       0.8        3731.03    64.746     16232     
2681.4     7.08       407        465        0          0          245.378    14237      -26        -342       0.8        3728.86    64.738     16230     
2681.6     7.45       428        341        0          0          245.418    14239      -26        -343       0.8        3726.68    64.707     16223     
2681.8     7.13       409        284        0          0          245.438    14240      -26        -340       0.8        3724.67    64.672     16214     
2682       6.75       388        149        0          0          245.428    14240      -26        -337       0.8        3722.52    64.641     16206     
2682.2     6.57       377        335        0          0          245.451    14241      -26        -328       0.8        3720.38    64.622     16202     
2682.4     6.62       381        265        0          0          245.577    14247      -26        -330       0.8        3718.37    64.585     16193     
2682.6     6.19       356        159        0          0          245.547    14245      -26        -333       0.8        3716.09    64.553     16185     
2682.8     5.64       324        210        0          0          245.533    14245      -26        -343       0.8        3714.02    64.512     16175     
2683       5.36       308        537        0          0          245.577    14247      -26        -341       0.8        3711.93    64.474     16166     
2683.2     5.47       314        2409       0          0          245.624    14249      -26        -337       0.79       3709.79    64.449     16160     
2683.4     6.25       359        22113      0          0          245.657    14251      -26        -337       0.8        3707.62    64.434     16156     
2683.6     6.98       401        310        0          0          245.697    14253      -26        -337       0.8        3705.56    64.387     16145     
2683.8     6.92       398        183        0          0          245.677    14252      -26        -333       0.8        3703.43    64.361     16138     
2684       6.13       352        338        0          0          245.717    14254      -26        -335       0.8        3701.28    64.341     16134     
2684.2     6.2        356        271        0          0          245.757    14256      -26        -337       0.8        3699.2     64.309     16126     
2684.4     6.63       381        209        0          0          245.777    14257      -26        -337       0.8        3697.03    64.278     16119     
2684.6     6.71       385        296        0          0          245.777    14257      -26        -334       0.8        3694.95    64.269     16116     
2684.8     6.65       382        345        0          0          245.796    14258      -26        -336       0.8        3692.78    64.224     16105     
2685       6.29       362        207        0          0          245.85     14261      -26        -340       0.8        3690.7     64.184     16096     
2685.2     6.18       355        237        0          0          245.856    14261      -26        -337       0.81       3688.56    64.175     16094     
2685.4     6.77       389        325        0          0          245.876    14262      -26        -341       0.82       3686.41    64.12      16080     
2685.6     6.73       387        356        0          0          245.906    14264      -26        -340       0.8        3684.26    64.08      16070     
2685.8     6.74       388        326        0          0          245.901    14263      -26        -343       0.8        3682.19    64.068     16067     
2686       6.74       387        350        0          0          245.951    14266      -26        -339       0.8        3680.11    64.033     16059     
2686.2     6.68       384        325        0          0          245.966    14267      -26        -339       0.81       3677.96    63.984     16047     
2686.4     6.9        396        466        0          0          245.976    14267      -26        -336       0.8        3675.86    63.978     16046     
2686.6     7.85       451        253        0          0          245.956    14266      -26        -334       0.8        3673.81    63.954     16040     
2686.8     8.09       465        229        0          0          246.016    14269      -26        -327       0.8        3671.66    63.909     16029     
2687       7.74       445        294        0          0          246.036    14270      -26        -341       0.8        3669.53    63.883     16022     
2687.2     7.75       446        230        0          0          246.056    14271      -26        -337       0.8        3667.38    63.863     16018     
2687.4     8.12       466        233        0          0          246.096    14273      -26        -341       0.8        3665.27    63.812     16005     
2687.6     8.26       475        189        0          0          246.089    14273      -26        -340       0.8        3663.09    63.795     16001     
2687.8     8.2        471        304        0          0          246.111    14274      -26        -342       0.8        3661.02    63.762     15993     
2688       9.06       521        325        0          0          246.155    14276      -26        -343       0.8        3658.94    63.72      15983     
2688.2     8.38       482        192        0          0          246.162    14276      -26        -337       0.82       3656.79    63.683     15974     
2688.4     7.73       444        228        0          0          246.175    14277      -26        -333       0.81       3654.66    63.655     15967     
2688.6     6.2        356        284        0          0          246.229    14280      -26        -343       0.8        3652.51    63.595     15953     
2688.8     5.3        305        261        0          0          246.24     14280      -26        -340       0.82       3650.37    63.55      15942     
2689       5          287        368        0          0          246.255    14281      -26        -343       0.82       3648.23    63.559     15944     
