~Version
 VERS              .         2.0                           : CWLS LOG ASCII STANDARD - VERSION 2.0
 WRAP              .         NO                            : ONE LINE PER DEPTH STEP
 DLM               .         SPACE                         : DELIMITING CHARACTER(SPACE TAB OR COMMA)
~Well Information
#_______________________________________________________________________________
#
#PARAMETER_NAME    .UNIT     VALUE                         : DESCRIPTION
#_______________________________________________________________________________
STRT               .M        21.55                         : First reference value
STOP               .M        2764.75                       : Last reference value
STEP               .M        0.2                           : Step increment
NULL               .         -9999                         : Missing value
COMP               .                                       : Company
WELL               .         616                           : Well name
FLD                .                                       : Field
LOC                .                                       : Location
CNTY               .                                       : County
STAT               .                                       : State
CTRY               .                                       : Country
SRVC               .                                       : Service Company
DATE               .                                       : Date
API                .                                       : API number
PROJECT_UPGRADE_TIME .         2021-03-18T21_24_50           : 
group              .         Good                          : 
~Parameter Information Block
#_______________________________________________________________________________
#
#PARAMETER_NAME    .UNIT     VALUE                         : DESCRIPTION
#_______________________________________________________________________________
SET                .         D7028_D_2                     : 
NPR                .         155                           : Номер прибора
OTHER              .         Kedr.exe версия 2.1.2.32      : 
OTHER_10           .         TM.GRD = 0.00404*TM$.UE + 0.07: 
OTHER_11           .         MN.ATM = (6.33279e-006*TM.GRD + 0.02401)*(MN$.UE + 2.72*TM.GRD + -2018): 
OTHER_12           .         GK.MKR/H = GK$.UE / 43.5489 + 0: 
OTHER_13           .         RES.SM = 0.00476*CRES.UE - 1.51709: 
OTHER_14           .         PL.GSM3 = 0 + 0 * (PL.UE / 1) +  0 * (PL.UE / 1)^2: 
OTHER_15           .         Постоянная времени ГГП = 6 сек: 
OTHER_16           .         Постоянная времени ГК = 6 сек : 
OTHER_2            .         KedrData.dll версия 3.2.2.14  : 
OTHER_3            .         LasInf.dll версия 3.2.0.13    : 
OTHER_4            .         Драйвер версия 1.2.0.5        : 
OTHER_5            .         Прибор_ КСА-M1                : 
OTHER_6            .         Номер прибора_ 155+р204       : 
OTHER_7            .         Режим_ КСА-М1 + ГГП + Резистивиметр: 
OTHER_8            .         Форма_ 223\2                  : 
OTHER_9            .         Тарировки_                    : 
PR                 .         КСА-Т7 М1                     : Тип прибора
PROJECT_UPGRADE_TIME .         2021-03-18T21_24_50           : 
PRTY               .         ПП-223_2                      : Номер партии
SRV                .         ЦКРС                          : Заказчик
SRVC               .         Лузин  А.Б.                   : Начальник партии
TLFamily_DEPT      .         Measured Depth                : 
TLFamily_LM        .         Casing Collar locator         : 
TLFamily_MN        .                                       : 
TLFamily_SPID      .         Spontaneous Potential         : 
TLFamily_TM        .         Temperature                   : 
group              .         second                        : 
~Curve Information
#_______________________________________________________________________________
#
#LOGNAME           .UNIT     LOG_ID                        : DESCRIPTION
#_______________________________________________________________________________
DEPT               .M                                      : Depth curve 
LM                 .е.ацп                                  : Локация муфт 
MN                 .атм                                    : Манометрия, атм 
SPID               .м/ч                                    : Скорость записи,м/час 
TM                 .град.С                                 : Термометрия,град.С 
~Ascii
# ...
371.95     1954.002   34.22      -1785.002  18.43     
372.15     2024.996   34.23      -1859.999  18.44     
372.35     1847.996   34.25      -1818      18.44     
372.55     1675.005   34.27      -1834.001  18.45     
372.75     1920.998   34.28      -1860      18.45     
372.95     1816.999   34.31      -1859.999  18.46     
373.15     1751.003   34.32      -1805      18.47     
373.35     1904.995   34.35      -1790      18.48     
373.55     1704.005   34.37      -1790.002  18.49     
373.75     1928.01    34.39      -1860      18.49     
373.95     2364.983   34.4       -1860      18.5      
374.15     1596.999   34.41      -1860      18.5      
374.35     1562.996   34.43      -1860      18.51     
374.55     1376.006   34.46      -1841.999  18.52     
374.75     1660.995   34.48      -1809.001  18.53     
374.95     1441.999   34.49      -1860      18.54     
375.15     1380       34.51      -1860      18.54     
375.35     1371.011   34.52      -1860      18.55     
375.55     1865.996   34.54      -1859.999  18.56     
375.75     1702.003   34.57      -1818      18.57     
375.95     1838.994   34.59      -1832.001  18.58     
376.15     1573.004   34.61      -1860      18.58     
376.35     1742.007   34.62      -1860      18.59     
376.55     2051.01    34.64      -1860      18.6      
376.75     2490.973   34.65      -1859.999  18.61     
376.95     1299.005   34.67      -1800.998  18.61     
377.15     1510.008   34.7       -1733      18.62     
377.35     1860.993   34.71      -1730.002  18.62     
377.55     1570.999   34.73      -1797.001  18.63     
377.75     1543.997   34.75      -1860      18.64     
377.95     1419.006   34.76      -1840.999  18.65     
378.15     1661.007   34.78      -1790.001  18.65     
378.35     1959       34.81      -1818      18.66     
378.55     1969.012   34.83      -1826.999  18.67     
378.75     2481.025   34.84      -1790      18.67     
378.95     3593.043   34.86      -1790      18.68     
379.15     5490.923   34.89      -1790      18.69     
379.35     2107.993   34.92      -1790.001  18.7      
379.55     1784.003   34.94      -1848      18.7      
379.75     1901.001   34.95      -1860      18.71     
379.95     1955       34.97      -1859.998  18.72     
380.15     1935.001   34.99      -1790.002  18.72     
380.35     1981.998   35         -1860      18.72     
380.55     1906.001   35.02      -1848.999  18.73     
380.75     1955.003   35.04      -1790      18.74     
380.95     2081.993   35.05      -1790      18.75     
381.15     1790.007   35.08      -1790.001  18.76     
381.35     2083.985   35.09      -1839      18.76     
381.55     1423.003   35.11      -1860      18.77     
381.75     1561.998   35.13      -1860      18.78     
381.95     1485.998   35.25      -1860      18.78     
382.15     1388.004   35.16      -1855.999  18.79     
382.35     1579.997   35.19      -1797.001  18.79     
382.55     1466.006   35.21      -1860      18.8      
382.75     1717.001   35.23      -1843.999  18.8      
382.95     1747.994   35.25      -1812.001  18.81     
383.15     1496.002   35.28      -1859.999  18.81     
383.35     1579.002   35.28      -1831      18.82     
383.55     1649.005   35.31      -1823.001  18.83     
383.75     1850.01    35.33      -1859.999  18.83     
383.95     2276.986   35.36      -1818      18.84     
384.15     1682.002   35.36      -1837.001  18.84     
384.35     1767.005   35.38      -1860      18.85     
384.55     1971.997   35.39      -1859.999  18.86     
384.75     1853.991   35.42      -1798      18.86     
384.95     1450.998   35.44      -1790.002  18.87     
385.15     1356.001   35.46      -1856      18.87     
385.35     1387.003   35.47      -1860      18.88     
385.55     1526.998   35.49      -1855.999  18.89     
385.75     1440.005   35.5       -1797.001  18.89     
385.95     1651.998   35.52      -1860      18.9      
386.15     1573       35.55      -1843.999  18.91     
386.35     1579.997   35.58      -1790      18.91     
386.55     1454.997   35.58      -1790      18.92     
386.75     1317.995   35.6       -1790.001  18.92     
386.95     1096.009   35.63      -1827.001  18.93     
387.15     1460.998   35.63      -1859.999  18.93     
387.35     1393.004   35.66      -1811.001  18.93     
387.55     1582.004   35.68      -1842      18.94     
387.75     1743.003   35.7       -1859.999  18.94     
387.95     1888.999   35.71      -1801      18.95     
388.15     1860.003   35.74      -1790      18.95     
388.35     2005.995   35.75      -1790      18.96     
388.55     1790.999   35.76      -1790      18.97     
388.75     1761.995   35.79      -1801.001  18.97     
388.95     1536.001   35.82      -1830.998  18.98     
389.15     1576.003   35.83      -1730.001  18.98     
389.35     1715.005   35.84      -1778.002  18.99     
389.55     1942.003   35.87      -1860      18.99     
389.75     2062.02    35.87      -1860      19        
389.95     2923.031   35.9       -1859.999  19.01     
390.15     4225.055   35.93      -1816.999  19.01     
390.35     6571.899   35.95      -1790.002  19.01     
390.55     2297.997   35.95      -1878.999  19.02     
390.75     2162.979   35.98      -1818.999  19.03     
390.95     1260       36         -1790.001  19.03     
391.15     1268.993   36.01      -1846      19.04     
391.35     968.009    36.04      -1860      19.05     
391.55     1355.006   36.05      -1859.999  19.05     
391.75     1626.009   36.06      -1832.999  19.06     
391.95     2024.998   36.09      -1790.001  19.07     
392.15     1953.992   36.11      -1827.001  19.07     
392.35     1628.001   36.14      -1860      19.08     
392.55     1666.004   36.15      -1859.999  19.08     
392.75     1816.007   36.17      -1811.001  19.09     
392.95     2102.003   36.2       -1840      19.09     
393.15     2226.991   36.2       -1859.999  19.1      
393.35     1836.014   36.23      -1800      19.1      
393.55     2428.981   36.26      -1790      19.1      
393.75     1644.993   36.27      -1790.002  19.11     
393.95     1359.011   36.28      -1860      19.11     
394.15     1815.993   36.31      -1860      19.12     
394.35     1534.006   36.32      -1844.999  19.12     
394.55     1777.005   36.34      -1790      19.13     
394.75     1982.991   36.36      -1790.001  19.13     
394.95     1593.999   36.39      -1815      19.14     
395.15     1543.004   36.39      -1830.999  19.15     
395.35     1701.999   36.42      -1790.001  19.15     
395.55     1675.994   36.42      -1833      19.16     
395.75     1412.001   36.45      -1814.999  19.17     
395.95     1456.01    36.47      -1790.001  19.18     
396.15     1858.002   36.5       -1843.999  19.18     
396.35     1957.991   36.52      -1801      19.19     
396.55     1601.001   36.53      -1790.002  19.19     
396.75     1663.002   36.55      -1856      19.2      
396.95     1728.996   36.57      -1860      19.21     
397.15     1570.004   36.58      -1855.999  19.22     
397.35     1730.994   36.61      -1794.002  19.22     
397.55     1486.999   36.63      -1860      19.23     
397.75     1457.997   36.64      -1860      19.23     
397.95     1348.997   36.66      -1860      19.24     
398.15     1237.004   36.69      -1859.999  19.24     
398.35     1401.01    36.71      -1831.999  19.25     
398.55     1812.004   36.71      -1790.001  19.26     
398.75     1972.003   36.74      -1825.001  19.26     
398.95     2099.994   36.76      -1860      19.26     
399.15     1857.989   36.77      -1860      19.27     
399.35     1415.001   36.79      -1860      19.28     
399.55     1469.002   36.81      -1860      19.28     
399.75     1571.002   36.82      -1860      19.29     
399.95     1655.001   36.85      -1860      19.29     
400.15     1703.99    36.87      -1860      19.3      
400.35     1301.011   36.89      -1859.998  19.3      
400.55     1762.007   36.9       -1794      19.31     
400.75     2052.003   36.91      -1790      19.32     
400.95     2195.022   36.93      -1790      19.32     
