~Version
 VERS              .         2.0                           : CWLS LOG ASCII STANDARD - VERSION 2.0
 WRAP              .         NO                            : ONE LINE PER DEPTH STEP
 DLM               .         SPACE                         : DELIMITING CHARACTER(SPACE TAB OR COMMA)
~Well Information
#_______________________________________________________________________________
#
#PARAMETER_NAME    .UNIT     VALUE                         : DESCRIPTION
#_______________________________________________________________________________
STRT               .M        138.6                         : First reference value
STOP               .M        217                           : Last reference value
STEP               .M        0.2                           : Step increment
NULL               .         -9999                         : Missing value
COMP               .                                       : Company
WELL               .         616                           : Well name
FLD                .                                       : Field
LOC                .                                       : Location
CNTY               .                                       : County
STAT               .                                       : State
CTRY               .                                       : Country
SRVC               .                                       : Service Company
DATE               .                                       : Date
API                .                                       : API number
PROJECT_UPGRADE_TIME .         2021-03-18T21_24_50           : 
group              .         Good                          : 
~Parameter Information Block
#_______________________________________________________________________________
#
#PARAMETER_NAME    .UNIT     VALUE                         : DESCRIPTION
#_______________________________________________________________________________
SET                .         D1349_D                       : 
OTHER              .         Программное обеспечение станции MONITOR-386EX 25/12/99 15_08_10   BGF V52 22/08/01 16_56_30   3.1_SNGF__BGF_								111238: 
OTHER_10           .         Тарировки_                    : 
OTHER_11           .         <_techsia_sc_> Постоянная времени фильтра  0.5 сек, kf=0.181269: 
OTHER_12           .         TM.GRD = 0.00428968*TM$.UE + -0.3284: 
OTHER_13           .         GK.MKR/H = GK$.UE / 40.16     : 
OTHER_14           .         NKT. = NKT$.UE / 1            : 
OTHER_2            .         Kedr.exe версия 3.3.2.43      : 
OTHER_3            .         KedrData.dll версия 3.3.2.22  : 
OTHER_4            .         Драйвер версия 2.1.1.3        : 
OTHER_5            .         Мнемоники версия 3.3 S        : 
OTHER_6            .         Прибор_ РК4-38                : 
OTHER_7            .         Номер прибора_ 35с            : 
OTHER_8            .         Режим_ РК4-38                 : 
OTHER_9            .         Форма_ 3                      : 
PROJECT_UPGRADE_TIME .         2021-03-18T21_24_49           : 
TLFamily_DEPT      .         Measured Depth                : 
TLFamily_GK        .         Gamma Ray                     : 
TLFamily_GK$       .                                       : 
TLFamily_LM        .         Casing Collar locator         : 
TLFamily_METKA     .                                       : 
TLFamily_NKT       .         Neutron Far                   : 
TLFamily_NKT$      .         Neutron Far                   : 
TLFamily_RCOR      .                                       : 
TLFamily_SPID      .         Spontaneous Potential         : 
TLFamily_TENS      .         Cable Tension                 : 
TLFamily_TIME      .         Time                          : 
TLFamily_TM        .         Temperature                   : 
TLFamily_TM$       .         Temperature                   : 
group              .         prim                          : 
~Curve Information
#_______________________________________________________________________________
#
#LOGNAME           .UNIT     LOG_ID                        : DESCRIPTION
#_______________________________________________________________________________
DEPT               .M                                      : 1 Глубина, м -    0.0 см 
GK                 .MKR/H                                  : 12 Гамма-активность, мкр./ч -   23.0 см 
GK$                .UE                                     : 10 Гамма-активность, усл.ед. -   23.0 см 
LM                 .                                       : 8 Локатор муфт,  -  180.0 см 
METKA              .                                       : 3 Метки,  -    0.0 см 
NKT                .                                       : 13 НКТ, прив. -  160.0 см 
NKT$               .UE                                     : 9 НКТ, усл.ед. -  160.0 см 
RCOR               .CM/KM                                  : 5 Коррекция по ролику, см/км -    0.0 см 
SPID               .M/H                                    : 2 Скорость, м/час -    0.0 см 
TENS               .T                                      : 6 Натяжение кабеля, т -    0.0 см 
TIME               .S                                      : 4 Время, сек -    0.0 см 
TM                 .GRD                                    : 11 Температура, °C -  193.0 см 
TM$                .UE                                     : 7 Температура, усл.ед. -  193.0 см 
~Ascii
# ...
205.8      2.77       121        246        0          0          0          7013       -307       0          912.64     0.075      94        
206        2.58       108        248        0          0          0          7013       -312       0          910.15     0.075      94        
206.2      2.52       99         153        0          0          0          7013       -302       0          907.91     0.028      83        
206.4      2.78       97         141        0          0          0          7013       -301       0          905.56     0.058      90        
206.6      3.34       123        111        0          0          0          7013       -301       0          903.27     0.036      85        
206.8      3.77       152        107        0          0          0          7013       -316       0          900.87     0.015      80        
207        3.65       155        88         0          0          0          7013       -301       0          898.58     -0.002     76        
207.2      3.22       136        98         0          0          0          7013       -303       0          896.18     0.023      82        
207.4      2.79       115        154        0          0          0          7013       -296       0          893.84     0.046      87        
207.6      2.58       104        118        0          0          0          7013       -304       0          891.49     0          77        
207.8      2.56       102        115        0          0          0          7013       -306       0          889.2      0.019      81        
208        2.62       104        105        0          0          0          7013       -305       0          886.81     0.034      84        
208.2      2.74       106        152        0          0          0          7013       -314       0          884.41     0.002      77        
208.4      3.11       118        120        0          0          0          7013       -311       0          882.12     -0.011     74        
208.6      3.34       124        85         0          0          0          7013       -310       0          879.77     -0.028     70        
208.8      3.31       139        113        0          0          0          7013       -295       0          877.46     0.03       83        
209        3.01       134        120        0          0          0          7013       -300       0          875.14     0.039      86        
209.2      2.76       116        172        0          0          0          7013       -309       0          872.59     -0.024     71        
209.4      2.71       105        129        0          0          0          7013       -307       0          870.2      0.028      83        
209.6      2.83       111        130        0          0.001      0          7013       -301       0          867.96     -0.024     71        
209.8      2.75       121        133        0          0.007      0          7013       -302       0          865.56     -0.028     70        
210        2.37       99         64         2          0.032      0          7013       -311       0          863.15     0.025      82        
210.2      2.28       88         113        0          0.153      0          7013       -303       0          860.95     0.015      80        
210.4      2.55       94         111        0          0.721      0          7013       -299       0          859.21     0.015      80        
210.6      2.96       116        159        0          0.33       1          7013       -296       0          856.91     0.001      77        
210.8      3.2        128        160        0          0          0          7013       -307       0          854.42     0.019      81        
211        2.81       123        138        0          0          0          7013       -303       0          852.03     -0.018     72        
211.2      2.54       113        127        0          0          0          7013       -297       0          849.7      -0.058     63        
211.4      2.41       99         252        1          0          0          7013       -294       0          847.24     0.002      77        
211.6      2.36       97         2316       0          0          0          7013       -304       0          844.84     -0.012     74        
211.8      2.43       93         13866      0          0          0          7013       -303       0          842.52     -0.024     71        
212        2.56       99         1524       0          0          0          7013       -301       0          840.05     -0.035     68        
212.2      2.59       105        111        0          0          0          7013       -294       0          837.65     0.007      78        
212.4      2.64       102        106        0          0          0          7013       -299       0          835.11     -0.02      72        
212.6      2.76       109        111        0          0          0          7013       -293       0          832.77     0.028      83        
212.8      2.75       113        124        0          0          0          7013       -301       0          830.32     -0.009     74        
213        2.56       110        86         0          0          0          7013       -305       0          827.78     0.025      82        
213.2      2.36       95         112        0          0          0          7013       -297       0          825.49     -0.153     41        
213.4      2.43       92         81         0          0          0          7013       -328       0          822.89     -0.092     55        
213.6      2.73       102        123        0          0          0          7013       -347       0          820.52     -0.143     43        
213.8      2.98       118        94         0          0          0          7013       -358       0          818.51     -0.147     42        
214        3          123        89         0          0          0          7013       -361       0          816.4      -0.15      42        
214.2      2.87       115        57         0          0          0          7013       -357       0          814.41     -0.158     40        
214.4      2.89       117        83         0          0          0          7013       -352       0          812.52     -0.148     42        
214.6      2.77       118        102        0          0          0          7013       -328       0          810.62     -0.159     40        
214.8      2.66       109        115        0          0          0          7013       -275       0          808.77     -0.159     39        
215        2.56       105        109        0          0          0          7013       -160       0          807.01     -0.157     40        
215.2      2.42       98         114        0          0          0          7013       0          0          804.59     -0.167     38        
215.4      2.5        95         93         -9999      0          0          -9999      -9999      -9999      -9999      -0.163     39        
215.6      -9999      -9999      124        -9999      0          0          -9999      -9999      -9999      -9999      -0.165     38        
215.8      -9999      -9999      81         -9999      0          0          -9999      -9999      -9999      -9999      -0.173     36        
216        -9999      -9999      73         -9999      0          0          -9999      -9999      -9999      -9999      -0.173     36        
216.2      -9999      -9999      92         -9999      0          0          -9999      -9999      -9999      -9999      -0.17      37        
216.4      -9999      -9999      131        -9999      0          0          -9999      -9999      -9999      -9999      -0.173     36        
216.6      -9999      -9999      247        -9999      0          0          -9999      -9999      -9999      -9999      -0.181     34        
216.8      -9999      -9999      613        -9999      0          0          -9999      -9999      -9999      -9999      -0.185     33        
