~Version
 VERS              .         2.0                           : CWLS LOG ASCII STANDARD - VERSION 2.0
 WRAP              .         NO                            : ONE LINE PER DEPTH STEP
 DLM               .         SPACE                         : DELIMITING CHARACTER(SPACE TAB OR COMMA)
~Well Information
#_______________________________________________________________________________
#
#PARAMETER_NAME    .UNIT     VALUE                         : DESCRIPTION
#_______________________________________________________________________________
STRT               .M        2648.8                        : First reference value
STOP               .M        2754.8                        : Last reference value
STEP               .M        0.2                           : Step increment
NULL               .         -9999                         : Missing value
COMP               .                                       : Company
WELL               .         616                           : Well name
FLD                .                                       : Field
LOC                .                                       : Location
CNTY               .                                       : County
STAT               .                                       : State
CTRY               .                                       : Country
SRVC               .                                       : Service Company
DATE               .                                       : Date
API                .                                       : API number
PROJECT_UPGRADE_TIME .         2021-03-18T21_24_50           : 
group              .         Good                          : 
~Parameter Information Block
#_______________________________________________________________________________
#
#PARAMETER_NAME    .UNIT     VALUE                         : DESCRIPTION
#_______________________________________________________________________________
SET                .         D7019_D                       : 
OTHER              .         Kedr.exe версия 2.1.2.32      : 
OTHER_10           .         TM.GRD = 0.00404*TM$.UE + 0.07: 
OTHER_11           .         MN.ATM = (6.33279e-006*TM.GRD + 0.02401)*(MN$.UE + 2.72*TM.GRD + -2018): 
OTHER_12           .         GK.MKR/H = GK$.UE / 43.5489 + 0: 
OTHER_13           .         RES.SM = 0.00476*CRES.UE - 1.51709: 
OTHER_14           .         PL.GSM3 = 0 + 0 * (PL.UE / 1) +  0 * (PL.UE / 1)^2: 
OTHER_15           .         Постоянная времени ГГП = 6 сек: 
OTHER_16           .         Постоянная времени ГК = 6 сек : 
OTHER_2            .         KedrData.dll версия 3.2.2.14  : 
OTHER_3            .         LasInf.dll версия 3.2.0.13    : 
OTHER_4            .         Драйвер версия 1.2.0.5        : 
OTHER_5            .         Прибор_ КСА-M1                : 
OTHER_6            .         Номер прибора_ 155+р204       : 
OTHER_7            .         Режим_ КСА-М1 + ГГП + Резистивиметр: 
OTHER_8            .         Форма_ 223\2                  : 
OTHER_9            .         Тарировки_                    : 
PROJECT_UPGRADE_TIME .         2021-03-18T21_24_50           : 
TLFamily_CRES      .                                       : 
TLFamily_DEPT      .         Measured Depth                : 
TLFamily_GK        .         Gamma Ray                     : 
TLFamily_GK$       .                                       : 
TLFamily_LM        .         Casing Collar locator         : 
TLFamily_METKA     .                                       : 
TLFamily_MN        .                                       : 
TLFamily_MN$       .                                       : 
TLFamily_PL        .                                       : 
TLFamily_PL_2      .                                       : 
TLFamily_RCOR      .                                       : 
TLFamily_RES       .         Mud Resistivity               : 
TLFamily_SPID      .         Spontaneous Potential         : 
TLFamily_STD       .                                       : 
TLFamily_TIME      .         Time                          : 
TLFamily_TM        .         Temperature                   : 
TLFamily_TM$       .         Temperature                   : 
TLFamily_VGD       .         Gas Volume                    : 
group              .         prim                          : 
~Curve Information
#_______________________________________________________________________________
#
#LOGNAME           .UNIT     LOG_ID                        : DESCRIPTION
#_______________________________________________________________________________
DEPT               .M                                      : 1 Глубина, м -    0.0 см 
CRES               .UE                                     : 9 Проводимость, усл.ед. -  222.0 см 
GK                 .MKR/H                                  : 16 Гамма-активность, мкр./ч -  106.0 см 
GK$                .UE                                     : 13 Гамма-активность, усл.ед. -  106.0 см 
LM                 .                                       : 11 Локатор муфт,  -   16.0 см 
METKA              .                                       : 3 Метки,  -    0.0 см 
MN                 .ATM                                    : 15 Давление, атм. -  160.0 см 
MN$                .UE                                     : 7 Давление, усл.ед. -  160.0 см 
PL                 .UE                                     : 10 Плотность, усл.ед. -  270.0 см 
PL_2               .GSM3                                   : 18 Плотность, г./см3 -  270.0 см 
RCOR               .CM/KM                                  : 5 Коррекция по ролику, см/км -    0.0 см 
RES                .SM                                     : 17 Проводимость,  -  222.0 см 
SPID               .M/H                                    : 2 Скорость, м/час -    0.0 см 
STD                .                                       : 12 Приток,  -  170.0 см 
TIME               .S                                      : 4 Время, сек -    0.0 см 
TM                 .GRD                                    : 14 Температура, °C -  180.0 см 
TM$                .UE                                     : 6 Температура, усл.ед. -  180.0 см 
VGD                .                                       : 8 Влагомер,  -  170.0 см 
~Ascii
# ...
2681.6     1216       10.87      478        88         0          246.289    12020      14         0          0          4.2719     580        9290       10481.81   47.446     11727      6660      
2681.8     1219       10.92      478        1175       0          246.29     12020      14         0          0          4.283      580        9279       10483.14   47.431     11723      6663      
2682       1218       10.9       467        692        0          246.307    12021      13         0          0          4.2806     557        9274       10484.46   47.406     11717      6665      
2682.2     1218       10.52      441        116        0          246.328    12022      14         0          0          4.2806     510        9271       10485.78   47.384     11711      6665      
2682.4     1219       10.23      419        45         0          246.35     12023      13         0          0          4.2861     568        9268       10487.03   47.361     11706      6662      
2682.6     1219       9.88       415        38         0          246.372    12024      14         0          0          4.287      580        9265       10488.36   47.342     11701      6658      
2682.8     1221       9.79       429        39         0          246.395    12025      13         0          0          4.2955     568        9265       10489.68   47.322     11696      6663      
2683       1224       9.82       429        45         0          246.418    12026      13         0          0          4.3091     510        9266       10490.93   47.314     11694      6666      
2683.2     1223       9.94       454        40         0          246.438    12027      14         0          0          4.3051     580        9262       10492.23   47.302     11691      6666      
2683.4     1224       10.18      454        39         0          246.445    12027      15         0          0          4.3084     538        9256       10493.52   47.273     11684      6665      
2683.6     1222       10.36      464        47         0          246.476    12029      13         0          0          4.2996     580        9251       10494.79   47.26      11681      6666      
2683.8     1223       10.51      464        50         0          246.482    12029      13         0          0          4.303      580        9249       10496.1    47.249     11678      6666      
2684       1223       10.56      461        29         0          246.5      12030      14         0          0          4.3044     545        9246       10497.41   47.233     11674      6666      
2684.2     1223       10.57      461        27         0          246.528    12031      15         0          0          4.3028     580        9242       10498.73   47.22      11671      6666      
2684.4     1224       10.66      470        30         0          246.546    12032      14         0          0          4.3107     580        9237       10500.04   47.213     11669      6665      
2684.6     1224       10.73      470        41         0          246.573    12033      13         0          0          4.3108     534        9235       10501.29   47.198     11665      6666      
2684.8     1224       10.81      476        34         0          246.597    12034      14         0          0          4.3083     580        9234       10502.61   47.189     11663      6667      
2685       1224       10.87      476        34         0          246.605    12034      13         0          0          4.3115     580        9234       10503.92   47.182     11661      6666      
2685.2     1224       10.79      465        34         0          246.619    12035      14         0          0          4.3091     557        9235       10505.23   47.174     11659      6666      
2685.4     1225       10.73      465        28         0          246.645    12036      13         0          0          4.3139     580        9237       10506.54   47.165     11657      6665      
2685.6     1225       11.13      512        29         0          246.664    12037      14         0          0          4.312      580        9238       10507.85   47.152     11654      6664      
2685.8     1224       11.44      512        39         0          246.687    12038      14         0          0          4.3091     568        9235       10509.1    47.142     11651      6664      
2686       1226       11.85      536        39         0          246.714    12039      15         0          0          4.3179     533        9233       10510.48   47.132     11649      6663      
2686.2     1226       12.08      535        37         0          246.742    12040      14         0          0          4.3195     580        9227       10511.8    47.123     11647      6664      
2686.4     1227       12.16      533        25         0          246.755    12041      14         0          0          4.3234     580        9224       10513.05   47.116     11645      6663      
2686.6     1227       12.2       533        31         0          246.779    12042      15         0          0          4.3234     545        9218       10514.35   47.096     11640      6665      
2686.8     1228       12.69      575        42         0          246.762    12041      13         0          0          4.3282     522        9212       10515.66   47.088     11638      6663      
2687       1227       12.94      573        39         0          246.792    12043      15         0          0          4.3218     580        9208       10516.97   47.083     11637      6664      
2687.2     1226       13.04      572        18         0          246.822    12044      14         0          0          4.3203     540        9207       10518.26   47.066     11633      6664      
2687.4     1227       12.79      512        103        0          246.844    12045      14         0          0          4.3234     533        9204       10519.53   47.043     11627      6663      
2687.6     1227       12.27      512        143        0          246.864    12046      14         0          0          4.3218     580        9203       10520.85   47.026     11623      6665      
2687.8     1225       11.7       439        107        0          246.886    12047      13         0          0          4.3155     580        9202       10522.16   46.997     11616      6663      
2688       1224       10.73      425        63         0          246.909    12048      13         0          0          4.3098     550        9200       10523.44   46.978     11611      6663      
2688.2     1224       9.71       337        52         0          246.918    12049      13         0          0          4.3107     510        9200       10524.79   46.965     11608      6663      
2688.4     1224       8.76       337        44         0          246.929    12049      13         0          0          4.3107     557        9200       10526.1    46.944     11602      6662      
2688.6     1222       8.28       341        51         0          246.976    12051      14         0          0          4.3012     580        9200       10527.39   46.938     11601      6663      
2688.8     1223       8.05       341        53         0          246.989    12052      14         0          0          4.3036     568        9199       10528.66   46.925     11598      6668      
2689       1222       8.15       372        64         0          246.989    12052      14         0          0          4.2996     522        9199       10529.97   46.916     11595      6651      
2689.2     1222       8.35       372        75         0          247.02     12053      13         0          0          4.3004     580        9195       10531.25   46.899     11591      6655      
2689.4     1224       7.97       316        56         0          247.025    12053      14         0          0          4.3091     533        9190       10532.53   46.886     11588      6654      
2689.6     1223       7.61       316        62         0          247.064    12055      14         0          0          4.3028     580        9183       10533.78   46.867     11583      6649      
