~Version
 VERS              .         2.0                           : CWLS LOG ASCII STANDARD - VERSION 2.0
 WRAP              .         NO                            : ONE LINE PER DEPTH STEP
 DLM               .         SPACE                         : DELIMITING CHARACTER(SPACE TAB OR COMMA)
~Well Information
#_______________________________________________________________________________
#
#PARAMETER_NAME    .UNIT     VALUE                         : DESCRIPTION
#_______________________________________________________________________________
STRT               .M        2338.9                        : First reference value
STOP               .M        2799.2                        : Last reference value
STEP               .M        0.1                           : Step increment
NULL               .         -9999                         : Missing value
COMP               .                                       : Company
WELL               .         616                           : Well name
FLD                .                                       : Field
LOC                .                                       : Location
CNTY               .                                       : County
STAT               .                                       : State
CTRY               .                                       : Country
SRVC               .                                       : Service Company
DATE               .                                       : Date
API                .                                       : API number
PROJECT_UPGRADE_TIME .         2021-03-18T21_24_50           : 
group              .         Good                          : 
~Parameter Information Block
#_______________________________________________________________________________
#
#PARAMETER_NAME    .UNIT     VALUE                         : DESCRIPTION
#_______________________________________________________________________________
SET                .         D2662_D                       : 
OTHER              .         Программное обеспечение станции MONITOR-386EX 25/12/99 15_08_10   BGF V50 26/12/00 07_26_01   3.1_SNGF___BGF_N_092085: 
OTHER_10           .         Тарировки_                    : 
OTHER_11           .         IK1.GRD = IK1$.UE - -5.96     : 
OTHER_12           .         IK5.GRD = IK5$.UE - -0.74     : 
OTHER_13           .         IK4.GRD = IK4$.UE - -0.9      : 
OTHER_14           .         IK3.GRD = IK3$.UE - -1.28     : 
OTHER_15           .         IK2.GRD = IK2$.UE - -3.55     : 
OTHER_2            .         Kedr.exe версия 3.3.2.32      : 
OTHER_3            .         KedrData.dll версия 3.3.2.17  : 
OTHER_4            .         Драйвер версия 2.1.0.4        : 
OTHER_5            .         Мнемоники версия 3.3 S        : 
OTHER_6            .         Прибор_ Викиз                 : 
OTHER_7            .         Номер прибора_ 0006012        : 
OTHER_8            .         Режим_ Викиз                  : 
OTHER_9            .         Форма_ ВИКИЗ                  : 
PROJECT_UPGRADE_TIME .         2021-03-18T21_24_49           : 
TLFamily_DEPT      .         Measured Depth                : 
TLFamily_IK1       .         Extra Shallow Resistivity     : 
TLFamily_IK1$      .         Extra Shallow Resistivity     : 
TLFamily_IK2       .         Shallow Resistivity           : 
TLFamily_IK2$      .         Shallow Resistivity           : 
TLFamily_IK3       .         Medium Resistivity            : 
TLFamily_IK3$      .         Medium Resistivity            : 
TLFamily_IK4       .         Deep Resistivity              : 
TLFamily_IK4$      .         Deep Resistivity              : 
TLFamily_IK5       .         Resistivity 20                : 
TLFamily_IK5$      .         Resistivity 20                : 
TLFamily_METKA     .                                       : 
TLFamily_PS        .         Spontaneous Potential         : 
TLFamily_RCOR      .                                       : 
TLFamily_SPID      .         Spontaneous Potential         : 
TLFamily_TENS      .         Cable Tension                 : 
TLFamily_TIME      .         Time                          : 
group              .         prim                          : 
~Curve Information
#_______________________________________________________________________________
#
#LOGNAME           .UNIT     LOG_ID                        : DESCRIPTION
#_______________________________________________________________________________
DEPT               .M                                      : 1 Глубина, м -    0.0 см 
IK1                .GRD                                    : 13 3Ф0.5, град. -  226.0 см 
IK1$               .UE                                     : 7 3Ф0.5, усл.ед. -  226.0 см 
IK2                .GRD                                    : 17 3Ф0.7, град. -  240.0 см 
IK2$               .UE                                     : 11 3Ф0.7, усл.ед. -  240.0 см 
IK3                .GRD                                    : 16 3Ф1.0, град. -  260.0 см 
IK3$               .UE                                     : 10 3Ф1.0, усл.ед. -  260.0 см 
IK4                .GRD                                    : 15 3Ф1.4, град. -  288.0 см 
IK4$               .UE                                     : 9 3Ф1.4, усл.ед. -  288.0 см 
IK5                .GRD                                    : 14 3Ф2.0, град. -  328.0 см 
IK5$               .UE                                     : 8 3Ф2.0, усл.ед. -  328.0 см 
METKA              .                                       : 3 Метки,  -    0.0 см 
PS                 .mV                                     : 12 ПС, мВ -  372.0 см 
RCOR               .CM/KM                                  : 5 Коррекция по ролику, см/км -    0.0 см 
SPID               .M/H                                    : 2 Скорость, м/час -    0.0 см 
TENS               .T                                      : 6 Натяжение кабеля, т -    0.0 см 
TIME               .S                                      : 4 Время, сек -    0.0 см 
~Ascii
# ...
2794.7     14.9       8.94       15.85      12.3       15.7       14.42      14.68      13.78      13.8       13.06      0          337.98     -302       -1078      0          34581.48  
2794.8     14.9       8.94       15.85      12.3       15.7       14.42      14.67      13.77      13.79      13.05      0          337.79     -302       -1002      0          34581.2   
2794.9     14.91      8.95       15.84      12.29      15.68      14.4       14.66      13.76      13.8       13.06      0          337.65     -302       -899       0          34580.91  
2795       14.9       8.94       15.84      12.29      15.69      14.41      14.67      13.77      13.8       13.06      0          337.58     -302       -758       0          34580.64  
2795.1     14.91      8.95       15.83      12.28      15.68      14.4       14.67      13.77      13.79      13.05      0          337.52     -302       -608       0          34580.36  
2795.2     14.9       8.94       15.83      12.28      15.69      14.41      14.67      13.77      13.79      13.05      0          337.3      -302       -429       0          34580.07  
2795.3     14.9       8.94       15.84      12.29      15.7       14.42      14.67      13.77      13.79      13.05      0          337.13     -302       -269       0          34579.74  
2795.4     14.91      8.95       15.84      12.29      15.7       14.42      14.67      13.77      13.79      13.05      0          337.09     -302       -118       0          34579.45  
2795.5     14.9       8.94       15.84      12.29      15.69      14.41      14.66      13.76      13.8       13.06      1          337.15     -302       -29        0          34578.86  
2795.6     14.91      8.95       15.84      12.29      15.7       14.42      14.67      13.77      13.8       13.06      -9999      336.8      -9999      -9999      -9999      -9999     
2795.7     14.91      8.95       15.84      12.29      15.7       14.42      14.67      13.77      13.79      13.05      -9999      336.47     -9999      -9999      -9999      -9999     
2795.8     14.91      8.95       15.84      12.29      15.69      14.41      14.67      13.77      13.79      13.05      -9999      336.42     -9999      -9999      -9999      -9999     
2795.9     14.91      8.95       15.84      12.29      15.69      14.41      14.66      13.76      13.79      13.05      -9999      336.41     -9999      -9999      -9999      -9999     
2796       14.91      8.95       15.84      12.29      15.68      14.4       14.66      13.76      13.79      13.05      -9999      336.32     -9999      -9999      -9999      -9999     
2796.1     14.9       8.94       15.84      12.29      15.68      14.4       14.66      13.76      13.79      13.05      -9999      336.21     -9999      -9999      -9999      -9999     
2796.2     14.9       8.94       15.84      12.29      15.68      14.4       14.65      13.75      13.79      13.05      -9999      336.26     -9999      -9999      -9999      -9999     
2796.3     14.9       8.94       15.84      12.29      15.68      14.4       14.66      13.76      13.8       13.06      -9999      336.2      -9999      -9999      -9999      -9999     
2796.4     14.9       8.94       15.84      12.29      15.68      14.4       14.66      13.76      13.8       13.06      -9999      336.04     -9999      -9999      -9999      -9999     
2796.5     14.9       8.94       15.84      12.29      15.68      14.4       14.66      13.76      13.8       13.06      -9999      335.84     -9999      -9999      -9999      -9999     
2796.6     14.9       8.94       15.84      12.29      15.68      14.4       14.67      13.77      13.8       13.06      -9999      335.68     -9999      -9999      -9999      -9999     
2796.7     14.89      8.93       15.84      12.29      15.68      14.4       14.67      13.77      13.79      13.05      -9999      335.6      -9999      -9999      -9999      -9999     
2796.8     14.89      8.93       15.84      12.29      15.68      14.4       14.66      13.76      13.8       13.06      -9999      335.49     -9999      -9999      -9999      -9999     
2796.9     14.89      8.93       15.84      12.29      15.68      14.4       14.67      13.77      13.8       13.06      -9999      335.43     -9999      -9999      -9999      -9999     
2797       14.89      8.93       15.84      12.29      15.69      14.41      14.66      13.76      13.8       13.06      -9999      335.26     -9999      -9999      -9999      -9999     
2797.1     14.9       8.94       15.85      12.3       15.69      14.41      14.66      13.76      13.79      13.05      -9999      335.19     -9999      -9999      -9999      -9999     
2797.2     14.89      8.93       15.84      12.29      15.7       14.42      14.67      13.77      13.78      13.04      -9999      335.18     -9999      -9999      -9999      -9999     
2797.3     14.9       8.94       15.84      12.29      15.69      14.41      14.67      13.77      13.78      13.04      -9999      335.02     -9999      -9999      -9999      -9999     
2797.4     14.89      8.93       15.83      12.28      15.69      14.41      14.68      13.78      13.78      13.04      -9999      334.93     -9999      -9999      -9999      -9999     
2797.5     14.89      8.93       15.83      12.28      15.69      14.41      14.67      13.77      13.79      13.05      -9999      334.72     -9999      -9999      -9999      -9999     
2797.6     14.89      8.93       15.83      12.28      15.68      14.4       14.66      13.76      13.79      13.05      -9999      334.49     -9999      -9999      -9999      -9999     
2797.7     14.89      8.93       15.83      12.28      15.67      14.39      14.67      13.77      13.79      13.05      -9999      334.46     -9999      -9999      -9999      -9999     
2797.8     -9999      -9999      15.84      12.29      15.67      14.39      14.65      13.75      13.81      13.07      -9999      334.39     -9999      -9999      -9999      -9999     
2797.9     -9999      -9999      15.84      12.29      15.68      14.4       14.65      13.75      13.81      13.07      -9999      334.37     -9999      -9999      -9999      -9999     
2798       -9999      -9999      -9999      -9999      15.68      14.4       14.65      13.75      13.82      13.08      -9999      334.34     -9999      -9999      -9999      -9999     
2798.1     -9999      -9999      -9999      -9999      15.67      14.39      14.66      13.76      13.8       13.06      -9999      334.29     -9999      -9999      -9999      -9999     
2798.2     -9999      -9999      -9999      -9999      -9999      -9999      14.66      13.76      13.8       13.06      -9999      334.15     -9999      -9999      -9999      -9999     
2798.3     -9999      -9999      -9999      -9999      -9999      -9999      14.66      13.76      13.8       13.06      -9999      334.13     -9999      -9999      -9999      -9999     
2798.4     -9999      -9999      -9999      -9999      -9999      -9999      14.67      13.77      13.79      13.05      -9999      334.02     -9999      -9999      -9999      -9999     
2798.5     -9999      -9999      -9999      -9999      -9999      -9999      -9999      -9999      13.8       13.06      -9999      334.01     -9999      -9999      -9999      -9999     
2798.6     -9999      -9999      -9999      -9999      -9999      -9999      -9999      -9999      13.79      13.05      -9999      334.02     -9999      -9999      -9999      -9999     
2798.7     -9999      -9999      -9999      -9999      -9999      -9999      -9999      -9999      13.8       13.06      -9999      333.94     -9999      -9999      -9999      -9999     
2798.8     -9999      -9999      -9999      -9999      -9999      -9999      -9999      -9999      13.79      13.05      -9999      334.07     -9999      -9999      -9999      -9999     
2798.9     -9999      -9999      -9999      -9999      -9999      -9999      -9999      -9999      -9999      -9999      -9999      334.04     -9999      -9999      -9999      -9999     
