~Version
 VERS              .         2.0                           : CWLS LOG ASCII STANDARD - VERSION 2.0
 WRAP              .         NO                            : ONE LINE PER DEPTH STEP
 DLM               .         SPACE                         : DELIMITING CHARACTER(SPACE TAB OR COMMA)
~Well Information
#_______________________________________________________________________________
#
#PARAMETER_NAME    .UNIT     VALUE                         : DESCRIPTION
#_______________________________________________________________________________
STRT               .M        2648.8                        : First reference value
STOP               .M        2754.8                        : Last reference value
STEP               .M        0.2                           : Step increment
NULL               .         -9999                         : Missing value
COMP               .                                       : Company
WELL               .         616                           : Well name
FLD                .                                       : Field
LOC                .                                       : Location
CNTY               .                                       : County
STAT               .                                       : State
CTRY               .                                       : Country
SRVC               .                                       : Service Company
DATE               .                                       : Date
API                .                                       : API number
PROJECT_UPGRADE_TIME .         2021-03-18T21_24_50           : 
group              .         Good                          : 
~Parameter Information Block
#_______________________________________________________________________________
#
#PARAMETER_NAME    .UNIT     VALUE                         : DESCRIPTION
#_______________________________________________________________________________
SET                .         D7019_D                       : 
OTHER              .         Kedr.exe версия 2.1.2.32      : 
OTHER_10           .         TM.GRD = 0.00404*TM$.UE + 0.07: 
OTHER_11           .         MN.ATM = (6.33279e-006*TM.GRD + 0.02401)*(MN$.UE + 2.72*TM.GRD + -2018): 
OTHER_12           .         GK.MKR/H = GK$.UE / 43.5489 + 0: 
OTHER_13           .         RES.SM = 0.00476*CRES.UE - 1.51709: 
OTHER_14           .         PL.GSM3 = 0 + 0 * (PL.UE / 1) +  0 * (PL.UE / 1)^2: 
OTHER_15           .         Постоянная времени ГГП = 6 сек: 
OTHER_16           .         Постоянная времени ГК = 6 сек : 
OTHER_2            .         KedrData.dll версия 3.2.2.14  : 
OTHER_3            .         LasInf.dll версия 3.2.0.13    : 
OTHER_4            .         Драйвер версия 1.2.0.5        : 
OTHER_5            .         Прибор_ КСА-M1                : 
OTHER_6            .         Номер прибора_ 155+р204       : 
OTHER_7            .         Режим_ КСА-М1 + ГГП + Резистивиметр: 
OTHER_8            .         Форма_ 223\2                  : 
OTHER_9            .         Тарировки_                    : 
PROJECT_UPGRADE_TIME .         2021-03-18T21_24_50           : 
TLFamily_CRES      .                                       : 
TLFamily_DEPT      .         Measured Depth                : 
TLFamily_GK        .         Gamma Ray                     : 
TLFamily_GK$       .                                       : 
TLFamily_LM        .         Casing Collar locator         : 
TLFamily_METKA     .                                       : 
TLFamily_MN        .                                       : 
TLFamily_MN$       .                                       : 
TLFamily_PL        .                                       : 
TLFamily_PL_2      .                                       : 
TLFamily_RCOR      .                                       : 
TLFamily_RES       .         Mud Resistivity               : 
TLFamily_SPID      .         Spontaneous Potential         : 
TLFamily_STD       .                                       : 
TLFamily_TIME      .         Time                          : 
TLFamily_TM        .         Temperature                   : 
TLFamily_TM$       .         Temperature                   : 
TLFamily_VGD       .         Gas Volume                    : 
group              .         prim                          : 
~Curve Information
#_______________________________________________________________________________
#
#LOGNAME           .UNIT     LOG_ID                        : DESCRIPTION
#_______________________________________________________________________________
DEPT               .M                                      : 1 Глубина, м -    0.0 см 
CRES               .UE                                     : 9 Проводимость, усл.ед. -  222.0 см 
GK                 .MKR/H                                  : 16 Гамма-активность, мкр./ч -  106.0 см 
GK$                .UE                                     : 13 Гамма-активность, усл.ед. -  106.0 см 
LM                 .                                       : 11 Локатор муфт,  -   16.0 см 
METKA              .                                       : 3 Метки,  -    0.0 см 
MN                 .ATM                                    : 15 Давление, атм. -  160.0 см 
MN$                .UE                                     : 7 Давление, усл.ед. -  160.0 см 
PL                 .UE                                     : 10 Плотность, усл.ед. -  270.0 см 
PL_2               .GSM3                                   : 18 Плотность, г./см3 -  270.0 см 
RCOR               .CM/KM                                  : 5 Коррекция по ролику, см/км -    0.0 см 
RES                .SM                                     : 17 Проводимость,  -  222.0 см 
SPID               .M/H                                    : 2 Скорость, м/час -    0.0 см 
STD                .                                       : 12 Приток,  -  170.0 см 
TIME               .S                                      : 4 Время, сек -    0.0 см 
TM                 .GRD                                    : 14 Температура, °C -  180.0 см 
TM$                .UE                                     : 6 Температура, усл.ед. -  180.0 см 
VGD                .                                       : 8 Влагомер,  -  170.0 см 
~Ascii
# ...
2673.4     1236       9.16       414        91         0          245.513    11985      13         0          0          4.3642     580        9412       10427.89   48.049     11876      6662      
2673.6     1237       9.33       414        119        0          245.54     11986      13         0          0          4.371      552        9408       10429.25   48.04      11874      6661      
2673.8     1237       9.32       405        124        0          245.537    11986      13         0          0          4.371      580        9401       10430.57   48.029     11871      6662      
2674       1235       9.25       390        111        0          245.548    11987      14         0          0          4.3615     580        9396       10431.86   48.007     11866      6661      
2674.2     1235       8.93       375        131        0          245.583    11988      14         0          0          4.3615     522        9396       10433.13   48.001     11864      6661      
2674.4     1233       8.77       375        98         0          245.608    11989      13         0          0          4.352      580        9395       10434.44   47.99      11861      6661      
2674.6     1233       8.9        393        83         0          245.63     11990      13         0          0          4.3512     510        9396       10435.76   47.988     11861      6662      
2674.8     1231       8.96       392        85         0          245.645    11991      14         0          0          4.3425     580        9397       10437.03   47.97      11856      6662      
2675       1231       8.98       392        100        0          245.649    11991      14         0          0          4.3425     557        9396       10438.34   47.954     11853      6662      
2675.2     1228       8.94       383        72         0          245.672    11992      14         0          0          4.3282     580        9391       10439.66   47.936     11848      6663      
2675.4     1230       8.87       383        84         0          245.677    11992      13         0          0          4.3377     580        9382       10440.97   47.922     11845      6663      
2675.6     1230       9.03       410        72         0          245.718    11994      15         0          0          4.3377     568        9377       10442.24   47.906     11841      6661      
2675.8     1229       9.22       410        75         0          245.744    11995      15         0          0          4.3329     580        9373       10443.56   47.904     11840      6661      
2676       1229       9.39       423        109        0          245.762    11996      15         0          0          4.3323     580        9372       10444.87   47.887     11836      6661      
2676.2     1229       9.55       423        82         0          245.781    11997      13         0          0          4.3314     580        9373       10446.14   47.869     11831      6662      
2676.4     1228       9.59       418        165        0          245.807    11998      13         0          0          4.3282     580        9373       10447.46   47.859     11829      6661      
2676.6     1225       9.6        418        190        0          245.821    11999      13         0          0          4.3147     510        9375       10448.77   47.839     11824      6663      
2676.8     1225       9.74       434        90         0          245.818    11999      14         0          0          4.3163     580        9375       10450.04   47.824     11820      6663      
2677       1226       9.85       434        64         0          245.822    11999      14         0          0          4.3171     580        9366       10451.35   47.799     11814      6664      
2677.2     1224       10.13      461        74         0          245.844    12000      14         0          0          4.3091     580        9358       10452.63   47.766     11806      6663      
2677.4     1225       10.36      461        82         0          245.891    12002      14         0          0          4.3155     580        9349       10453.93   47.753     11803      6660      
2677.6     1224       10.38      452        88         0          245.909    12003      13         0          0          4.3107     580        9342       10455.25   47.738     11799      6664      
2677.8     1222       10.38      452        83         0          245.911    12003      15         0          0          4.3004     510        9338       10456.57   47.718     11794      6661      
2678       1225       9.85       404        66         0          245.942    12004      15         0          0          4.3131     538        9332       10457.87   47.702     11790      6662      
2678.2     1223       9.57       404        180        0          245.924    12004      15         0          0          4.302      580        9333       10459.15   47.695     11788      6661      
2678.4     1222       9.27       388        166        0          245.955    12005      14         0          0          4.2996     580        9331       10460.46   47.679     11784      6662      
2678.6     1224       9.09       388        123        0          245.982    12006      13         0          0          4.3091     556        9333       10461.73   47.67      11782      6658      
2678.8     1220       9.35       419        194        0          246.025    12008      13         0          0          4.2901     580        9335       10463.05   47.656     11779      6663      
2679       1222       9.52       428        115        0          246.023    12008      14         0          0          4.2973     570        9334       10464.31   47.646     11776      6663      
2679.2     1221       9.75       435        75         0          246.045    12009      14         0          0          4.2933     522        9331       10465.62   47.63      11772      6664      
2679.4     1218       10.02      465        73         0          246.068    12010      14         0          0          4.2806     545        9325       10466.95   47.613     11768      6663      
2679.6     1220       10.34      465        77         0          246.089    12011      14         0          0          4.2886     521        9319       10468.27   47.602     11765      6663      
2679.8     1221       10.55      475        216        0          246.111    12012      14         0          0          4.2965     580        9313       10469.57   47.58      11760      6663      
2680       1218       10.79      480        180        0          246.134    12013      13         0          0          4.2806     557        9305       10470.85   47.557     11754      6664      
2680.2     1219       10.73      446        93         1          246.158    12014      14         0          0          4.2863     510        9303       10472.76   47.552     11753      6663      
2680.4     1219       10.49      446        69         0          246.18     12015      14         0          0          4.2877     580        9301       10474.08   47.547     11752      6664      
2680.6     1218       10.37      447        55         0          246.198    12016      14         0          0          4.2806     580        9301       10475.35   47.531     11748      6665      
2680.8     1219       10.32      447        39         0          246.198    12016      15         0          0          4.2853     640        9298       10476.66   47.505     11741      6664      
2681       1219       10.36      460        57         0          246.196    12016      14         0          0          4.2853     580        9295       10477.91   47.482     11736      6664      
2681.2     1220       10.5       463        52         0          246.219    12017      13         0          0          4.2881     510        9296       10479.23   47.467     11732      6663      
2681.4     1218       10.75      479        70         0          246.225    12017      13         0          0          4.2798     522        9295       10480.56   47.455     11729      6665      
