~Version
 VERS              .         2.0                           : CWLS LOG ASCII STANDARD - VERSION 2.0
 WRAP              .         NO                            : ONE LINE PER DEPTH STEP
 DLM               .         SPACE                         : DELIMITING CHARACTER(SPACE TAB OR COMMA)
~Well Information
#_______________________________________________________________________________
#
#PARAMETER_NAME    .UNIT     VALUE                         : DESCRIPTION
#_______________________________________________________________________________
STRT               .M        44                            : First reference value
STOP               .M        2769.2                        : Last reference value
STEP               .M        0.2                           : Step increment
NULL               .         -9999                         : Missing value
COMP               .                                       : Company
WELL               .         616                           : Well name
FLD                .                                       : Field
LOC                .                                       : Location
CNTY               .                                       : County
STAT               .                                       : State
CTRY               .                                       : Country
SRVC               .                                       : Service Company
DATE               .                                       : Date
API                .                                       : API number
PROJECT_UPGRADE_TIME .         2021-03-18T21_24_50           : 
group              .         Good                          : 
~Parameter Information Block
#_______________________________________________________________________________
#
#PARAMETER_NAME    .UNIT     VALUE                         : DESCRIPTION
#_______________________________________________________________________________
SET                .         D1160_D                       : 
OTHER              .         Программное обеспечение станции MONITOR-386EX 25/12/99 15_08_10   BGF V52 22/08/01 16_56_30   3.2_BGF_N_3070031: 
OTHER_10           .         Тарировки_                    : 
OTHER_11           .         TM.GRD = 0.00403*TM$.UE + -1.19: 
OTHER_12           .         MN.ATM = (7.1e-006*TM.GRD + 0.02017)*(MN$.UE + -3.03*TM.GRD + -1833): 
OTHER_13           .         Id error                      : 
OTHER_2            .         Kedr.exe версия 3.4.2.51      : 
OTHER_3            .         KedrData.dll версия 3.4.2.24  : 
OTHER_4            .         Драйвер версия 2.1.1.8        : 
OTHER_5            .         Мнемоники версия 3.3 S        : 
OTHER_6            .         Прибор_ КСА-М1                : 
OTHER_7            .         Номер прибора_ 265            : 
OTHER_8            .         Режим_ КСА-М1                 : 
OTHER_9            .         Форма_ ТЕРМОМЕТР              : 
PROJECT_UPGRADE_TIME .         2021-03-18T21_24_49           : 
TLFamily_DEPT      .         Measured Depth                : 
TLFamily_GK        .         Gamma Ray                     : 
TLFamily_GK$       .                                       : 
TLFamily_LM        .         Casing Collar locator         : 
TLFamily_METKA     .                                       : 
TLFamily_MN        .                                       : 
TLFamily_MN$       .                                       : 
TLFamily_RCOR      .                                       : 
TLFamily_SPID      .         Spontaneous Potential         : 
TLFamily_STD       .                                       : 
TLFamily_TENS      .         Cable Tension                 : 
TLFamily_TIME      .         Time                          : 
TLFamily_TM        .         Temperature                   : 
TLFamily_TM$       .         Temperature                   : 
TLFamily_VGD       .         Gas Volume                    : 
group              .         prim                          : 
~Curve Information
#_______________________________________________________________________________
#
#LOGNAME           .UNIT     LOG_ID                        : DESCRIPTION
#_______________________________________________________________________________
DEPT               .M                                      : 1 Глубина, м -    0.0 см 
GK                 .MKR/H                                  : 15 Гамма-активность, мкр./ч -  110.0 см 
GK$                .UE                                     : 12 Гамма-активность, усл.ед. -  110.0 см 
LM                 .                                       : 10 Локатор муфт,  -   20.0 см 
METKA              .                                       : 3 Метки,  -    0.0 см 
MN                 .ATM                                    : 14 Давление, атм. -  160.0 см 
MN$                .UE                                     : 8 Давление, усл.ед. -  160.0 см 
RCOR               .CM/KM                                  : 5 Коррекция по ролику, см/км -    0.0 см 
SPID               .M/H                                    : 2 Скорость, м/час -    0.0 см 
STD                .                                       : 11 Приток,  -  170.0 см 
TENS               .T                                      : 6 Натяжение кабеля, т -    0.0 см 
TIME               .S                                      : 4 Время, сек -    0.0 см 
TM                 .GRD                                    : 13 Температура, °C -  180.0 см 
TM$                .UE                                     : 7 Температура, усл.ед. -  180.0 см 
VGD                .                                       : 9 Влагомер,  -  170.0 см 
~Ascii
# ...
2396       7.13       306        1          0          221.604    12762      -1400      1860       28869      0          14900.81   79.524     20028      6490      
2396.2     7.23       318        1          0          221.632    12763      -1400      1860       28871      0          14901.18   79.531     20030      6491      
2396.4     7.33       322        1          0          221.654    12764      -1400      1860       28873      0          14901.56   79.539     20032      6490      
2396.6     7.39       322        1          0          221.661    12764      -1400      1860       28876      0          14901.94   79.546     20034      6491      
2396.8     7.43       322        1          0          221.679    12765      -1400      1860       28880      0          14902.32   79.554     20036      6490      
2397       7.47       322        1          0          221.699    12766      -1400      1860       28882      0          14902.72   79.561     20037      6490      
2397.2     7.49       322        1          0          221.717    12767      -1400      1860       28883      0          14903.1    79.568     20039      6490      
2397.4     7.53       326        1          0          221.736    12768      -1400      1860       28885      0          14903.48   79.575     20041      6490      
2397.6     7.69       343        1          0          221.755    12769      -1400      1860       28890      0          14903.88   79.579     20042      6490      
2397.8     7.79       343        1          0          221.774    12770      -1400      1860       28894      0          14904.25   79.586     20044      6490      
2398       7.87       343        1          0          221.793    12771      -1400      1860       28896      0          14904.63   79.593     20045      6491      
2398.2     7.91       343        1          0          221.811    12772      -1400      1860       28898      0          14905.04   79.601     20047      6490      
2398.4     7.95       343        1          0          221.83     12772      -1400      1860       28903      0          14905.44   79.61      20050      6490      
2398.6     7.97       343        1          0          221.849    12773      -1400      1860       28907      0          14905.84   79.619     20052      6491      
2398.8     7.98       341        1          0          221.874    12775      -1400      1863       28909      0          14906.22   79.627     20054      6490      
2399       7.97       340        1          0          221.907    12776      -1400      1862       28912      0          14906.61   79.634     20056      6490      
2399.2     7.96       340        1          0          221.925    12777      -1400      1856       28916      0          14907      79.641     20057      6491      
2399.4     7.96       340        1          0          221.925    12777      -1400      1852       28919      0          14907.38   79.648     20059      6490      
2399.6     7.96       340        1          0          221.961    12779      -1400      1853       28920      0          14907.76   79.655     20061      6490      
2399.8     7.96       340        1          0          221.984    12780      -1400      1853       28922      0          14908.15   79.663     20063      6490      
2400       7.95       339        1          0          222.004    12781      -1400      1854       28927      0          14908.54   79.67      20065      6490      
2400.2     7.84       326        1          2          222.023    12782      -1400      1854       28931      0          14908.99   79.678     20067      6491      
2400.4     7.77       325        1          0          222.042    12783      -1400      1855       28933      0          14909.39   79.686     20068      6491      
2400.6     7.72       325        1          0          222.061    12784      -1400      1849       28935      0          14909.78   79.693     20070      6491      
2400.8     7.68       325        1          0          222.08     12784      -1400      1854       28941      0          14910.15   79.7       20072      6491      
2401       7.66       325        1          0          222.099    12785      -1400      1851       28945      0          14910.55   79.707     20074      6490      
2401.2     7.64       325        1          0          222.122    12786      -1400      1845       28947      0          14910.92   79.715     20076      6490      
2401.4     7.62       324        1          0          222.157    12788      -1400      1844       28948      0          14911.31   79.722     20077      6490      
2401.6     7.61       324        1          0          222.175    12789      -1400      1846       28950      0          14911.7    79.729     20079      6491      
2401.8     7.6        324        1          0          222.177    12789      -1400      1847       28954      0          14912.09   79.737     20081      6491      
2402       7.59       324        1          0          222.197    12790      -1400      1848       28957      0          14912.47   79.746     20083      6491      
2402.2     7.59       324        1          0          222.216    12791      -1400      1850       28958      0          14912.85   79.757     20086      6491      
2402.4     7.58       324        1          0          222.234    12792      -1400      1855       28960      0          14913.24   79.76      20087      6491      
2402.6     7.58       324        1          0          222.254    12793      -1400      1849       28964      0          14913.63   79.771     20089      6491      
2402.8     7.79       351        1          0          222.286    12794      -1400      1856       28966      0          14914.02   79.776     20091      6491      
2403       7.93       352        1          0          222.312    12796      -1400      1862       28966      0          14914.4    79.782     20092      6491      
2403.2     8.02       352        1          0          222.321    12796      -1400      1858       28971      0          14914.78   79.789     20094      6491      
2403.4     8.09       352        1          0          222.329    12796      -1400      1856       28977      0          14915.17   79.797     20096      6492      
2403.6     8.13       352        1          0          222.348    12797      -1400      1859       28979      0          14915.55   79.802     20097      6492      
2403.8     8.08       341        1          0          222.367    12798      -1400      1865       28981      0          14915.93   79.806     20098      6491      
2404       7.95       328        1          0          222.386    12799      -1400      1865       28984      0          14916.33   79.811     20100      6491      
2404.2     7.86       328        1          0          222.404    12800      -1400      1862       28988      0          14916.7    79.822     20102      6491      
2404.4     7.8        328        1          0          222.423    12801      -1400      1865       28990      0          14917.09   79.829     20104      6491      
2404.6     7.76       328        1          0          222.459    12803      -1400      1858       28992      0          14917.49   79.833     20105      6491      
2404.8     7.73       328        1          0          222.467    12803      -1400      1852       28994      0          14917.86   79.84      20107      6492      
2405       7.71       328        102        0          222.48     12804      -1400      1858       28999      0          14918.24   79.844     20108      6492      
2405.2     7.43       294        1355       0          222.509    12805      -1400      1859       29003      0          14918.65   79.85      20109      6492      
2405.4     7.2        285        791        0          222.538    12806      -1400      1859       29005      0          14919.02   79.86      20112      6492      
2405.6     7.02       285        442        0          222.55     12807      -1400      1859       29007      0          14919.41   79.869     20114      6492      
