~Version
 VERS              .         2.0                           : CWLS LOG ASCII STANDARD - VERSION 2.0
 WRAP              .         NO                            : ONE LINE PER DEPTH STEP
 DLM               .         SPACE                         : DELIMITING CHARACTER(SPACE TAB OR COMMA)
~Well Information
#_______________________________________________________________________________
#
#PARAMETER_NAME    .UNIT     VALUE                         : DESCRIPTION
#_______________________________________________________________________________
STRT               .M        2707.1                        : First reference value
STOP               .M        2752.29995                    : Last reference value
STEP               .M        0.09999989                    : Step increment
NULL               .         -9999                         : Missing value
COMP               .                                       : Company
WELL               .         616                           : Well name
FLD                .                                       : Field
LOC                .                                       : Location
CNTY               .                                       : County
STAT               .                                       : State
CTRY               .                                       : Country
SRVC               .                                       : Service Company
DATE               .                                       : Date
API                .                                       : API number
PROJECT_UPGRADE_TIME .         2021-03-18T21_24_50           : 
group              .         Good                          : 
~Parameter Information Block
#_______________________________________________________________________________
#
#PARAMETER_NAME    .UNIT     VALUE                         : DESCRIPTION
#_______________________________________________________________________________
SET                .         D7031_D_2                     : 
NPR                .         155                           : Номер прибора
OTHER              .         Kedr.exe версия 2.1.2.32      : 
OTHER_10           .         RGD. = 0.647457 * RGD. + 2.35279: 
OTHER_2            .         KedrData.dll версия 3.2.2.14  : 
OTHER_3            .         LasInf.dll версия 3.2.0.13    : 
OTHER_4            .         Драйвер версия 1.2.0.6        : 
OTHER_5            .         Прибор_ Расходомер            : 
OTHER_6            .         Номер прибора_ 963            : 
OTHER_7            .         Режим_ Расходомер             : 
OTHER_8            .         Форма_ Саня                   : 
OTHER_9            .         Тарировки_                    : 
PR                 .         КСА-Т7 М1                     : Тип прибора
PROJECT_UPGRADE_TIME .         2021-03-18T21_24_50           : 
PRTY               .         ПП-223_2                      : Номер партии
SRV                .         ЦКРС                          : Заказчик
SRVC               .         Лузин  А.Б.                   : Начальник партии
TLFamily_DEPT      .         Measured Depth                : 
TLFamily_RGD       .                                       : 
TLFamily_SPID      .         Spontaneous Potential         : 
group              .         second                        : 
~Curve Information
#_______________________________________________________________________________
#
#LOGNAME           .UNIT     LOG_ID                        : DESCRIPTION
#_______________________________________________________________________________
DEPT               .M                                      : Depth curve 
RGD                .м3/сут                                 : Механическая расходометрия, м3/сут 
SPID               .м/ч                                    : Скорость записи,м/час 
~Ascii
2707.10009766 -9999      -9999     
2707.2     -9999      -189.999  
2707.3     -9999      -189.001  
2707.4     -9999      -190      
2707.5     -9999      -190      
2707.599999 -9999      -190      
2707.699999 70.706     -189.942  
2707.799999 66.766     -131.058  
2707.899999 73.198     -190      
2707.999999 60.685     -190      
2708.099999 65.725     -190      
2708.199999 70.743     -190      
2708.299999 63.536     -190      
2708.399999 59.518     -190      
2708.499998 67.183     -190      
2708.599998 59.883     -189.971  
2708.699998 62.79      -160.029  
2708.799998 62.612     -190.068  
2708.899998 54.27      -259.932  
2708.999998 64.82      -190      
2709.099998 65.136     -189.941  
2709.199998 60.789     -130.059  
2709.299998 70.134     -190      
2709.399997 54.11      -190      
2709.499997 54.085     -190      
2709.599997 69.103     -190      
2709.699997 61.824     -190      
2709.799997 65.76      -190      
2709.899997 65.564     -189.941  
2709.999997 59.042     -130.059  
2710.099997 60.841     -190      
2710.199997 61.446     -189.941  
2710.299996 67.276     -130.059  
2710.399996 73.059     -190      
2710.499996 61.797     -190      
2710.599996 58.84      -190      
2710.699996 68.734     -190      
2710.799996 62.363     -190      
2710.899996 65.531     -190      
2710.999996 66.776     -190      
2711.099996 62.794     -189.941  
2711.199995 66.423     -130.059  
2711.299995 59.215     -190      
2711.399995 64.622     -190      
2711.499995 66.715     -190      
2711.599995 61.671     -190      
2711.699995 72.976     -190      
2711.799995 58.706     -189.941  
2711.899995 64.412     -130.059  
2711.999995 66.204     -189.941  
2712.099994 60.483     -130.059  
2712.199994 63.99      -190      
2712.299994 73.869     -190      
2712.399994 62.283     -190      
2712.499994 65.251     -189.941  
2712.599994 66.127     -130.059  
2712.699994 63.113     -189.97   
2712.799994 76.613     -159.03   
2712.899994 69.096     -190      
2712.999994 65.074     -190      
2713.099993 69.628     -190      
2713.199993 67.808     -190      
2713.299993 75.719     -190      
2713.399993 64.44      -190      
2713.499993 64.787     -190      
2713.599993 71.486     -190      
2713.699993 67.468     -190      
2713.799993 65.442     -190      
2713.899993 77.55      -190      
2713.999992 67.559     -189.941  
2714.099992 66.744     -130.059  
2714.199992 70.905     -189.972  
2714.299992 65.542     -161.028  
2714.399992 67.684     -190      
2714.499992 72.079     -190      
2714.599992 60.969     -190      
2714.699992 70.418     -189.941  
2714.799992 67.9       -130.059  
2714.899991 67.845     -189.941  
2714.999991 73.251     -130.059  
2715.099991 64.289     -190      
2715.199991 73.89      -190      
2715.299991 73.985     -190      
2715.399991 68.83      -190      
2715.499991 79.222     -190      
2715.599991 71.415     -189.971  
2715.699991 66.018     -160.029  
2715.79999 74.595     -190      
2715.89999 69.531     -190      
2715.99999 70.748     -190      
2716.09999 68.59      -190      
2716.19999 68.923     -189.941  
2716.29999 71.724     -130.059  
2716.39999 65.709     -190      
2716.49999 64.56      -190      
2716.59999 74.646     -190      
2716.699989 60.138     -190      
2716.799989 68.041     -190      
2716.899989 69.133     -190      
2716.999989 61.697     -190      
2717.099989 69.183     -190      
2717.199989 72.131     -190      
2717.299989 62.608     -189.941  
2717.399989 70.748     -130.059  
2717.499989 68.256     -189.941  
2717.599988 63.928     -130.059  
2717.699988 72.293     -189.941  
2717.799988 65.442     -130.059  
2717.899988 67.133     -190      
2717.999988 70.52      -190      
2718.099988 60.576     -190      
2718.199988 66.964     -190      
2718.299988 61.005     -190      
2718.399988 55.807     -190      
2718.499987 73.085     -190      
2718.599987 58.144     -190      
2718.699987 61.831     -190      
2718.799987 63.154     -190      
2718.899987 67.104     -190      
2718.999987 71.015     -190      
2719.099987 65.427     -190      
2719.199987 62.333     -189.941  
2719.299987 65.272     -130.059  
2719.399986 67.618     -190      
2719.499986 65.814     -190      
2719.599986 69.727     -189.941  
2719.699986 66.318     -130.059  
2719.799986 63.821     -190      
2719.899986 65.204     -189.941  
2719.999986 59.171     -130.059  
2720.099986 60.299     -190      
2720.199986 59.433     -189.97   
2720.299985 62.793     -159.03   
2720.399985 66.313     -190.005  
2720.499985 69.339     -194.995  
2720.599985 68.001     -190      
2720.699985 68.786     -189.972  
2720.799985 54.088     -161.028  
2720.899985 62.459     -190      
2720.999985 61.934     -190      
2721.099985 56.031     -190      
2721.199984 67.275     -190      
2721.299984 62.314     -190      
2721.399984 66.201     -190      
2721.499984 67.523     -190      
2721.599984 60.555     -190      
2721.699984 65.502     -189.942  
2721.799984 56.992     -131.058  
2721.899984 59.16      -189.971  
2721.999984 68.865     -160.029  
2722.099983 63.777     -190      
2722.199983 71.313     -189.941  
2722.299983 74.723     -130.059  
2722.399983 67.479     -189.941  
2722.499983 76.231     -130.029  
2722.599983 67.178     -160.029  
2722.699983 65.432     -189.942  
2722.799983 57.121     -131.058  
2722.899983 58.304     -189.941  
2722.999983 52.069     -130      
2723.099982 61.024     -130.059  
2723.199982 54.545     -189.941  
2723.299982 49.679     -130.059  
2723.399982 58.622     -190      
2723.499982 50.611     -190      
2723.599982 51.71      -190      
2723.699982 51.584     -189.942  
2723.799982 55.194     -131.058  
2723.899982 59.731     -189.941  
2723.999981 51.043     -130.059  
2724.099981 43.889     -189.971  
2724.199981 52.822     -159.971  
2724.299981 55.053     -130.059  
2724.399981 58.575     -189.941  
2724.499981 53.094     -130.059  
2724.599981 57.446     -190      
2724.699981 53.288     -189.97   
2724.799981 51.219     -159.03   
2724.89998 50.557     -190      
2724.99998 57.676     -190      
2725.09998 54.011     -189.941  
2725.19998 54.743     -130      
2725.29998 57.376     -130.059  
2725.39998 53.376     -190      
2725.49998 59.583     -190      
2725.59998 51.93      -190      
2725.69998 41.356     -190      
2725.799979 47.044     -190      
2725.899979 50.89      -189.941  
2725.999979 40.575     -130.059  
2726.099979 46.093     -190      
2726.199979 49.247     -189.941  
2726.299979 45.804     -130.059  
2726.399979 50.337     -190      
2726.499979 47.749     -190      
2726.599979 56.682     -190      
2726.699978 48.914     -189.942  
2726.799978 43.087     -131.058  
2726.899978 49.745     -189.941  
2726.999978 44.545     -130.059  
2727.099978 39.839     -190      
2727.199978 39.277     -190      
2727.299978 35.871     -190      
2727.399978 36.895     -189.941  
2727.499978 42.099     -130.059  
2727.599977 30.675     -190      
2727.699977 35.692     -190      
2727.799977 37.964     -190      
2727.899977 32.297     -190      
2727.999977 39.619     -189.941  
2728.099977 38.203     -130.059  
2728.199977 31.234     -190      
2728.299977 34.869     -190      
2728.399977 33.513     -190      
2728.499976 37.073     -190      
2728.599976 39.945     -190      
2728.699976 34.524     -190      
2728.799976 28.668     -190      
2728.899976 27.005     -189.941  
2728.999976 22.108     -130.059  
2729.099976 30.358     -189.941  
2729.199976 27.929     -130.058  
2729.299976 26.937     -189.001  
2729.399975 33.881     -190      
2729.499975 24.299     -190      
2729.599975 33.059     -190      
2729.699975 32.167     -189.942  
2729.799975 28.656     -131.058  
2729.899975 35.179     -190      
2729.999975 24.335     -190      
2730.099975 29.585     -190      
2730.199975 34.726     -190      
2730.299974 20.852     -190      
2730.399974 22.71      -190      
2730.499974 23.19      -190      
2730.599974 22.98      -189.941  
