~Version
 VERS              .         2.0                           : CWLS LOG ASCII STANDARD - VERSION 2.0
 WRAP              .         NO                            : ONE LINE PER DEPTH STEP
 DLM               .         SPACE                         : DELIMITING CHARACTER(SPACE TAB OR COMMA)
~Well Information
#_______________________________________________________________________________
#
#PARAMETER_NAME    .UNIT     VALUE                         : DESCRIPTION
#_______________________________________________________________________________
STRT               .M        2659.4                        : First reference value
STOP               .M        2769.4                        : Last reference value
STEP               .M        0.2                           : Step increment
NULL               .         -9999                         : Missing value
COMP               .                                       : Company
WELL               .         616                           : Well name
FLD                .                                       : Field
LOC                .                                       : Location
CNTY               .                                       : County
STAT               .                                       : State
CTRY               .                                       : Country
SRVC               .                                       : Service Company
DATE               .                                       : Date
API                .                                       : API number
PROJECT_UPGRADE_TIME .         2021-03-18T21_24_50           : 
group              .         Good                          : 
~Parameter Information Block
#_______________________________________________________________________________
#
#PARAMETER_NAME    .UNIT     VALUE                         : DESCRIPTION
#_______________________________________________________________________________
SET                .         D1171_D                       : 
OTHER              .         Программное обеспечение станции MONITOR-386EX 25/12/99 15_08_10   BGF V52 22/08/01 16_56_30   3.2_BGF_N_3070031: 
OTHER_10           .         Тарировки_                    : 
OTHER_11           .         TM.GRD = 0.00403*TM$.UE + -1.19: 
OTHER_12           .         MN.ATM = (7.1e-006*TM.GRD + 0.02017)*(MN$.UE + -3.03*TM.GRD + -1833): 
OTHER_13           .         Id error                      : 
OTHER_2            .         Kedr.exe версия 3.4.2.51      : 
OTHER_3            .         KedrData.dll версия 3.4.2.24  : 
OTHER_4            .         Драйвер версия 2.1.1.8        : 
OTHER_5            .         Мнемоники версия 3.3 S        : 
OTHER_6            .         Прибор_ КСА-М1                : 
OTHER_7            .         Номер прибора_ 265            : 
OTHER_8            .         Режим_ КСА-М1                 : 
OTHER_9            .         Форма_ ТЕРМОМЕТР              : 
PROJECT_UPGRADE_TIME .         2021-03-18T21_24_49           : 
TLFamily_DEPT      .         Measured Depth                : 
TLFamily_GK        .         Gamma Ray                     : 
TLFamily_GK$       .                                       : 
TLFamily_LM        .         Casing Collar locator         : 
TLFamily_METKA     .                                       : 
TLFamily_MN        .                                       : 
TLFamily_MN$       .                                       : 
TLFamily_RCOR      .                                       : 
TLFamily_SPID      .         Spontaneous Potential         : 
TLFamily_STD       .                                       : 
TLFamily_TENS      .         Cable Tension                 : 
TLFamily_TIME      .         Time                          : 
TLFamily_TM        .         Temperature                   : 
TLFamily_TM$       .         Temperature                   : 
TLFamily_VGD       .         Gas Volume                    : 
group              .         prim                          : 
~Curve Information
#_______________________________________________________________________________
#
#LOGNAME           .UNIT     LOG_ID                        : DESCRIPTION
#_______________________________________________________________________________
DEPT               .M                                      : 1 Глубина, м -    0.0 см 
GK                 .MKR/H                                  : 15 Гамма-активность, мкр./ч -  110.0 см 
GK$                .UE                                     : 12 Гамма-активность, усл.ед. -  110.0 см 
LM                 .                                       : 10 Локатор муфт,  -   20.0 см 
METKA              .                                       : 3 Метки,  -    0.0 см 
MN                 .ATM                                    : 14 Давление, атм. -  160.0 см 
MN$                .UE                                     : 8 Давление, усл.ед. -  160.0 см 
RCOR               .CM/KM                                  : 5 Коррекция по ролику, см/км -    0.0 см 
SPID               .M/H                                    : 2 Скорость, м/час -    0.0 см 
STD                .                                       : 11 Приток,  -  170.0 см 
TENS               .T                                      : 6 Натяжение кабеля, т -    0.0 см 
TIME               .S                                      : 4 Время, сек -    0.0 см 
TM                 .GRD                                    : 13 Температура, °C -  180.0 см 
TM$                .UE                                     : 7 Температура, усл.ед. -  180.0 см 
VGD                .                                       : 9 Влагомер,  -  170.0 см 
~Ascii
# ...
2669.2     5.77       240        1          0          255.924    14411      -1400      618        30772      0          27661.37   84.407     21240      6596      
2669.4     5.66       240        1          0          255.95     14412      -1400      618        30769      0          27662.53   84.411     21241      6596      
2669.6     5.77       258        1          0          255.987    14414      -1400      624        30769      0          27663.69   84.416     21242      6596      
2669.8     5.99       261        1          0          256        14415      -1400      614        30772      0          27664.91   84.423     21244      6596      
2670       6.12       268        1          2          256.008    14415      -1400      618        30775      0          27666.03   84.43      21246      6595      
2670.2     6.76       301        1          0          256.032    14416      -1400      618        30777      0          27667.23   84.433     21246      6596      
2670.4     6.95       301        1          0          256.068    14418      -1400      618        30780      0          27668.46   84.436     21247      6594      
2670.6     6.98       299        787        0          256.05     14417      -1400      618        30783      0          27669.61   84.443     21249      6595      
2670.8     6.99       299        170        0          256.097    14419      -1400      622        30787      0          27670.76   84.448     21250      6595      
2671       6.51       261        1          0          256.113    14420      -1400      617        30792      0          27671.94   84.452     21251      6594      
2671.2     6.22       261        1          0          256.142    14421      -1400      612        30793      0          27673.12   84.46      21253      6594      
2671.4     6.68       297        1          0          256.154    14422      -1400      619        30796      0          27674.26   84.466     21255      6594      
2671.6     6.86       297        1          0          256.163    14422      -1400      623        30800      0          27675.42   84.47      21256      6594      
2671.8     7.42       337        1          0          256.196    14424      -1400      613        30806      0          27676.58   84.472     21256      6593      
2672       7.73       337        1          0          256.217    14425      -1400      619        30808      0          27677.75   84.48      21258      6594      
2672.2     7.99       352        1          0          256.25     14427      -1400      619        30814      0          27678.9    84.484     21259      6594      
2672.4     8.16       352        1          0          256.259    14427      -1400      624        30817      0          27680.07   84.492     21261      6593      
2672.6     8.37       372        1          0          256.28     14428      -1400      618        30817      0          27681.25   84.497     21262      6593      
2672.8     8.7        379        1          0          256.301    14429      -1400      617        30818      0          27682.37   84.504     21264      6593      
2673       8.76       372        1          0          256.321    14430      -1400      611        30821      0          27683.55   84.504     21264      6593      
2673.2     8.39       351        1          0          256.342    14431      -1400      613        30827      0          27684.72   84.51      21265      6592      
2673.4     8.27       351        1          0          256.342    14431      -1400      614        30831      0          27685.85   84.516     21267      6592      
2673.6     7.68       314        1          0          256.375    14433      -1400      619        30831      0          27687.03   84.52      21268      6593      
2673.8     7.46       314        1          0          256.384    14433      -1400      621        30834      0          27688.2    84.526     21270      6592      
2674       7.49       321        1          0          256.405    14434      -1400      613        30837      0          27689.38   84.532     21271      6592      
2674.2     7.5        321        1          0          256.426    14435      -1400      620        30839      0          27690.51   84.536     21272      6592      
2674.4     8.17       369        1          0          256.455    14436      -1400      625        30842      0          27691.62   84.54      21273      6592      
2674.6     8.48       369        1          0          256.468    14437      -1400      613        30846      0          27692.84   84.543     21274      6592      
2674.8     8.68       378        1          0          256.486    14438      -1400      619        30848      0          27694.01   84.548     21275      6592      
2675       8.79       378        1          0          256.51     14439      -1400      619        30853      0          27695.15   84.552     21276      6592      
2675.2     8.51       339        1          0          256.515    14439      -1400      624        30855      0          27696.34   84.556     21277      6591      
2675.4     8.12       339        1          0          256.531    14440      -1400      619        30857      0          27697.46   84.56      21278      6591      
2675.6     8.03       344        1          0          256.551    14441      -1400      617        30858      0          27698.63   84.564     21279      6591      
2675.8     8.19       353        1          0          256.572    14442      -1400      612        30860      0          27699.81   84.568     21280      6591      
2676       8.23       353        1          0          256.593    14443      -1400      614        30863      0          27700.98   84.574     21281      6591      
2676.2     8.58       375        1          0          256.631    14445      -1400      614        30867      0          27702.11   84.576     21282      6590      
2676.4     8.71       375        1          0          256.614    14444      -1400      619        30868      0          27703.28   84.58      21283      6591      
2676.6     8.44       351        1          0          256.64     14445      -1400      620        30867      0          27704.4    84.585     21284      6591      
2676.8     8.28       351        1          0          256.677    14447      -1400      613        30873      0          27705.63   84.593     21286      6591      
2677       8.48       368        1          0          256.677    14447      -1400      620        30879      0          27706.76   84.597     21287      6590      
2677.2     8.57       368        1          0          256.698    14448      -1400      625        30882      0          27707.88   84.603     21289      6590      
2677.4     8.91       393        1          0          256.719    14449      -1400      618        30884      0          27709.1    84.606     21289      6591      
2677.6     9.1        393        1          0          256.736    14450      -1400      619        30885      0          27710.27   84.613     21291      6591      
2677.8     8.92       368        1          0          256.76     14451      -1400      619        30889      0          27711.41   84.613     21291      6590      
2678       8.71       368        1          0          256.781    14452      -1400      624        30891      0          27712.53   84.619     21293      6590      
2678.2     8.65       369        1          0          256.802    14453      -1400      618        30891      0          27713.71   84.625     21294      6590      
2678.4     8.65       370        1          0          256.838    14455      -1400      617        30893      0          27714.89   84.618     21292      6590      
2678.6     8.69       374        1          0          256.852    14455      -1400      611        30894      0          27716.07   84.636     21297      6590      
2678.8     8.91       386        1          0          256.865    14456      -1400      613        30898      0          27717.23   84.638     21297      6590      
