~Version
 VERS              .         2.0                           : CWLS LOG ASCII STANDARD - VERSION 2.0
 WRAP              .         NO                            : ONE LINE PER DEPTH STEP
 DLM               .         SPACE                         : DELIMITING CHARACTER(SPACE TAB OR COMMA)
~Well Information
#_______________________________________________________________________________
#
#PARAMETER_NAME    .UNIT     VALUE                         : DESCRIPTION
#_______________________________________________________________________________
STRT               .M        827.6                         : First reference value
STOP               .M        1707.2                        : Last reference value
STEP               .M        0.2                           : Step increment
NULL               .         -9999                         : Missing value
COMP               .                                       : Company
WELL               .         616                           : Well name
FLD                .                                       : Field
LOC                .                                       : Location
CNTY               .                                       : County
STAT               .                                       : State
CTRY               .                                       : Country
SRVC               .                                       : Service Company
DATE               .                                       : Date
API                .                                       : API number
PROJECT_UPGRADE_TIME .         2021-03-18T21_24_50           : 
group              .         Good                          : 
~Parameter Information Block
#_______________________________________________________________________________
#
#PARAMETER_NAME    .UNIT     VALUE                         : DESCRIPTION
#_______________________________________________________________________________
SET                .         616_8                         : 
CONF               .         00                            : 
END                .         0                             : 
ERR                .         0                             : 
GS00               .M        1705.33                       : 
GS01               .M        0825.11                       : 
MM00               .M        0210.00                       : 
NOKG               .         0                             : 
NPR                .         980615                        : 
PART               .         Бутенко                       : 
PROJECT_UPGRADE_TIME .         2021-03-18T21_24_49           : 
PRZK               .         Шакиров                       : 
TLFamily_AZIMUTH   .         True Dip Azimuth              : 
TLFamily_DEPTH     .         Measured Depth                : 
TLFamily_METKA     .                                       : 
TLFamily_ROLL      .                                       : 
TLFamily_SPEED     .         Spontaneous Potential         : 
TLFamily_ZENIT     .                                       : 
VPRG               .         310                           : 
WAY                .         UP                            : 
group              .         prim                          : 
~Curve Information
#_______________________________________________________________________________
#
#LOGNAME           .UNIT     LOG_ID                        : DESCRIPTION
#_______________________________________________________________________________
DEPTH              .M                                      :  
AZIMUTH            .DEG                                    :  
METKA              .                                       :  
ROLL               .DEG                                    :  
SPEED              .M/H                                    :  
ZENIT              .DEG                                    :  
~Ascii
# ...
1681.6     261.28     0          333.43     612        25.3      
1681.8     261.49     0          333.43     612        25.26     
1682       261.86     0          334.19     576        25.2      
1682.2     264.16     1          335.48     612        25.23     
1682.4     265.43     0          336.37     3456       25.1      
1682.6     266.81     0          336.66     3456       25.12     
1682.8     268.19     0          336.94     3456       25.14     
1683       269.57     0          337.22     3456       25.16     
1683.2     270.95     0          337.5      3456       25.18     
1683.4     289.94     0          338.28     612        25.37     
1683.6     326.22     0          338.58     612        25        
1683.8     202.65     0          338.4      612        25.47     
1684       242.6      0          337.89     612        25.23     
1684.2     331.93     0          337.43     612        25.49     
1684.4     292.94     0          337.18     612        25.25     
1684.6     269.49     0          336.37     612        25.7      
1684.8     265.49     0          333.4      576        25.52     
1685       264.16     0          333.17     540        25.54     
1685.2     260.22     0          332.7      468        24.87     
1685.4     263.8      0          322.39     468        24.58     
1685.6     263.39     0          298.74     468        25.1      
1685.8     260.17     0          289.04     468        24.49     
1686       266.21     0          279.2      468        25.42     
1686.2     263.38     0          258.23     468        25.13     
1686.4     259.97     0          231.97     468        25.21     
1686.6     263.57     0          204.4      468        24.68     
1686.8     261.17     0          171.83     468        24.79     
1687       260.86     0          138.56     468        23.98     
1687.2     265.51     0          97.16      468        24.34     
1687.4     264.58     0          63.91      468        25.06     
1687.6     258.51     0          34.61      468        24.61     
1687.8     262.81     0          4.28       468        24.9      
1688       257.77     0          342.45     468        24.09     
1688.2     260.1      0          337.84     468        24.95     
1688.4     259.22     0          338.06     468        24.67     
1688.6     258.06     0          340.03     432        24.45     
1688.8     260.58     0          341.99     468        24.92     
1689       258.43     0          342.07     468        24.33     
1689.2     259.9      0          340.14     504        24.76     
1689.4     259.71     0          338.39     468        24.74     
1689.6     258.56     0          336.44     432        24.47     
1689.8     260.8      0          335.86     468        25.05     
1690       258.75     0          335.61     468        24.46     
1690.2     260.69     0          335.78     468        24.85     
1690.4     259.76     0          334.35     468        24.5      
1690.6     263.1      0          324.12     468        24.29     
1690.8     260.13     0          298.16     468        24.31     
1691       264.72     0          278.77     468        24.64     
1691.2     261.38     0          258.6      468        24.55     
1691.4     264.05     0          236        468        25.11     
1691.6     263.08     0          210.07     468        24.95     
1691.8     257.24     0          172.84     468        22.92     
1692       260.3      0          130.5      468        24.24     
1692.2     255.9      0          89.44      468        24.38     
1692.4     259.45     2          75.01      324        24.37     
1692.6     259.27     0          30.05      360        24.57     
1692.8     261.35     0          358.47     468        24.72     
1693       260.82     1          344.78     468        24.63     
1693.2     260.05     0          341.04     684        24.5      
1693.4     260.55     0          338.39     468        24.61     
1693.6     259.19     0          334.18     504        24.1      
1693.8     258.17     0          317.64     468        23.46     
1694       264.5      0          286.46     468        24.89     
1694.2     267.58     0          257.45     468        24.9      
1694.4     261.08     0          221.05     468        24.85     
1694.6     264.19     0          177.62     468        24.65     
1694.8     267.14     0          134.81     468        23.51     
1695       267.48     0          90.24      468        24.7      
1695.2     263.6      0          50.89      468        24.95     
1695.4     266.1      0          14.55      468        24.34     
1695.6     273.83     0          347.38     468        24.37     
1695.8     305.9      0          333.77     468        24.19     
1696       292.77     0          294.08     468        24.65     
1696.2     180.94     0          243.76     468        25.48     
1696.4     110.73     0          187.61     468        23.08     
1696.6     354.38     0          120.17     468        23.66     
1696.8     286.33     0          55.05      468        25.83     
1697       264.82     0          8.95       504        24.38     
1697.2     262.42     0          341.17     432        24.49     
1697.4     262.05     0          329.39     468        23.45     
1697.6     263.56     0          293.58     468        22.94     
1697.8     271.91     0          242.35     468        25.27     
1698       260.49     0          186.17     468        24.11     
1698.2     273.61     0          122.43     468        23.77     
1698.4     265.11     0          67.56      504        24.69     
1698.6     261.88     0          17.56      504        24.27     
1698.8     258.64     0          344.72     468        23.71     
1699       262.37     0          336.15     468        24.23     
1699.2     260.03     0          330.42     468        23.22     
1699.4     262.02     0          326.6      468        23.89     
1699.6     266.73     0          312.64     180        23.96     
1699.8     259.06     0          300.21     288        22.72     
1700       259.19     0          221.7      108        23.73     
1700.2     266.97     0          46.99      468        25.02     
1700.4     256.99     0          353.4      468        23.66     
1700.6     261.15     0          320.34     468        22.53     
1700.8     277.51     0          270.22     468        25.59     
1701       256.17     0          206.86     468        23.58     
1701.2     274.77     0          130.48     504        24.08     
1701.4     265.69     0          54.5       468        24.61     
1701.6     257.1      0          351.26     468        23.93     
1701.8     272.65     1          302.48     828        23.68     
1702       270.36     0          263.08     468        24.86     
1702.2     255.61     0          182.58     468        22        
1702.4     275.56     0          89.39      468        24.89     
1702.6     259.2      0          11.76      504        24.2      
1702.8     263.83     0          315.87     468        22.48     
1703       286.91     0          251.17     468        28.22     
1703.2     255.75     1          171.62     828        22.49     
1703.4     257.44     2          134.54     468        23.91     
1703.6     270.55     0          55.39      252        24.84     
1703.8     265.92     0          327.06     468        23.19     
1704       272.75     0          242.65     468        25.12     
1704.2     269.42     0          145.26     468        22.92     
1704.4     267.4      0          53.43      468        24.57     
1704.6     272.07     0          333.33     468        22.71     
1704.8     287.25     0          237.98     468        25.11     
1705       279.41     0          108.28     504        24.56     
1705.2     265.96     0          357.05     468        22.26     
1705.4     283.4      0          257.06     468        23.54     
1705.6     287.16     0          123.03     468        24.38     
1705.8     259.75     0          12.16      468        21.73     
