~Version
 VERS              .         2.0                           : CWLS LOG ASCII STANDARD - VERSION 2.0
 WRAP              .         NO                            : ONE LINE PER DEPTH STEP
 DLM               .         SPACE                         : DELIMITING CHARACTER(SPACE TAB OR COMMA)
~Well Information
#_______________________________________________________________________________
#
#PARAMETER_NAME    .UNIT     VALUE                         : DESCRIPTION
#_______________________________________________________________________________
STRT               .M        5.8                           : First reference value
STOP               .M        2774.6                        : Last reference value
STEP               .M        0.2                           : Step increment
NULL               .         -9999                         : Missing value
COMP               .                                       : Company
WELL               .         616                           : Well name
FLD                .                                       : Field
LOC                .                                       : Location
CNTY               .                                       : County
STAT               .                                       : State
CTRY               .                                       : Country
SRVC               .                                       : Service Company
DATE               .                                       : Date
API                .                                       : API number
PROJECT_UPGRADE_TIME .         2021-03-18T21_24_50           : 
group              .         Good                          : 
~Parameter Information Block
#_______________________________________________________________________________
#
#PARAMETER_NAME    .UNIT     VALUE                         : DESCRIPTION
#_______________________________________________________________________________
SET                .         D1747_D                       : 
OTHER              .         Программное обеспечение станции MONITOR-386EX 25/12/99 15_08_10   BGF V52 22/08/01 16_56_30   3.1_SNGF___BGF_N_111239: 
OTHER_10           .         Тарировки_                    : 
OTHER_11           .         <_techsia_sc_> Постоянная времени фильтра ГК  3.0 сек, kf=0.016529: 
OTHER_12           .         <_techsia_sc_> Постоянная времени фильтра ННК  3.0 сек, kf=0.016529: 
OTHER_13           .         GK.MKR/H = GK$.IMP/476        : 
OTHER_14           .         WSAT.PERC = -12.5 + 78.0 * (NKT2$.IMP / NKT1$.IMP) * 1731/33716: 
OTHER_15           .         NKT2.PRIV = NKT2$.IMP/33716   : 
OTHER_16           .         NKT1.PRIV = NKT1$.IMP/1731    : 
OTHER_2            .         Kedr.exe версия 3.3.2.32      : 
OTHER_3            .         KedrData.dll версия 3.3.2.17  : 
OTHER_4            .         Драйвер версия 2.1.1.9        : 
OTHER_5            .         Мнемоники версия 3.2 S        : 
OTHER_6            .         Прибор_ СРК-73Ц-1N            : 
OTHER_7            .         Номер прибора_ 906            : 
OTHER_8            .         Режим_ с локатором            : 
OTHER_9            .         Форма_ 623-1                  : 
PROJECT_UPGRADE_TIME .         2021-03-18T21_24_49           : 
TLFamily_DEPT      .         Measured Depth                : 
TLFamily_GK        .         Gamma Ray                     : 
TLFamily_GK$       .                                       : 
TLFamily_LM        .         Casing Collar locator         : 
TLFamily_METKA     .                                       : 
TLFamily_NKT1      .         Neutron Far                   : 
TLFamily_NKT1$     .         Neutron Far                   : 
TLFamily_NKT2      .         Neutron Near                  : 
TLFamily_NKT2$     .         Neutron Near                  : 
TLFamily_RCOR      .                                       : 
TLFamily_SPID      .         Spontaneous Potential         : 
TLFamily_TENS      .         Cable Tension                 : 
TLFamily_TIME      .         Time                          : 
TLFamily_WSAT      .         Neutron Porosity              : 
group              .         prim                          : 
~Curve Information
#_______________________________________________________________________________
#
#LOGNAME           .UNIT     LOG_ID                        : DESCRIPTION
#_______________________________________________________________________________
DEPT               .M                                      : 1 Глубина, м -    0.0 см 
GK                 .MKR/H                                  : 11 Гамма-активность, мкр./ч -   97.0 см 
GK$                .IMP                                    : 9 Гамма-активность, имп/мин -   97.0 см 
LM                 .                                       : 10 Локатор муфт,  -   27.0 см 
METKA              .                                       : 3 Метки,  -    0.0 см 
NKT1               .PRIV                                   : 14 Большой зонд приведенный,  -  278.0 см 
NKT1$              .IMP                                    : 8 Большой зонд, имп/мин -  278.0 см 
NKT2               .PRIV                                   : 13 Малый зонд приведенный,  -  289.0 см 
NKT2$              .IMP                                    : 7 Малый зонд, имп/мин -  289.0 см 
RCOR               .CM/KM                                  : 5 Коррекция по ролику, см/км -    0.0 см 
SPID               .M/H                                    : 2 Скорость, м/час -    0.0 см 
TENS               .T                                      : 6 Натяжение кабеля, т -    0.0 см 
TIME               .S                                      : 4 Время, сек -    0.0 см 
WSAT               .PERC                                   : 12 Водонасыщенная пористость, % -  284.0 см 
~Ascii
# ...
369.8      3.7        1759       6          1          0.72       1251.39    0.68       22906.41   -459       -700       0          28060.55   29.27     
370        3.82       1817       33         0          0.74       1280.51    0.67       22581.86   -459       -700       0          28059.56   29.59     
370.2      3.89       1852       44         0          0.8        1389.24    0.67       22517.72   -459       -699       0          28058.57   29.62     
370.4      3.64       1732       38         0          0.85       1473.07    0.67       22426.84   -459       -690       0          28057.54   28.72     
370.6      3.59       1708       37         0          0.78       1342.65    0.66       22178.17   -459       -700       0          28056.49   27.26     
370.8      3.84       1829       46         0          0.75       1294.93    0.65       22004.68   -459       -700       0          28055.49   25.9      
371        4.03       1918       10         0          0.76       1319.8     0.64       21415.92   -459       -700       0          28054.49   26.99     
371.2      4.18       1991       24         0          0.74       1274.44    0.64       21653.24   -459       -769       0          28053.49   27.55     
371.4      4.47       2126       19         0          0.76       1310.9     0.64       21613.77   -459       -700       0          28052.49   27.06     
371.6      4.43       2109       33         0          0.71       1228.49    0.65       21885.33   -459       -700       0          28051.49   27.11     
371.8      4.65       2214       57         0          0.69       1193.46    0.65       22013.21   -459       -700       0          28050.48   24.31     
372        4.36       2075       31         0          0.61       1049.6     0.67       22425.86   -459       -700       0          28049.48   25.39     
372.2      4.16       1979       17         0          0.62       1067.38    0.66       22330.2    -459       -700       0          28048.43   25.79     
372.4      4.04       1921       27         0          0.66       1140.9     0.69       23202.47   -459       -745       0          28047.43   27.02     
372.6      4.4        2094       24         0          0.64       1102.5     0.7        23456.82   -459       -651       0          28046.43   25.86     
372.8      4.48       2130       28         0          0.66       1141.45    0.71       23785.68   -459       -762       0          28045.38   28.59     
373        4.29       2042       38         0          0.66       1146.54    0.68       22928.77   -459       -700       0          28044.38   27.61     
373.2      4.05       1925       56         0          0.69       1195.49    0.68       23075.62   -459       -701       0          28043.43   27.91     
373.4      4.32       2057       13         0          0.72       1251.86    0.68       22996.61   -459       -719       0          28042.37   26.69     
373.6      4.14       1968       17         0          0.68       1179.16    0.69       23428.98   -459       -700       0          28041.4    28.77     
373.8      4.15       1974       12         0          0.74       1286.35    0.69       23204.69   -459       -700       0          28040.42   29.05     
374        3.71       1765       20         0          0.71       1229.19    0.68       22905.94   -459       -768       0          28039.37   28.42     
374.2      3.94       1875       38         0          0.69       1193.72    0.68       23056.68   -459       -700       0          28038.39   28.34     
374.4      3.82       1818       74         0          0.71       1229.01    0.69       23149.89   -459       -700       0          28037.37   29.76     
374.6      3.91       1862       25         0          0.64       1115.06    0.68       22881.61   -459       -690       0          28036.38   29.26     
374.8      4.06       1934       41         0          0.66       1137.63    0.68       22877.79   -459       -766       0          28035.35   27.71     
375        4.05       1928       19         0          0.63       1086.53    0.68       22775.04   -459       -698       0          28034.3    26.28     
375.2      4.18       1992       7          0          0.62       1067.22    0.67       22511.13   -459       -701       0          28033.3    25.89     
375.4      4.08       1940       24         0          0.66       1142.31    0.67       22739.36   -459       -707       0          28032.25   27.92     
375.6      4.28       2038       52         0          0.62       1076.05    0.65       22065.77   -459       -700       0          28031.25   25.64     
375.8      4.27       2034       23         0          0.68       1176.04    0.66       22337.29   -459       -761       0          28030.25   25.91     
376        4.39       2092       23         0          0.64       1109.85    0.65       22082.2    -459       -700       0          28029.29   25.57     
376.2      4.42       2102       15         0          0.69       1202.88    0.66       22344.6    -459       -769       0          28028.24   27.05     
376.4      4.1        1954       18         0          0.7        1213.34    0.67       22534.31   -459       -700       0          28027.29   28.43     
376.6      4.51       2145       12         0          0.74       1288       0.68       22867.71   -459       -700       0          28026.29   31.78     
376.8      4.43       2109       24         0          0.75       1299.25    0.67       22669.46   -459       -694       0          28025.24   29.21     
377        4.17       1986       14         0          0.71       1234.78    0.67       22687.49   -459       -700       0          28024.19   28.21     
377.2      4.06       1933       18         0          0.79       1375.68    0.67       22686.1    -459       -769       0          28023.19   27.02     
377.4      4.27       2031       39         0          0.76       1308.7     0.68       22849.68   -459       -700       0          28022.18   26.63     
377.6      3.97       1889       2477       0          0.79       1369.23    0.68       23004.38   -459       -720       0          28021.18   28.19     
377.8      4.21       2006       1963       0          0.78       1354.67    0.66       22241.88   -459       -700       0          28020.21   29.39     
378        4.53       2155       22         0          0.75       1301.12    0.66       22361.35   -459       -700       0          28019.18   28.64     
378.2      4.64       2209       12         0          0.72       1249.88    0.67       22426.12   -459       -700       0          28018.18   28.19     
378.4      4.14       1969       24         0          0.7        1220.34    0.65       21996.18   -459       -700       0          28017.15   26.4      
378.6      4.12       1960       14         0          0.71       1237.54    0.67       22555.29   -459       -748       0          28016.13   24.74     
378.8      4.4        2094       46         0          0.68       1175.27    0.66       22194.94   -459       -700       0          28015.15   24.03     
379        4.43       2110       13         0          0.66       1143.82    0.67       22480.25   -459       -644       0          28014.17   24.01     
379.2      4.1        1949       5          0          0.7        1217.29    0.68       22840.01   -459       -700       0          28013.12   28.93     
379.4      4.12       1960       19         0          0.74       1273.45    0.67       22744.35   -459       -700       0          28012.12   29.73     
379.6      3.99       1901       34         0          0.73       1260.59    0.67       22449.83   -459       -700       0          28011.12   28.32     
379.8      3.6        1712       25         1          0.71       1229.65    0.66       22417.16   -459       -709       0          28010.08   28.72     
380        3.58       1706       16         0          0.72       1250.38    0.68       22880.72   -458       -764       0          28009.02   27.09     
