~Version
 VERS              .         2.0                           : CWLS LOG ASCII STANDARD - VERSION 2.0
 WRAP              .         NO                            : ONE LINE PER DEPTH STEP
 DLM               .         SPACE                         : DELIMITING CHARACTER(SPACE TAB OR COMMA)
~Well Information
#_______________________________________________________________________________
#
#PARAMETER_NAME    .UNIT     VALUE                         : DESCRIPTION
#_______________________________________________________________________________
STRT               .M        209.2                         : First reference value
STOP               .M        612.6                         : Last reference value
STEP               .M        0.2                           : Step increment
NULL               .         -9999                         : Missing value
COMP               .                                       : Company
WELL               .         616                           : Well name
FLD                .                                       : Field
LOC                .                                       : Location
CNTY               .                                       : County
STAT               .                                       : State
CTRY               .                                       : Country
SRVC               .                                       : Service Company
DATE               .                                       : Date
API                .                                       : API number
PROJECT_UPGRADE_TIME .         2021-03-18T21_24_50           : 
group              .         Good                          : 
~Parameter Information Block
#_______________________________________________________________________________
#
#PARAMETER_NAME    .UNIT     VALUE                         : DESCRIPTION
#_______________________________________________________________________________
SET                .         616_3                         : 
CONF               .         00                            : 
END                .         0                             : 
ERR                .         0                             : 
GS00               .M        0610.64                       : 
GS01               .M        0206.79                       : 
MM00               .M        0060.00                       : 
NOKG               .         1                             : 
NPR                .         980119                        : 
PART               .         Палагутин                     : 
PROJECT_UPGRADE_TIME .         2021-03-18T21_24_49           : 
PRZK               .         Шакиров                       : 
TLFamily_AZIMUTH   .         True Dip Azimuth              : 
TLFamily_DEPTH     .         Measured Depth                : 
TLFamily_METKA     .                                       : 
TLFamily_ROLL      .                                       : 
TLFamily_SPEED     .         Spontaneous Potential         : 
TLFamily_ZENIT     .                                       : 
VPRG               .         310                           : 
WAY                .         UP                            : 
group              .         prim                          : 
~Curve Information
#_______________________________________________________________________________
#
#LOGNAME           .UNIT     LOG_ID                        : DESCRIPTION
#_______________________________________________________________________________
DEPTH              .M                                      :  
AZIMUTH            .DEG                                    :  
METKA              .                                       :  
ROLL               .DEG                                    :  
SPEED              .M/H                                    :  
ZENIT              .DEG                                    :  
~Ascii
# ...
282.4      265.39     0          90.91      612        28.31     
282.6      267.64     0          92.46      648        28.78     
282.8      267.15     0          93.25      612        28.69     
283        267.01     0          93.6       648        28.61     
283.2      264.51     0          93.2       648        28.02     
283.4      263.33     0          92.45      576        27.74     
283.6      263.95     0          91.97      648        27.83     
283.8      265.38     0          91.67      648        28.18     
284        267.21     0          91.72      648        28.59     
284.2      269.61     0          92.13      612        29.16     
284.4      267.91     0          94.19      648        29.05     
284.6      261.96     0          97.51      612        27.87     
284.8      258.98     0          99.88      612        27.15     
285        262.94     0          100.43     648        27.84     
285.2      269.13     0          100        648        29.27     
285.4      268.63     0          99.61      648        29.12     
285.6      268.15     0          99.26      648        29.04     
285.8      266.69     0          98.47      612        28.72     
286        264.1      0          97.51      684        28.21     
286.2      263.11     0          97.57      648        27.99     
286.4      263.71     0          98.2       612        28.14     
286.6      264.4      0          98.9       648        28.35     
286.8      267.05     0          99.44      612        28.93     
287        267.91     0          99.48      648        29.11     
287.2      267.8      0          99.51      576        29.1      
287.4      264.91     0          99.39      648        28.46     
287.6      263.71     0          99.13      648        28.21     
287.8      263.25     0          98.92      648        28.14     
288        265.02     0          98.64      612        28.52     
288.2      267.95     0          98.61      612        29.17     
288.4      268.87     0          98.62      648        29.39     
288.6      266.68     0          98.61      648        28.94     
288.8      264.91     0          98.43      648        28.51     
289        263.53     0          97.94      648        28.23     
289.2      262.69     0          97.71      576        28.1      
289.4      265.54     0          97.9       612        28.75     
289.6      267.96     0          98.31      648        29.28     
289.8      270.41     0          98.78      648        29.81     
290        267.46     0          99.26      648        29.18     
290.2      261.64     0          99.68      576        27.9      
290.4      260.86     0          99.6       648        27.72     
290.6      265.46     0          99.16      648        28.7      
290.8      266.27     0          98.66      612        28.85     
291        268.9      0          98.16      684        29.38     
291.2      270.4      0          98.02      612        29.65     
291.4      269.6      0          97.95      612        29.33     
291.6      268.59     0          98.12      648        28.88     
291.8      269.09     0          98.42      648        28.55     
292        274.8      0          98.98      648        28.65     
292.2      294.59     1          99.69      612        28.77     
292.4      341.6      0          100.41     612        29.74     
292.6      208.43     0          102.01     648        30        
292.8      224.09     0          103.13     648        29.56     
293        308.71     0          104.12     648        29.16     
293.2      290.46     0          104.94     576        28.98     
293.4      274.67     0          104.97     648        28.85     
293.6      270.17     0          103.62     576        29.23     
293.8      269.14     0          101.62     648        29.31     
294        269.15     0          99.16      648        29.36     
294.2      268.23     0          96.69      612        29.19     
294.4      267.1      0          95.78      648        28.99     
294.6      265.43     0          96.16      648        28.64     
294.8      263.85     0          98.03      576        28.42     
295        265.71     0          100.79     684        28.81     
295.2      270.08     0          102.83     612        29.75     
295.4      270.64     0          103.66     612        29.89     
295.6      265.49     0          103.36     684        28.79     
295.8      263.6      0          102.92     612        28.27     
296        265.06     0          103.03     612        28.66     
296.2      262.78     0          104.46     648        28.26     
296.4      261.55     0          107.11     648        28.02     
296.6      267.08     0          109.74     648        29.26     
296.8      267.77     0          111.96     612        29.48     
297        267.23     0          113.91     648        29.34     
297.2      266.93     0          114.69     576        29.16     
297.4      264.31     0          114.73     648        28.66     
297.6      264.36     0          114.49     648        28.68     
297.8      265.93     0          113.8      648        29.02     
298        268.71     0          112.8      612        29.43     
298.2      267.95     0          111.65     648        29.46     
298.4      266.96     0          113.49     612        29.51     
298.6      266.16     0          116.06     648        29.14     
298.8      265.11     0          117.52     648        28.9      
299        264.85     0          118.28     684        28.79     
299.2      265.4      0          118.05     540        28.97     
299.4      265.93     0          117.16     648        29.01     
299.6      266.83     0          116.69     648        29.2      
299.8      267.68     0          115.01     612        29.24     
300        265.03     0          113.97     648        28.91     
300.2      262.81     0          113.7      576        28.36     
300.4      262.78     0          113.79     648        28.33     
300.6      265.52     0          114.05     648        28.9      
300.8      268.64     0          114.19     648        29.58     
301        268.16     0          114.22     648        29.32     
301.2      266.94     0          113.8      612        29.1      
301.4      265.91     0          112.4      648        28.75     
301.6      264.16     0          110.85     648        28.25     
301.8      263.33     0          110.05     648        28.2      
302        265.28     0          109.89     648        28.67     
302.2      266.26     1          110.34     612        28.87     
302.4      268.51     0          110.88     612        29.21     
302.6      267.12     0          110.47     648        28.93     
302.8      264.97     0          110.79     648        28.4      
303        264.72     0          111.3      612        28.34     
303.2      265.7      0          111.39     648        28.39     
303.4      267.37     0          111.52     612        28.67     
303.6      268.9      0          112.23     648        28.86     
303.8      271.08     0          115.03     612        28.97     
304        277.49     0          118.36     648        28.85     
304.2      298.39     0          120.28     648        28.75     
304.4      342.03     0          121.94     648        28.56     
304.6      247.14     0          123.06     648        28.7      
304.8      225.43     0          124.07     648        28.79     
305        324.31     0          126.17     576        29.03     
305.2      298.11     0          129.36     648        28.98     
305.4      277.21     0          131.53     648        29.05     
305.6      269.91     0          131.21     648        28.83     
305.8      267        0          129.66     648        28.7      
306        265.8      0          128.44     612        28.55     
306.2      265.55     0          127.3      648        28.43     
306.4      265.83     0          127.46     648        28.56     
306.6      265.14     0          130.45     684        28.5      
