~Version
 VERS              .         2.0                           : CWLS LOG ASCII STANDARD - VERSION 2.0
 WRAP              .         NO                            : ONE LINE PER DEPTH STEP
 DLM               .         SPACE                         : DELIMITING CHARACTER(SPACE TAB OR COMMA)
~Well Information
#_______________________________________________________________________________
#
#PARAMETER_NAME    .UNIT     VALUE                         : DESCRIPTION
#_______________________________________________________________________________
STRT               .M        2648.2                        : First reference value
STOP               .M        2755.2                        : Last reference value
STEP               .M        0.2                           : Step increment
NULL               .         -9999                         : Missing value
COMP               .                                       : Company
WELL               .         616                           : Well name
FLD                .                                       : Field
LOC                .                                       : Location
CNTY               .                                       : County
STAT               .                                       : State
CTRY               .                                       : Country
SRVC               .                                       : Service Company
DATE               .                                       : Date
API                .                                       : API number
PROJECT_UPGRADE_TIME .         2021-03-18T21_24_50           : 
group              .         Good                          : 
~Parameter Information Block
#_______________________________________________________________________________
#
#PARAMETER_NAME    .UNIT     VALUE                         : DESCRIPTION
#_______________________________________________________________________________
SET                .         D7022_D                       : 
OTHER              .         Kedr.exe версия 2.1.2.32      : 
OTHER_10           .         TM.GRD = 0.00404*TM$.UE + 0.07: 
OTHER_11           .         MN.ATM = (6.33279e-006*TM.GRD + 0.02401)*(MN$.UE + 2.72*TM.GRD + -2018): 
OTHER_12           .         GK.MKR/H = GK$.UE / 43.5489 + 0: 
OTHER_13           .         RES.SM = 0.00476*CRES.UE - 1.51709: 
OTHER_14           .         PL.GSM3 = 0 + 0 * (PL.UE / 1) +  0 * (PL.UE / 1)^2: 
OTHER_15           .         Постоянная времени ГГП = 6 сек: 
OTHER_16           .         Постоянная времени ГК = 6 сек : 
OTHER_2            .         KedrData.dll версия 3.2.2.14  : 
OTHER_3            .         LasInf.dll версия 3.2.0.13    : 
OTHER_4            .         Драйвер версия 1.2.0.5        : 
OTHER_5            .         Прибор_ КСА-M1                : 
OTHER_6            .         Номер прибора_ 155+р204       : 
OTHER_7            .         Режим_ КСА-М1 + ГГП + Резистивиметр: 
OTHER_8            .         Форма_ 223\2                  : 
OTHER_9            .         Тарировки_                    : 
PROJECT_UPGRADE_TIME .         2021-03-18T21_24_50           : 
TLFamily_CRES      .                                       : 
TLFamily_DEPT      .         Measured Depth                : 
TLFamily_GK        .         Gamma Ray                     : 
TLFamily_GK$       .                                       : 
TLFamily_LM        .         Casing Collar locator         : 
TLFamily_METKA     .                                       : 
TLFamily_MN        .                                       : 
TLFamily_MN$       .                                       : 
TLFamily_PL        .                                       : 
TLFamily_PL_2      .                                       : 
TLFamily_RCOR      .                                       : 
TLFamily_RES       .         Mud Resistivity               : 
TLFamily_SPID      .         Spontaneous Potential         : 
TLFamily_STD       .                                       : 
TLFamily_TIME      .         Time                          : 
TLFamily_TM        .         Temperature                   : 
TLFamily_TM$       .         Temperature                   : 
TLFamily_VGD       .         Gas Volume                    : 
group              .         prim                          : 
~Curve Information
#_______________________________________________________________________________
#
#LOGNAME           .UNIT     LOG_ID                        : DESCRIPTION
#_______________________________________________________________________________
DEPT               .M                                      : 1 Глубина, м -    0.0 см 
CRES               .UE                                     : 9 Проводимость, усл.ед. -  222.0 см 
GK                 .MKR/H                                  : 16 Гамма-активность, мкр./ч -  106.0 см 
GK$                .UE                                     : 13 Гамма-активность, усл.ед. -  106.0 см 
LM                 .                                       : 11 Локатор муфт,  -   16.0 см 
METKA              .                                       : 3 Метки,  -    0.0 см 
MN                 .ATM                                    : 15 Давление, атм. -  160.0 см 
MN$                .UE                                     : 7 Давление, усл.ед. -  160.0 см 
PL                 .UE                                     : 10 Плотность, усл.ед. -  270.0 см 
PL_2               .GSM3                                   : 18 Плотность, г./см3 -  270.0 см 
RCOR               .CM/KM                                  : 5 Коррекция по ролику, см/км -    0.0 см 
RES                .SM                                     : 17 Проводимость,  -  222.0 см 
SPID               .M/H                                    : 2 Скорость, м/час -    0.0 см 
STD                .                                       : 12 Приток,  -  170.0 см 
TIME               .S                                      : 4 Время, сек -    0.0 см 
TM                 .GRD                                    : 14 Температура, °C -  180.0 см 
TM$                .UE                                     : 6 Температура, усл.ед. -  180.0 см 
VGD                .                                       : 8 Влагомер,  -  170.0 см 
~Ascii
# ...
2656.4     1207       8.92       368        139        0          318.646    14964      14         0          0          4.2274     560        10324      13897.29   52.676     13021      6659      
2656.6     1209       8.42       330        112        0          320.101    15024      14         0          0          4.2377     580        10325      13898.61   52.674     13021      6666      
2656.8     1207       8.01       330        105        0          319.418    14996      14         0          0          4.2298     533        10323      13899.92   52.666     13019      6660      
2657       1205       7.65       313        123        0          319.442    14997      14         0          0          4.2201     540        10323      13901.22   52.661     13018      6670      
2657.2     1204       7.42       313        101        0          319.994    15020      14         0          0          4.2124     580        10322      13902.52   52.652     13015      6663      
2657.4     1200       7.29       311        98         0          320.843    15055      14         0          0          4.1949     580        10320      13903.79   52.643     13013      6659      
2657.6     1204       7.22       311        104        0          320.106    15024      14         0          0          4.214      510        10319      13905.15   52.643     13013      6656      
2657.8     1205       7.54       352        161        0          320.248    15030      14         0          0          4.2164     510        10318      13906.44   52.637     13012      6657      
2658       1207       7.81       352        169        0          319.421    14996      14         0          0          4.2266     510        10315      13907.78   52.63      13010      6659      
2658.2     1205       8.21       378        193        0          319.506    15000      14         0          0          4.2187     510        10312      13909.05   52.623     13008      6660      
2658.4     1204       8.44       378        116        0          318.873    14974      14         0          0          4.2163     580        10310      13910.36   52.614     13006      6654      
2658.6     1204       8.46       369        121        0          319.634    15005      13         0          0          4.2147     580        10309      13911.63   52.609     13005      6660      
2658.8     1204       8.46       369        128        0          318.799    14971      14         0          0          4.216      570        10310      13912.91   52.596     13001      6661      
2659       1206       8.87       407        98         0          321.693    15090      14         0          0          4.2235     510        10307      13914.23   52.585     12999      6657      
2659.2     1205       9.08       402        71         0          321.217    15071      14         0          0          4.2167     580        10304      13915.53   52.578     12997      6661      
2659.4     1205       8.86       376        5535       0          321.748    15092      14         0          0          4.2163     580        10302      13916.84   52.568     12995      6662      
2659.6     1203       8.61       343        1332       0          323.95     15183      14         0          0          4.2076     570        10302      13918.12   52.567     12994      6663      
2659.8     1205       8.05       327        359        0          322.276    15114      14         0          0          4.218      580        10303      13919.44   52.562     12993      6662      
2660       1202       7.83       334        154        0          322.427    15120      14         0          0          4.206      545        10302      13920.76   52.557     12992      6652      
2660.2     1204       7.75       334        317        1          322.14     15109      14         0          0          4.2124     510        10301      13922.62   52.546     12989      6658      
2660.4     1200       7.8        355        212        0          322.192    15111      14         0          0          4.1965     557        10301      13923.9    52.535     12986      6665      
2660.6     1202       8.11       366        113        0          322.147    15109      14         0          0          4.2061     553        10298      13925.22   52.526     12984      6659      
2660.8     1202       8.48       414        99         0          321.872    15098      13         0          0          4.2029     580        10297      13926.48   52.513     12981      6655      
2661       1206       9          414        112        0          321.922    15100      14         0          0          4.2221     568        10293      13927.81   52.509     12980      6657      
2661.2     1206       9.57       437        109        0          321.522    15083      14         0          0          4.2243     550        10291      13929.12   52.505     12979      6666      
2661.4     1205       9.8        438        130        0          322.218    15112      14         0          0          4.2187     580        10288      13930.46   52.498     12977      6658      
2661.6     1207       9.96       441        136        0          322.704    15132      14         0          0          4.2266     580        10285      13931.73   52.492     12976      6663      
2661.8     1206       10.04      441        149        0          323.916    15182      14         0          0          4.2242     568        10280      13933      52.483     12974      6657      
2662       1205       9.74       410        105        0          323.782    15177      14         0          0          4.2171     580        10278      13934.27   52.472     12971      6663      
2662.2     1206       9.5        392        120        0          323.288    15156      14         0          0          4.2219     533        10278      13935.58   52.467     12970      6669      
2662.4     1204       9.06       374        148        0          323.166    15151      14         0          0          4.214      580        10279      13936.92   52.454     12966      6662      
2662.6     1199       8.71       347        130        0          323.266    15156      14         0          0          4.1902     580        10278      13938.19   52.441     12963      6663      
2662.8     1201       8.28       342        106        0          323.15     15151      14         0          0          4.1981     552        10280      13939.48   52.436     12962      6661      
2663       1200       7.92       316        143        0          323.55     15167      14         0          0          4.1973     580        10282      13940.77   52.431     12961      6665      
2663.2     1200       7.59       316        176        0          322.502    15124      14         0          0          4.1941     510        10282      13942.04   52.428     12960      6663      
2663.4     1201       7.45       321        137        0          325.486    15247      14         0          0          4.199      580        10282      13943.31   52.42      12958      6650      
2663.6     1199       7.41       321        132        0          324.337    15200      14         0          0          4.1882     510        10280      13944.65   52.42      12958      6661      
2663.8     1199       7.16       282        122        0          325.345    15241      14         0          0          4.192      580        10277      13945.96   52.415     12957      6650      
2664       1200       6.83       282        98         0          327.48     15329      14         0          0          4.1925     580        10275      13947.24   52.41      12955      6649      
2664.2     1204       6.36       242        100        0          325.873    15263      14         0          0          4.214      580        10271      13948.56   52.4       12953      6656      
2664.4     1199       5.97       242        104        0          326.221    15277      14         0          0          4.1901     545        10268      13949.9    52.387     12950      6659      
