~Version
 VERS              .         2.0                           : CWLS LOG ASCII STANDARD - VERSION 2.0
 WRAP              .         NO                            : ONE LINE PER DEPTH STEP
 DLM               .         SPACE                         : DELIMITING CHARACTER(SPACE TAB OR COMMA)
~Well Information
#_______________________________________________________________________________
#
#PARAMETER_NAME    .UNIT     VALUE                         : DESCRIPTION
#_______________________________________________________________________________
STRT               .M        44.8                          : First reference value
STOP               .M        2755.2                        : Last reference value
STEP               .M        0.2                           : Step increment
NULL               .         -9999                         : Missing value
COMP               .                                       : Company
WELL               .         616                           : Well name
FLD                .                                       : Field
LOC                .                                       : Location
CNTY               .                                       : County
STAT               .                                       : State
CTRY               .                                       : Country
SRVC               .                                       : Service Company
DATE               .                                       : Date
API                .                                       : API number
PROJECT_UPGRADE_TIME .         2021-03-18T21_24_50           : 
group              .         Good                          : 
~Parameter Information Block
#_______________________________________________________________________________
#
#PARAMETER_NAME    .UNIT     VALUE                         : DESCRIPTION
#_______________________________________________________________________________
SET                .         D4390_D_2                     : 
COMM               .                                       : 
OTHER              .         Запись производится в присутствии: 
OTHER_10           .         Максимальная температура      : 
OTHER_100          .         GK.FLT = 0.1*GR.UR/H[-1] + (1-0.1)*GR.UR/H[0]: 
OTHER_11           .         Тип промывочной жидкости      : 
OTHER_12           .         Сопротивление ПЖ (Ом*м) при 20°C: 
OTHER_13           .         Плотность ПЖ(г/см3)           : 
OTHER_14           .         Вязкость ПЖ(с)                : 
OTHER_15           .         Водоотдача ПЖ(см3/30мин)      : 
OTHER_16           .         Уровень ПЖ                    : 
OTHER_17           .         Нефть ПЖ (%)                  : 
OTHER_18           .         Барит ПЖ (%)                  : 
OTHER_19           .         Гематит ПЖ (%)                : 
OTHER_2            .         Заказчик ННСН  ЦДНГ-1         : 
OTHER_20           .         КМЦ ПЖ (%)                    : 
OTHER_21           .         Разгазирование ПЖ (да,нет)    : 
OTHER_22           .         Подъемник                     : 
OTHER_23           .         Лаборатория                   : 
OTHER_24           .         Тип кабеля                    : 
OTHER_25           .         Длина кабеля (м)              : 
OTHER_26           .         Цена последней метки          : 
OTHER_27           .         Цена контрольной метки        : 
OTHER_28           .         Диаметр долота (мм)           : 
OTHER_29           .         Глубина бурения (м)           : 
OTHER_3            .         Площадь                       : 
OTHER_30           .         Искусственный забой (м)       : 
OTHER_31           .         Диаметр колонны (мм)          : 
OTHER_32           .         Толщина колонны (мм)          : 
OTHER_33           .         Башмак колонны (м)            : 
OTHER_34           .         Диаметр НКТ (мм)              : 
OTHER_35           .         Толщина НКТ (мм)              : 
OTHER_36           .         Воронка НКТ (м)               : 
OTHER_37           .         Дата цементожа                : 
OTHER_38           .         Тип, количество(т) и плотность цемента: 
OTHER_39           .         Интервалы перфорации (м)      : 
OTHER_4            .         Категория                     : 
OTHER_40           .         Направление, диаметр (мм)     : 
OTHER_41           .         Направление, глубина (м)      : 
OTHER_42           .         Кондуктор, диаметр (мм)       : 
OTHER_43           .         Кондуктор, глубина (м)        : 
OTHER_44           .         Техническая колонна, диаметр (мм): 
OTHER_45           .         Техническая колонна, глубина (м): 
OTHER_46           .         Эксплуатационная колонна, диаметр (мм): 
OTHER_47           .         Эксплуатационная колонна, глубина (м): 
OTHER_48           .         Программа Кедр-02 версия 3.4  : 
OTHER_49           .         Операционная система Windows NT 5.1 build 2600 Service Pack 2: 
OTHER_5            .         Назначение исследований       : 
OTHER_50           .         Программное обеспечение станции MONITOR-386EX 25/12/99 15_08_10   BGF V54 20/09/05 15_32_17   3.3__BGF_9030071: 
OTHER_51           .         Kedr.exe версия 3.4.2.74      : 
OTHER_52           .         KedrData.dll версия 3.4.2.29  : 
OTHER_53           .         Мнемоники версия 3.18 S       : 
OTHER_54           .         Драйвер версия 2.1.1.4        : 
OTHER_55           .         LasInf.dll 4.3.0.35           : 
OTHER_56           .         Прибор_ КСА-Т4                : 
OTHER_57           .         Номер прибора_ 160            : 
OTHER_58           .         Режим_ КСА-Т4                 : 
OTHER_59           .         Форма_ С.А.Б.                 : 
OTHER_6            .         Альтитуда стола ротора        : 
OTHER_60           .         Тарировки_                    : 
OTHER_61           .         <_techsia_sc_> Дата тарировки температуры 25.05.2010: 
OTHER_62           .         Ручной ввод коэффициентов     : 
OTHER_63           .         TM.DEGC = 0.00402*RTM.E.ACP + -0.994: 
OTHER_64           .         <_techsia_sc_> Дата тарировки давления 25.05.2010: 
OTHER_65           .         Ручной ввод коэффициентов     : 
OTHER_66           .         MN.ATM = (2.27521e-006*TM.DEGC + 0.02078)*(RMN.E.ACP + 6.2*TM.DEGC + -1688): 
OTHER_67           .         <_techsia_sc_> Дата тарировки ГК 25.05.2010: 
OTHER_68           .         Ручной ввод коэффициентов     : 
OTHER_69           .         GR.UR/H = RGR.IMP/MIN / 45.5144: 
OTHER_7            .         Вид исследований 3  6         : 
OTHER_70           .         GK.FLT = 0.1*GR.UR/H[-1] + (1-0.1)*GR.UR/H[0]: 
OTHER_71           .         <_techsia_sc_> Дата тарировки температуры 25.05.2010: 
OTHER_72           .         Ручной ввод коэффициентов     : 
OTHER_73           .         TM.DEGC = 0.00402*RTM.E.ACP + -0.994: 
OTHER_74           .         <_techsia_sc_> Дата тарировки давления 25.05.2010: 
OTHER_75           .         Ручной ввод коэффициентов     : 
OTHER_76           .         MN.ATM = (2.27521e-006*TM.DEGC + 0.02078)*(RMN.E.ACP + 6.2*TM.DEGC + -1688): 
OTHER_77           .         <_techsia_sc_> Дата тарировки ГК 25.05.2010: 
OTHER_78           .         Ручной ввод коэффициентов     : 
OTHER_79           .         GR.UR/H = RGR.IMP/MIN / 45.5144: 
OTHER_8            .         Начало бурения интервала каротажа: 
OTHER_80           .         GK.FLT = 0.1*GR.UR/H[-1] + (1-0.1)*GR.UR/H[0]: 
OTHER_81           .         <_techsia_sc_> Дата тарировки температуры 25.05.2010: 
OTHER_82           .         Ручной ввод коэффициентов     : 
OTHER_83           .         TM.DEGC = 0.00402*RTM.E.ACP + -0.994: 
OTHER_84           .         <_techsia_sc_> Дата тарировки давления 25.05.2010: 
OTHER_85           .         Ручной ввод коэффициентов     : 
OTHER_86           .         MN.ATM = (2.27521e-006*TM.DEGC + 0.02078)*(RMN.E.ACP + 6.2*TM.DEGC + -1688): 
OTHER_87           .         <_techsia_sc_> Дата тарировки ГК 25.05.2010: 
OTHER_88           .         Ручной ввод коэффициентов     : 
OTHER_89           .         GR.UR/H = RGR.IMP/MIN / 45.5144: 
OTHER_9            .         Окончание бурения интервала каротажа: 
OTHER_90           .         GK.FLT = 0.1*GR.UR/H[-1] + (1-0.1)*GR.UR/H[0]: 
OTHER_91           .         <_techsia_sc_> Дата тарировки температуры 25.05.2010: 
OTHER_92           .         Ручной ввод коэффициентов     : 
OTHER_93           .         TM.DEGC = 0.00402*RTM.E.ACP + -0.994: 
OTHER_94           .         <_techsia_sc_> Дата тарировки давления 25.05.2010: 
OTHER_95           .         Ручной ввод коэффициентов     : 
OTHER_96           .         MN.ATM = (2.27521e-006*TM.DEGC + 0.02078)*(RMN.E.ACP + 6.2*TM.DEGC + -1688): 
OTHER_97           .         <_techsia_sc_> Дата тарировки ГК 25.05.2010: 
OTHER_98           .         Ручной ввод коэффициентов     : 
OTHER_99           .         GR.UR/H = RGR.IMP/MIN / 45.5144: 
PROJECT_UPGRADE_TIME .         2021-03-18T21_24_50           : 
PRTY               .         ПП-601-1                      : N партии
SRVC               .         Барковский                    : Начальник партии
TLFamily_DEPT      .         Measured Depth                : 
TLFamily_LM        .         Casing Collar locator         : 
TLFamily_METKA     .                                       : 
TLFamily_MN        .                                       : 
TLFamily_TM        .         Temperature                   : 
group              .         second                        : 
~Curve Information
#_______________________________________________________________________________
#
#LOGNAME           .UNIT     LOG_ID                        : DESCRIPTION
#_______________________________________________________________________________
DEPT               .M                                      : Depth curve 
LM                 .е.ацп                                  : Локатор муфт,е.ацп 
METKA              .е.ацп                                  : Магнитные метки,е.ацп 
MN                 .атм                                    : 12 Давление, атм. -  160.0 см 
TM                 .град.C                                 : Термограмма по стволу скважины,град.C 
~Ascii
# ...
950        2406.968   0          87.53      26.759    
950.2      1900.971   0          87.549     26.763    
950.4      1443.985   0          87.56      26.768    
950.6      1207.977   0          87.587     26.774    
950.8      846.986    0          87.617     26.783    
951        624        0          87.618     26.791    
951.2      624.995    0          87.627     26.798    
951.4      551.009    0          87.654     26.804    
951.6      696.995    0          87.662     26.808    
951.8      615.004    0          87.685     26.81     
952        679.998    0          87.705     26.815    
952.2      653.004    0          87.714     26.82     
952.4      719.996    0          87.727     26.825    
952.6      654.993    0          87.746     26.83     
952.8      550.004    0          87.772     26.838    
953        612.997    0          87.792     26.846    
953.2      562.996    0          87.804     26.852    
953.4      505        0          87.798     26.853    
953.6      509.018    0          87.852     26.857    
953.8      787.992    0          87.857     26.859    
954        664.996    0          87.866     26.864    
954.2      605.013    0          87.892     26.869    
954.4      810.026    0          87.9       26.874    
954.6      1211.999   0          87.922     26.878    
954.8      1192.001   2          87.927     26.883    
955        1207.99    0          87.953     26.888    
955.2      1050.984   0          87.966     26.897    
955.4      805.995    0          87.984     26.901    
955.6      734.99     0          87.989     26.903    
955.8      581.005    0          88.016     26.91     
956        654.998    0          88.041     26.913    
956.2      624.997    0          88.067     26.917    
956.4      577.009    0          88.074     26.923    
956.6      712.003    0          88.075     26.931    
956.8      755.999    0          88.118     26.938    
957        737.003    0          88.128     26.944    
957.2      775.993    0          88.141     26.953    
957.4      666.011    0          88.16      26.959    
957.6      836        0          88.165     26.967    
957.8      841        0          88.191     26.972    
958        838.992    0          88.206     26.977    
958.2      713.029    0          88.206     26.977    
958.4      1166.996   0          88.226     26.979    
958.6      1108.999   0          88.252     26.981    
958.8      1089.019   0          88.269     26.981    
959        1376.99    0          88.283     26.985    
959.2      1222.008   0          88.309     26.99     
959.4      1340.995   0          88.333     26.993    
959.6      1267.39    0          88.337     26.998    
959.8      7333.84    0          88.356     27.004    
960        4851.897   0          88.357     27.013    
960.2      3254.946   0          88.393     27.019    
960.4      2409.953   0          88.401     27.027    
960.6      1679.947   0          88.428     27.034    
960.8      855.997    0          88.453     27.044    
961        814.991    0          88.468     27.053    
961.2      671.008    0          88.485     27.067    
961.4      788.001    0          88.512     27.075    
961.6      806.005    0          88.513     27.08     
961.8      889.999    0          88.522     27.085    
962        867.994    0          88.547     27.086    
962.2      781.994    0          88.573     27.091    
962.4      694.998    0          88.578     27.097    
962.6      661.999    0          88.588     27.104    
962.8      654.022    0          88.621     27.109    
963        989.997    0          88.621     27.114    
963.2      936.997    0          88.639     27.119    
963.4      894.013    0          88.643     27.122    
963.6      1088.002   0          88.671     27.125    
963.8      1112.982   0          88.697     27.129    
964        838.004    0          88.722     27.134    
964.2      904.999    0          88.711     27.138    
964.4      895.004    0          88.73      27.14     
964.6      954.993    0          88.756     27.145    
964.8      853.999    2          88.781     27.149    
965        842.992    0          88.78      27.154    
965.2      727.011    0          88.811     27.16     
965.4      901.996    0          88.838     27.17     
965.6      835.012    0          88.846     27.177    
965.8      1024.996   0          88.87      27.178    
966        956.015    0          88.865     27.179    
966.2      1184.003   0          88.895     27.183    
966.4      1232.997   0          88.909     27.19     
966.6      1184.011   0          88.946     27.203    
966.8      1356.975   0          88.948     27.208    
967        972.997    0          88.969     27.213    
967.2      919.992    0          88.97      27.221    
967.4      799.998    0          89         27.227    
967.6      769.009    0          89.015     27.241    
967.8      903.984    0          89.057     27.25     
968        658.021    0          89.062     27.257    
968.2      978.347    0          89.08      27.262    
968.4      6322.858   0          89.093     27.267    
968.6      4142.912   0          89.102     27.271    
968.8      2784.908   0          89.104     27.278    
969        1370.98    0          89.131     27.285    
969.2      1068.984   0          89.156     27.29     
969.4      827        0          89.18      27.291    
969.6      821.994    0          89.188     27.291    
969.8      731.005    0          89.208     27.292    
970        810.997    0          89.213     27.297    
970.2      772.001    0          89.239     27.302    
970.4      781.998    0          89.253     27.311    
970.6      748.005    0          89.27      27.316    
970.8      830.012    0          89.276     27.324    
971        1019.001   0          89.321     27.329    
971.2      1033.996   0          89.333     27.331    
971.4      971.986    0          89.341     27.335    
971.6      763.008    0          89.361     27.339    
971.8      892.006    0          89.362     27.344    
972        978.982    0          89.384     27.349    
972.2      709.991    0          89.392     27.354    
972.4      570.014    0          89.418     27.359    
972.6      786.001    0          89.443     27.368    
972.8      805.013    0          89.468     27.373    
973        1003.993   0          89.473     27.381    
973.2      898.992    0          89.493     27.388    
973.4      783        0          89.504     27.395    
973.6      785.003    0          89.516     27.4      
973.8      830.991    0          89.516     27.405    
974        694.998    0          89.559     27.409    
974.2      664.003    0          89.567     27.417    
974.4      706.016    0          89.592     27.423    
974.6      955.987    0          89.616     27.428    
974.8      758.994    2          89.607     27.432    
975        668.012    0          89.645     27.437    
975.2      851.991    0          89.631     27.442    
975.4      721.998    0          89.657     27.443    
975.6      697.016    0          89.683     27.448    
975.8      936.992    0          89.69      27.454    
976        816.996    0          89.717     27.464    
976.2      751.999    0          89.755     27.473    
976.4      731.996    0          89.757     27.483    
976.6      670.009    0          89.758     27.489    
976.8      814.434    0          89.777     27.497    
977        7432.892   0          89.783     27.504    
977.2      5781.87    0          89.808     27.511    
977.4      3797.94    0          89.833     27.515    
977.6      2880.951   0          89.859     27.52     
977.8      2130.98    0          89.866     27.521    
978        1826.967   0          89.889     27.528    
978.2      1319.007   0          89.91      27.535    
978.4      1426.985   0          89.911     27.543    
978.6      1193.986   0          89.925     27.552    
978.8      984.012    0          89.95      27.553    
979        1162.01    0          89.975     27.558    
