~Version
 VERS              .         2.0                           : CWLS LOG ASCII STANDARD - VERSION 2.0
 WRAP              .         NO                            : ONE LINE PER DEPTH STEP
 DLM               .         SPACE                         : DELIMITING CHARACTER(SPACE TAB OR COMMA)
~Well Information
#_______________________________________________________________________________
#
#PARAMETER_NAME    .UNIT     VALUE                         : DESCRIPTION
#_______________________________________________________________________________
STRT               .M        2664                          : First reference value
STOP               .M        2769.2                        : Last reference value
STEP               .M        0.1999999                     : Step increment
NULL               .         -9999                         : Missing value
COMP               .                                       : Company
WELL               .         616                           : Well name
FLD                .                                       : Field
LOC                .                                       : Location
CNTY               .                                       : County
STAT               .                                       : State
CTRY               .                                       : Country
SRVC               .                                       : Service Company
DATE               .                                       : Date
API                .                                       : API number
PROJECT_UPGRADE_TIME .         2021-03-18T21_24_50           : 
group              .         Good                          : 
~Parameter Information Block
#_______________________________________________________________________________
#
#PARAMETER_NAME    .UNIT     VALUE                         : DESCRIPTION
#_______________________________________________________________________________
SET                .         D1161_D                       : 
OTHER              .         Программное обеспечение станции MONITOR-386EX 25/12/99 15_08_10   BGF V52 22/08/01 16_56_30   3.2_BGF_N_3070031: 
OTHER_10           .         Тарировки_                    : 
OTHER_11           .         TM.GRD = 0.00403*TM$.UE + -1.19: 
OTHER_12           .         MN.ATM = (7.1e-006*TM.GRD + 0.02017)*(MN$.UE + -3.03*TM.GRD + -1833): 
OTHER_13           .         Id error                      : 
OTHER_2            .         Kedr.exe версия 3.4.2.51      : 
OTHER_3            .         KedrData.dll версия 3.4.2.24  : 
OTHER_4            .         Драйвер версия 2.1.1.8        : 
OTHER_5            .         Мнемоники версия 3.3 S        : 
OTHER_6            .         Прибор_ КСА-М1                : 
OTHER_7            .         Номер прибора_ 265            : 
OTHER_8            .         Режим_ КСА-М1                 : 
OTHER_9            .         Форма_ ТЕРМОМЕТР              : 
PROJECT_UPGRADE_TIME .         2021-03-18T21_24_49           : 
TLFamily_DEPT      .         Measured Depth                : 
TLFamily_GK        .         Gamma Ray                     : 
TLFamily_GK$       .                                       : 
TLFamily_LM        .         Casing Collar locator         : 
TLFamily_METKA     .                                       : 
TLFamily_MN        .                                       : 
TLFamily_MN$       .                                       : 
TLFamily_RCOR      .                                       : 
TLFamily_SPID      .         Spontaneous Potential         : 
TLFamily_STD       .                                       : 
TLFamily_TENS      .         Cable Tension                 : 
TLFamily_TIME      .         Time                          : 
TLFamily_TM        .         Temperature                   : 
TLFamily_TM$       .         Temperature                   : 
TLFamily_VGD       .         Gas Volume                    : 
group              .         prim                          : 
~Curve Information
#_______________________________________________________________________________
#
#LOGNAME           .UNIT     LOG_ID                        : DESCRIPTION
#_______________________________________________________________________________
DEPT               .M                                      : 1 Глубина, м -    0.0 см 
GK                 .MKR/H                                  : 15 Гамма-активность, мкр./ч -  110.0 см 
GK$                .UE                                     : 12 Гамма-активность, усл.ед. -  110.0 см 
LM                 .                                       : 10 Локатор муфт,  -   20.0 см 
METKA              .                                       : 3 Метки,  -    0.0 см 
MN                 .ATM                                    : 14 Давление, атм. -  160.0 см 
MN$                .UE                                     : 8 Давление, усл.ед. -  160.0 см 
RCOR               .CM/KM                                  : 5 Коррекция по ролику, см/км -    0.0 см 
SPID               .M/H                                    : 2 Скорость, м/час -    0.0 см 
STD                .                                       : 11 Приток,  -  170.0 см 
TENS               .T                                      : 6 Натяжение кабеля, т -    0.0 см 
TIME               .S                                      : 4 Время, сек -    0.0 см 
TM                 .GRD                                    : 13 Температура, °C -  180.0 см 
TM$                .UE                                     : 7 Температура, усл.ед. -  180.0 см 
VGD                .                                       : 9 Влагомер,  -  170.0 см 
~Ascii
# ...
2752.2     9.13       393        1          0          256.061    14411      -1400      -291       32374      0          16301.92   89.997     22627      6428      
2752.4     8.8        384        1          0          256.082    14412      -1400      -302       32372      0          16299.42   90.001     22628      6428      
2752.6     8.21       350        1          0          256.11     14413      -1400      -301       32373      0          16297.02   90.005     22629      6427      
2752.8     8.27       357        1          0          256.139    14415      -1400      -301       32373      0          16294.66   90.01      22630      6426      
2753       7.84       334        1          0          256.145    14415      -1400      -306       32374      0          16292.23   90.013     22631      6427      
2753.2     8.07       343        1          0          256.166    14416      -1400      -303       32373      0          16289.83   90.017     22632      6426      
2753.4     8.33       358        1          0          256.187    14417      -1400      -298       32373      0          16287.54   90.021     22633      6424      
2753.6     8.02       342        1          0          256.207    14418      -1400      -296       32373      0          16285.07   90.032     22636      6425      
2753.8     8.21       351        1          0          256.228    14419      -1400      -303       32372      0          16282.64   90.034     22636      6424      
2754       8.25       352        1          0          256.249    14420      -1400      -298       32373      0          16280.28   90.041     22638      6422      
2754.2     8.08       344        1          0          256.27     14421      -1400      -301       32373      0          16277.96   90.049     22640      6422      
2754.4     8.35       350        1          0          256.291    14422      -1400      -303       32373      0          16275.45   90.054     22641      6422      
2754.6     8.41       361        1          0          256.313    14423      -1400      -307       32374      0          16273.05   90.061     22643      6422      
2754.8     7.83       347        1          0          256.313    14423      -1400      -301       32373      0          16270.69   90.074     22646      6421      
2755       7.37       331        1          0          256.334    14424      -1400      -297       32372      0          16268.36   90.08      22648      6420      
2755.2     7.07       308        1          0          256.355    14425      -1400      -311       32373      0          16265.86   90.09      22650      6419      
2755.4     6.83       299        1          0          256.376    14426      -1400      -301       32373      0          16263.58   90.098     22652      6420      
2755.6     6.47       283        1          0          256.397    14427      -1400      -304       32373      0          16261.18   90.107     22654      6420      
2755.8     6.36       270        1          0          256.418    14428      -1400      -307       32372      0          16258.67   90.116     22657      6419      
2756       6.45       274        1          0          256.434    14429      -1400      -305       32373      0          16256.27   90.126     22659      6418      
2756.2     6.74       275        1          0          256.46     14430      -1400      -303       32373      0          16253.98   90.134     22661      6419      
2756.4     7.68       317        1          0          256.474    14431      -1400      -299       32373      0          16251.59   90.143     22663      6418      
2756.6     8.15       349        1          0          256.481    14431      -1400      -300       32373      0          16249.2    90.15      22665      6416      
2756.8     8.14       347        1          0          256.502    14432      -1400      -302       32373      0          16246.8    90.158     22667      6416      
2757       8.15       353        1          0          256.544    14434      -1400      -297       32373      0          16244.4    90.174     22671      6416      
2757.2     7.57       337        1          0          256.545    14434      -1400      -303       32374      0          16241.93   90.198     22677      6415      
2757.4     6.4        280        1          0          256.567    14435      -1400      -299       32373      0          16239.6    90.218     22682      6416      
2757.6     5.74       238        1          0          256.605    14437      -1400      -294       32373      0          16237.21   90.27      22695      6415      
2757.8     6.72       276        211        0          256.612    14437      -1400      -298       32373      0          16234.92   90.332     22710      6414      
2758       8.07       339        1137       0          256.633    14438      -1400      -303       32373      0          16232.41   90.392     22725      6414      
2758.2     8.93       380        1          0          256.655    14439      -1400      -307       32373      0          16230.01   90.418     22732      6414      
2758.4     9.27       399        1          0          256.687    14440      -1400      -299       32373      0          16227.69   90.448     22739      6413      
2758.6     8.72       381        1          0          256.699    14441      -1400      -304       32373      0          16225.22   90.48      22747      6413      
2758.8     7.91       340        1          0          256.723    14442      -1400      -302       32373      0          16222.82   90.553     22765      6412      
2759       7.51       325        1          0          256.746    14443      -1400      -302       32374      0          16220.42   90.677     22796      6413      
2759.2     7.58       320        1          0          256.768    14444      -1400      -296       32374      0          16218.13   90.791     22824      6412      
2759.4     7.97       324        1          0          256.784    14445      -1400      -304       32373      0          16215.63   90.835     22835      6411      
2759.6     8.11       354        1          0          256.811    14446      -1400      -299       32374      0          16213.31   90.854     22840      6411      
2759.8     7.54       346        1          0          256.832    14447      -1400      -291       32374      0          16210.84   90.869     22843      6409      
2760       7.4        305        1          2          256.853    14448      -1400      -296       32373      0          16208.63   90.875     22845      6409      
2760.2     8          324        1          0          256.874    14449      -1400      -303       32373      0          16207.46   90.886     22848      6409      
2760.4     8.66       369        1          0          256.895    14450      -1400      -298       32374      0          16205.06   90.891     22849      6409      
2760.6     8.5        374        1          0          256.895    14450      -1400      -297       32373      0          16202.77   90.898     22850      6408      
2760.8     8.04       348        1          0          256.915    14451      -1400      -295       32373      0          16200.38   90.904     22852      6408      
2761       7.75       334        1          0          256.937    14452      -1400      -293       32373      0          16197.87   90.909     22853      6408      
2761.2     7.57       328        1          0          256.965    14453      -1400      -299       32374      0          16195.58   90.92      22856      6407      
2761.4     7.12       314        1          0          257        14455      -1400      -292       32372      0          16193.18   90.928     22858      6407      
2761.6     6.86       301        1          0          257.001    14455      -1400      -303       32373      0          16190.68   90.936     22860      6408      
2761.8     6.65       289        1          0          257.021    14456      -1400      -306       32373      0          16188.29   90.94      22861      6407      
