~Version
 VERS              .         2.0                           : CWLS LOG ASCII STANDARD - VERSION 2.0
 WRAP              .         NO                            : ONE LINE PER DEPTH STEP
 DLM               .         SPACE                         : DELIMITING CHARACTER(SPACE TAB OR COMMA)
~Well Information
#_______________________________________________________________________________
#
#PARAMETER_NAME    .UNIT     VALUE                         : DESCRIPTION
#_______________________________________________________________________________
STRT               .M        2668.8                        : First reference value
STOP               .M        2773                          : Last reference value
STEP               .M        0.1999999                     : Step increment
NULL               .         -9999                         : Missing value
COMP               .                                       : Company
WELL               .         616                           : Well name
FLD                .                                       : Field
LOC                .                                       : Location
CNTY               .                                       : County
STAT               .                                       : State
CTRY               .                                       : Country
SRVC               .                                       : Service Company
DATE               .                                       : Date
API                .                                       : API number
PROJECT_UPGRADE_TIME .         2021-03-18T21_24_50           : 
group              .         Good                          : 
~Parameter Information Block
#_______________________________________________________________________________
#
#PARAMETER_NAME    .UNIT     VALUE                         : DESCRIPTION
#_______________________________________________________________________________
SET                .         D0403_D                       : 
OTHER              .         Прибор_ АКП4_90               : 
OTHER_2            .         Номер прибора_ 56             : 
OTHER_3            .         Режим_ АКП4_90 - все каналы   : 
OTHER_4            .         Форма_ Г-1                    : 
OTHER_5            .         Тарировки_                    : 
OTHER_6            .         TM.GRD = 0.00379*TM$.UE + 7.11: 
OTHER_7            .         MN.ATM = (8e-006*TM.GRD + 0.02)*(MN$.UE + -8*TM.GRD + -1800): 
OTHER_8            .         GK.MKR/H = GK$.UE / 57.17 + 0 : 
PROJECT_UPGRADE_TIME .         2021-03-18T21_24_49           : 
TLFamily_DEPT      .         Measured Depth                : 
TLFamily_GK        .         Gamma Ray                     : 
TLFamily_GK$       .                                       : 
TLFamily_LM        .         Casing Collar locator         : 
TLFamily_METKA     .                                       : 
TLFamily_METKA_1   .                                       : 
TLFamily_MN        .                                       : 
TLFamily_MN$       .                                       : 
TLFamily_RCOR      .                                       : 
TLFamily_SPID      .         Spontaneous Potential         : 
TLFamily_TIME      .         Time                          : 
TLFamily_TM        .         Temperature                   : 
TLFamily_TM$       .         Temperature                   : 
group              .         second                        : 
~Curve Information
#_______________________________________________________________________________
#
#LOGNAME           .UNIT     LOG_ID                        : DESCRIPTION
#_______________________________________________________________________________
DEPT               .M                                      : 1 Глубина, м -    0.0 см 
GK                 .MKR/H                                  : 12 Гамма-активность, мкр./ч -   65.0 см 
GK$                .UE                                     : 9 Гамма-активность, усл.ед. -   65.0 см 
LM                 .                                       : 8 Локатор муфт,  -   30.0 см 
METKA              .                                       : 3 Метки,  -    0.0 см 
METKA_1            .                                       : 13 Маркеры - 65 см 
MN                 .ATM                                    : 11 Давление, атм. -  140.0 см 
MN$                .UE                                     : 7 Давление, усл.ед. -  140.0 см 
RCOR               .CM/KM                                  : 5 Коррекция по ролику, см/км -    0.0 см 
SPID               .M/H                                    : 2 Скорость, м/час -    0.0 см 
TIME               .S                                      : 4 Время, сек -    0.0 см 
TM                 .GRD                                    : 10 Температура, °C -  145.0 см 
TM$                .UE                                     : 6 Температура, усл.ед. -  145.0 см 
~Ascii
# ...
2724.8     4.65       278        1051       0          0          262.558    15178      0          -320       2154.79    85.505     20685     
2725       4.57       265        714        0          1          262.524    15176      0          -290       2152.38    85.478     20678     
2725.2     4.58       260        816        0          0          262.588    15179      0          -305       2149.98    85.44      20668     
2725.4     4.64       257        613        0          0          262.59     15179      0          -320       2147.57    85.4       20657     
2725.6     4.71       262        832        0          0          262.649    15182      0          -305       2145.15    85.362     20647     
2725.8     4.84       262        714        0          0          262.636    15181      0          -290       2142.74    85.32      20636     
2726       4.94       274        733        0          0          262.659    15182      0          -320       2140.24    85.294     20629     
2726.2     4.96       289        565        0          0          262.698    15184      0          -260       2137.92    85.261     20620     
2726.4     4.85       292        691        0          0          262.704    15184      0          -320       2135.5     85.241     20615     
2726.6     4.68       286        616        0          0          262.748    15186      0          -320       2133.09    85.194     20603     
2726.8     4.58       258        641        0          0          262.708    15184      0          -320       2130.72    85.178     20598     
2727       4.58       266        665        0          0          262.791    15188      0          -260       2128.27    85.163     20594     
2727.2     4.54       261        710        0          0          262.783    15187      0          -320       2125.96    85.139     20588     
2727.4     4.63       243        671        0          0          262.835    15190      0          -320       2123.51    85.127     20585     
2727.6     4.86       269        635        0          0          262.795    15188      0          -260       2121.06    85.107     20580     
2727.8     4.91       285        679        0          0          262.848    15191      0          -320       2118.62    85.09      20575     
2728       4.89       271        620        0          0          262.848    15190      0          -260       2116.3     85.074     20571     
2728.2     5          279        636        0          0          262.887    15192      0          -260       2113.86    85.059     20567     
2728.4     5.07       296        672        0          0          262.923    15194      0          -290       2111.48    85.044     20563     
2728.6     4.94       307        590        0          0          262.862    15191      0          -280       2109.09    85.036     20561     
2728.8     4.57       287        716        0          0          262.965    15196      0          -320       2106.66    85.027     20558     
2729       4.24       236        689        0          0          262.924    15194      0          -260       2104.34    85.017     20556     
2729.2     4.35       231        619        0          0          263.048    15200      0          -280       2101.9     85.013     20555     
2729.4     4.62       255        794        0          0          262.987    15197      0          -290       2099.51    85.01      20554     
2729.6     4.76       258        6732       0          0          263.008    15198      0          -320       2097.1     85.006     20553     
2729.8     4.91       272        6278       1          0          263.049    15200      0          -320       2094.65    85.002     20552     
2730       5.01       275        698        0          0          263.022    15199      0          -320       2091.44    84.998     20551     
2730.2     5.06       285        663        0          0          263.132    15204      0          -320       2088.87    84.997     20551     
2730.4     5.16       281        662        0          0          263.051    15200      0          -320       2086.54    84.993     20550     
2730.6     5.43       279        652        0          0          263.12     15203      0          -300       2084.1     84.991     20549     
2730.8     5.48       315        1050       0          0          263.112    15203      0          -260       2081.72    84.987     20548     
2731       5.45       310        759        0          0          263.148    15205      0          -260       2079.34    84.987     20548     
2731.2     5.45       328        715        0          0          263.154    15205      0          -320       2076.9     84.984     20547     
2731.4     5.18       313        654        0          0          263.133    15204      0          -320       2074.46    84.983     20547     
2731.6     4.91       296        646        0          0          263.278    15211      0          -260       2072.14    84.986     20548     
2731.8     4.66       287        740        0          0          263.154    15205      0          -320       2069.69    84.986     20548     
2732       4.56       254        778        0          0          263.244    15209      0          -260       2067.25    84.986     20548     
2732.2     4.77       246        716        0          0          263.247    15209      0          -320       2064.84    84.983     20547     
2732.4     5.13       260        748        0          0          263.244    15209      0          -320       2062.49    84.98      20546     
2732.6     5.36       284        783        0          0          263.36     15215      0          -320       2060.1     84.979     20546     
2732.8     5.43       311        743        0          0          263.265    15210      0          -320       2057.7     84.982     20547     
2733       5.37       316        877        0          0          263.333    15214      0          -320       2055.28    84.983     20547     
2733.2     5.36       301        757        0          0          263.299    15212      0          -320       2052.97    84.983     20547     
2733.4     5.47       299        893        0          0          263.34     15214      0          -280       2050.52    84.983     20547     
2733.6     5.48       328        779        0          0          263.386    15216      0          -280       2048.08    84.987     20548     
2733.8     5.31       318        826        0          0          263.32     15213      0          -280       2045.76    84.987     20548     
2734       5.24       291        778        0          0          263.423    15218      0          -320       2043.23    84.991     20549     
2734.2     5.38       292        785        0          0          263.376    15216      0          -320       2040.87    84.992     20549     
2734.4     5.6        296        798        0          0          263.443    15219      0          -280       2038.43    84.994     20550     
2734.6     5.86       323        903        0          0          263.504    15222      0          -280       2036.11    84.996     20550     
2734.8     5.93       344        823        0          0          263.43     15218      0          -320       2033.66    85.001     20552     
2735       5.86       339        877        0          0          263.532    15223      0          -320       2031.25    85.002     20552     
2735.2     5.76       348        974        0          0          263.484    15221      0          -300       2028.9     85.006     20553     
2735.4     5.46       342        856        0          0          263.561    15225      0          -300       2026.46    85.008     20553     
2735.6     5.18       281        746        0          0          263.565    15225      0          -320       2024.12    85.01      20554     
2735.8     5.45       276        779        0          0          263.58     15226      0          -320       2021.71    85.002     20552     
