~Version
 VERS              .         2.0                           : CWLS LOG ASCII STANDARD - VERSION 2.0
 WRAP              .         NO                            : ONE LINE PER DEPTH STEP
 DLM               .         SPACE                         : DELIMITING CHARACTER(SPACE TAB OR COMMA)
~Well Information
#_______________________________________________________________________________
#
#PARAMETER_NAME    .UNIT     VALUE                         : DESCRIPTION
#_______________________________________________________________________________
STRT               .M        3.4                           : First reference value
STOP               .M        832.4                         : Last reference value
STEP               .M        0.2                           : Step increment
NULL               .         -9999                         : Missing value
COMP               .                                       : Company
WELL               .         616                           : Well name
FLD                .                                       : Field
LOC                .                                       : Location
CNTY               .                                       : County
STAT               .                                       : State
CTRY               .                                       : Country
SRVC               .                                       : Service Company
DATE               .                                       : Date
API                .                                       : API number
PROJECT_UPGRADE_TIME .         2021-03-18T21_24_50           : 
group              .         Good                          : 
~Parameter Information Block
#_______________________________________________________________________________
#
#PARAMETER_NAME    .UNIT     VALUE                         : DESCRIPTION
#_______________________________________________________________________________
SET                .         ULN                           : 
PROJECT_UPGRADE_TIME .         2021-03-18T21_24_50           : 
TLFamily_AK4       .                                       : 
TLFamily_ALFAK     .                                       : 
TLFamily_AMPL      .                                       : 
TLFamily_DEPTH     .         Measured Depth                : 
TLFamily_DK1       .                                       : 
TLFamily_DK2       .                                       : 
TLFamily_DTK       .         Compressional Slowness        : 
TLFamily_QCBL      .                                       : 
TLFamily_T1        .         Travel Time 1                 : 
TLFamily_T2        .         Travel Time 2                 : 
group              .         prim                          : 
~Curve Information
#_______________________________________________________________________________
#
#LOGNAME           .UNIT     LOG_ID                        : DESCRIPTION
#_______________________________________________________________________________
DEPTH              .M                                      : 0 Depth curve 
AK4                .                                       : 2 Амплитуда - Волна по колонне - Канал1 
ALFAK              .дБ/м                                   : 1 Затухание - Волна по колонне 
AMPL               .                                       : 8 Коэффициент усиления ВС 
DK1                .дБ                                     : 3 Кривая ослабления - Волна по колонне - Канал1 
DK2                .дБ                                     : 4 Кривая ослабления - Волна по колонне - Канал2 
DTK                .мкс/м                                  : 5 ДельтаТ - Волна по породе 
QCBL               .                                       : 9 Контакт цемент-колонна 
T1                 .мкс                                    : 6 Время пробега - Волна по породе - Канал1 
T2                 .мкс                                    : 7 Время пробега - Волна по породе - Канал2 
~Ascii
# ...
61.8       24419.27   11.918     1          2.678      8.73       205.648    2          361.154    463.978   
62         24541.29   10.27      1          2.635      7.77       202.329    2          360.703    461.868   
62.2       24517.78   9.731      1          2.643      7.509      203.349    2          360.269    461.943   
62.4       24324.64   9.939      1          2.712      7.682      202.392    2          360.822    462.018   
62.6       24131.51   9.981      1          2.781      7.772      201.464    2          361.375    462.106   
62.8       24202.08   9.859      1          2.756      7.686      200.459    2          361.775    462.005   
63         24307.66   9.802      1          2.718      7.619      201.671    2          361.313    462.149   
63.2       24344.85   10.082     1          2.705      7.746      202.239    2          361.525    462.645   
63.4       24234.04   10.403     1          2.744      7.946      201.74     2          361.773    462.643   
63.6       23870.4    10.447     1          2.877      8.1        201.379    2          362.359    463.049   
63.8       23575.14   11.008     1          2.985      8.489      200.716    2          362.272    462.63    
64         22869.91   11.843     1          3.25       9.172      199.382    2          362.882    462.573   
64.2       22048.36   13.642     1          3.574      10.395     195.69     2          364.058    461.903   
64.4       21230.71   13.809     1          4.266      11.17      194.059    2          365.328    462.357   
64.6       20826.96   14.486     1          4.429      11.672     193.937    2          365.943    462.911   
64.8       20834.79   13.893     1          4.426      11.372     195.184    2          366.078    463.67    
65         20838.7    15.071     1          4.055      11.591     195.312    2          366.12     463.776   
65.2       20838.7    16.453     1          4.055      12.282     194.302    2          366.12     463.271   
65.4       18697.02   16.18      1          5.123      13.213     192.996    2          366.715    463.213   
65.6       16555.33   15.632     1          6.19       14.006     192.825    2          367.31     463.723   
65.8       14413.65   13.85      1          7.257      14.182     194.175    2          367.905    464.993   
66         15649.73   15.081     1          6.594      14.135     195.534    2          368.079    465.846   
66.2       16885.83   15.692     1          5.932      13.778     195.19     2          368.253    465.848   
66.4       18121.92   17.071     1          5.269      13.804     194.732    2          368.426    465.793   
66.6       19197.3    16.769     1          4.794      13.179     195.075    2          367.559    465.096   
66.8       21595.71   16.936     1          3.826      12.294     199.185    2          364.896    464.488   
67         23994.1    15.403     1          2.858      10.56      203.163    2          362.233    463.815   
67.2       25317.12   12.951     1          2.365      8.84       206.47     2          360.439    463.674   
67.4       25317.12   9.957      1          2.365      7.343      206.709    2          360.439    463.793   
67.6       25306.93   8.139      1          2.368      6.438      205.832    2          360.429    463.345   
67.8       25296.75   7.572      1          2.372      6.158      205.741    2          360.42     463.291   
68         25379.77   7.67       1          2.343      6.178      204.766    2          364.238    466.622   
68.2       25472.97   7.348      1          2.311      7.171      201.57     2          368.066    470.503   
68.4       23705.83   6.804      1          3.11       9.238      194.137    2          372.66     473.918   
68.6       19985.12   7.678      1          4.771      11.337     190.973    2          374.192    473.868   
68.8       16264.41   9.268      1          6.433      12.607     191.441    2          375.725    473.983   
69         16256.75   13.371     1          6.435      13.1       197.961    2          375.086    474.066   
69.2       18783.11   17.635     1          4.779      13.576     203.46     2          372.4      474.13    
69.4       21983.13   19.981     1          3.3        13.271     206.783    2          367.657    472.077   
69.6       23330.44   19.241     1          2.65       12.27      205.51     2          364.318    468.102   
69.8       23749.86   14.861     1          2.921      10.351     202.532    2          362.301    464.597   
70         23495.62   12.257     1          3.014      9.143      200.357    2          362.343    462.522   
70.2       23241.38   11.205     1          3.108      8.71       200.304    2          362.385    462.537   
70.4       23241.38   11.383     1          3.108      8.799      200.453    2          362.385    462.611   
70.6       23295.41   11.487     1          3.087      8.831      199.776    2          362.826    462.714   
70.8       23349.44   11.339     1          3.067      8.737      199.831    2          363.267    463.183   
71         23325.42   11.378     1          3.076      8.765      197.574    2          363.88     462.667   
71.2       23236.53   11.629     1          3.109      8.924      197.565    2          363.82     462.603   
71.4       23157.3    11.927     1          3.139      9.102      197.266    2          363.362    461.995   
71.6       22532.79   12.296     1          3.383      9.531      195.852    2          363.898    461.824   
71.8       21919.13   12.989     1          3.623      10.118     194.111    2          364.664    461.72    
72         21295.79   13.885     1          3.867      10.81      191.805    2          365.83     461.733   
72.2       20848.33   14.664     1          4.055      11.387     190.854    2          366.536    461.963   
72.4       20400.86   15.198     1          4.244      11.843     189.921    2          367.241    462.202   
72.6       20874.04   15.79      1          4.057      11.952     191.189    2          366.78     462.374   
72.8       21794.68   17.189     1          3.682      12.276     193.294    2          365.612    462.259   
73         22715.32   17.965     1          3.306      12.289     195.35     2          364.445    462.12    
73.2       22715.32   17.403     1          3.306      12.008     195.166    2          364.445    462.028   
73.4       21910.79   15.208     1          3.632      11.235     195.129    2          365.087    462.652   
73.6       21106.25   14.119     1          3.957      11.016     195.139    2          365.73     463.299   
73.8       20301.71   13.924     1          4.282      11.244     194.839    2          366.372    463.792   
74         20535.92   15.339     1          4.184      11.853     194.844    2          365.717    463.139   
74.2       20623.42   15.83      1          4.146      12.062     193.635    2          365.627    462.444   
74.4       18774.71   14.835     1          5.07       12.488     193.036    2          365.376    461.894   
74.6       16691.79   13.883     1          6.093      13.034     191.923    2          365.781    461.743   
74.8       14755.58   13.609     1          7.054      13.858     191.14     2          365.62     461.191   
75         14755.58   14.755     1          7.054      14.431     191        2          365.62     461.121   
75.2       14426.29   15.093     1          7.254      14.801     191.376    2          365.582    461.27    
75.4       14097.01   15.41      1          7.455      15.16      192.594    2          365.543    461.84    
75.6       13449.23   16.091     1          7.864      15.909     192.708    2          364.958    461.312   
75.8       13130.73   17.295     1          8.072      16.72      192.7      2          364.413    460.762   
76         12869.58   17.482     1          8.242      16.983     191.296    2          363.848    459.496   
76.2       13967.53   18.141     1          7.579      16.65      190.409    2          363.767    458.972   
