~Version
 VERS              .         2.0                           : CWLS LOG ASCII STANDARD - VERSION 2.0
 WRAP              .         NO                            : ONE LINE PER DEPTH STEP
 DLM               .         SPACE                         : DELIMITING CHARACTER(SPACE TAB OR COMMA)
~Well Information
#_______________________________________________________________________________
#
#PARAMETER_NAME    .UNIT     VALUE                         : DESCRIPTION
#_______________________________________________________________________________
STRT               .M        3.4                           : First reference value
STOP               .M        832.4                         : Last reference value
STEP               .M        0.2                           : Step increment
NULL               .         -9999                         : Missing value
COMP               .                                       : Company
WELL               .         616                           : Well name
FLD                .                                       : Field
LOC                .                                       : Location
CNTY               .                                       : County
STAT               .                                       : State
CTRY               .                                       : Country
SRVC               .                                       : Service Company
DATE               .                                       : Date
API                .                                       : API number
PROJECT_UPGRADE_TIME .         2021-03-18T21_24_50           : 
group              .         Good                          : 
~Parameter Information Block
#_______________________________________________________________________________
#
#PARAMETER_NAME    .UNIT     VALUE                         : DESCRIPTION
#_______________________________________________________________________________
SET                .         ULN                           : 
PROJECT_UPGRADE_TIME .         2021-03-18T21_24_50           : 
TLFamily_AK4       .                                       : 
TLFamily_ALFAK     .                                       : 
TLFamily_AMPL      .                                       : 
TLFamily_DEPTH     .         Measured Depth                : 
TLFamily_DK1       .                                       : 
TLFamily_DK2       .                                       : 
TLFamily_DTK       .         Compressional Slowness        : 
TLFamily_QCBL      .                                       : 
TLFamily_T1        .         Travel Time 1                 : 
TLFamily_T2        .         Travel Time 2                 : 
group              .         prim                          : 
~Curve Information
#_______________________________________________________________________________
#
#LOGNAME           .UNIT     LOG_ID                        : DESCRIPTION
#_______________________________________________________________________________
DEPTH              .M                                      : 0 Depth curve 
AK4                .                                       : 2 Амплитуда - Волна по колонне - Канал1 
ALFAK              .дБ/м                                   : 1 Затухание - Волна по колонне 
AMPL               .                                       : 8 Коэффициент усиления ВС 
DK1                .дБ                                     : 3 Кривая ослабления - Волна по колонне - Канал1 
DK2                .дБ                                     : 4 Кривая ослабления - Волна по колонне - Канал2 
DTK                .мкс/м                                  : 5 ДельтаТ - Волна по породе 
QCBL               .                                       : 9 Контакт цемент-колонна 
T1                 .мкс                                    : 6 Время пробега - Волна по породе - Канал1 
T2                 .мкс                                    : 7 Время пробега - Волна по породе - Канал2 
~Ascii
# ...
660.4      4218.763   16.822     1          17.947     26.357     196        2          349        447.001   
660.6      4145.458   15.49      1          18.104     25.849     196        2          349        447.001   
660.8      4474.583   15.291     1          17.539     25.184     196        2          349        447.001   
661        5019.884   16.63      1          16.531     24.846     196        2          349        447.001   
661.2      5565.185   18.861     1          15.523     24.954     196        2          349        447.001   
661.4      5631.433   17.668     1          15.422     24.256     192.824    2          350.588    447.001   
661.6      5697.682   15.909     1          15.32      23.275     189.649    2          352.176    447.001   
661.8      5716.007   13.619     1          15.292     22.101     189.649    2          352.176    447.001   
662        5668.086   12.019     1          15.365     21.374     192.824    2          350.588    447.001   
662.2      5620.164   12.248     1          15.438     21.562     196        2          349        447.001   
662.4      5620.164   12.368     1          15.438     21.622     196        2          349        447.001   
662.6      5521.801   13.288     1          15.594     22.238     196        2          349        447.001   
662.8      5543.119   16.404     1          15.561     23.763     196        2          349        447.001   
663        5185.195   17.604     1          16.175     24.977     196        2          349        447.001   
663.2      5076.733   20.46      1          16.358     26.588     196        2          349        447.001   
663.4      4848.59    19.927     1          16.729     26.692     196        2          349        447.001   
663.6      4999.688   22.132     1          16.454     27.52      196        2          349        447.001   
663.8      4999.688   21.041     1          16.454     26.974     196        2          349        447.001   
664        4999.688   20.995     1          16.454     26.951     196        2          349        447.001   
664.2      5037.836   20.891     1          16.388     26.834     196        2          349        447.001   
664.4      5075.985   20.632     1          16.323     26.639     196        2          349        447.001   
664.6      5498.986   20.723     1          15.668     26.03      196        2          349        447.001   
664.8      5582.39    20.17      1          15.53      25.615     196        2          349        447.001   
665        5823.25    22.197     1          15.147     26.246     196        2          349        447.001   
665.2      5679.257   22.37      1          15.354     26.539     196        2          349        447.001   
665.4      5836.714   21.773     1          15.109     25.996     196        2          349        447.001   
665.6      6065.231   20.688     1          14.788     25.132     196        2          349        447.001   
665.8      6293.75    19.955     1          14.466     24.444     196        2          349        447.001   
666        6522.267   19.976     1          14.145     24.133     196        2          349        447.001   
666.2      6522.267   18.857     1          14.145     23.573     196        2          349        447.001   
666.4      6522.267   17.534     1          14.145     22.912     196        2          349        447.001   
666.6      6543.959   17.656     1          14.116     22.944     196        2          349        447.001   
666.8      6565.651   17.053     1          14.087     22.614     196        2          349        447.001   
667        6636.713   17         1          13.994     22.494     196        2          349        447.001   
667.2      6686.082   16.645     1          13.93      22.252     196        2          349        447.001   
667.4      6735.451   16.937     1          13.865     22.334     196        2          349        447.001   
667.6      6526.755   16.13      1          14.148     22.213     196        2          349        447.001   
667.8      6318.06    14.598     1          14.43      21.729     196        2          349        447.001   
668        6109.364   14.326     1          14.713     21.876     196        2          349        447.001   
668.2      6109.364   15.848     1          14.713     22.637     196        2          349        447.001   
668.4      6109.364   17.537     1          14.713     23.481     196        2          349        447.001   
668.6      6109.364   18.639     1          14.713     24.032     196        2          349        447.001   
668.8      6109.364   19.782     1          14.713     24.604     196        2          349        447.001   
669        5905.157   20.046     1          15.019     25.042     196        2          349        447.001   
669.2      5700.95    21.109     1          15.325     25.879     196        2          349        447.001   
669.4      5390.15    17.277     1          15.804     25.038     196        2          349        447.001   
669.6      4635.406   15.254     1          17.341     26.136     196.692    2          349        447.347   
669.8      3359.405   10.544     1          20.793     26.562     194.063    2          353.91     450.942   
670        2189.996   11.479     1          24.071     28.022     190.124    2          358.819    453.882   
670.2      1569.018   7.868      1          26.628     27.254     186.352    2          363.23     456.406   
670.4      1369.575   3.32       1          27.913     26.937     194.607    2          358.635    455.939   
670.6      1170.132   -2.206     1          29.199     27.149     204.047    2          354.041    456.065   
670.8      2623.648   -3.008     1          24.984     26.588     214.362    2          349.63     456.811   
671        4176.885   0.913      1          20.127     25.556     212.352    2          349.315    455.492   
671.2      5838.21    7.781      1          15.11      23.974     206.851    2          349        452.426   
671.4      5946.297   13.4       1          14.951     23.516     199.617    2          349        448.809   
671.6      5812.403   16.861     1          15.161     23.592     196        2          349        447.001   
671.8      5570.421   17.028     1          15.531     24.045     196        2          349        447.001   
672        5271.964   16.435     1          15.994     25.658     196        2          349        447.001   
672.2      4703.101   19.912     1          17.112     28.514     196        2          349        447.001   
672.4      4134.238   21.174     1          18.23      31.654     196        2          349        447.001   
672.6      3581.457   25.867     1          19.353     33.678     196        2          349        447.001   
672.8      3742.653   25.904     1          19.937     34.28      196        2          349        447.001   
673        3369.769   27.143     1          21.006     34.578     196        2          349        447.001   
673.2      3037.278   22.347     1          21.977     33.151     196        2          349        447.001   
673.4      2758.269   21.948     1          21.691     32.664     196        2          349        447.001   
673.6      3018.577   23.633     1          20.904     32.721     196        2          349        447.001   
673.8      3278.885   31.963     1          20.118     36.099     196        2          349        447.001   
674        3284.122   34.655     1          20.104     39.324     196        2          349        447.001   
674.2      2777.718   34.023     1          21.902     40.806     196        2          349        447.001   
674.4      2271.313   29.819     1          23.7       40.502     196        2          349        447.001   
674.6      1787.723   27.373     1          25.388     38.951     196        2          349        447.001   
674.8      1890.575   26.684     1          24.922     38.14      196        2          349        447.001   
