~Version
 VERS              .         2.0                           : CWLS LOG ASCII STANDARD - VERSION 2.0
 WRAP              .         NO                            : ONE LINE PER DEPTH STEP
 DLM               .         SPACE                         : DELIMITING CHARACTER(SPACE TAB OR COMMA)
~Well Information
#_______________________________________________________________________________
#
#PARAMETER_NAME    .UNIT     VALUE                         : DESCRIPTION
#_______________________________________________________________________________
STRT               .M        8.21                          : First reference value
STOP               .M        2780.41                       : Last reference value
STEP               .M        0.2                           : Step increment
NULL               .         -9999                         : Missing value
COMP               .                                       : Company
WELL               .         616                           : Well name
FLD                .                                       : Field
LOC                .                                       : Location
CNTY               .                                       : County
STAT               .                                       : State
CTRY               .                                       : Country
SRVC               .                                       : Service Company
DATE               .                                       : Date
API                .                                       : API number
PROJECT_UPGRADE_TIME .         2021-03-18T21_24_50           : 
group              .         Good                          : 
~Parameter Information Block
#_______________________________________________________________________________
#
#PARAMETER_NAME    .UNIT     VALUE                         : DESCRIPTION
#_______________________________________________________________________________
SET                .         ULN_2                         : 
PROJECT_UPGRADE_TIME .         2021-03-18T21_24_50           : 
TLFamily_AK4       .                                       : 
TLFamily_ALFAK     .                                       : 
TLFamily_AMPL      .                                       : 
TLFamily_DEPTH     .         Measured Depth                : 
TLFamily_DK1       .                                       : 
TLFamily_DK2       .                                       : 
TLFamily_DTK       .         Compressional Slowness        : 
TLFamily_QCBL      .                                       : 
TLFamily_T1        .         Travel Time 1                 : 
TLFamily_T2        .         Travel Time 2                 : 
group              .         prim                          : 
~Curve Information
#_______________________________________________________________________________
#
#LOGNAME           .UNIT     LOG_ID                        : DESCRIPTION
#_______________________________________________________________________________
DEPTH              .M                                      : 0 Depth curve 
AK4                .                                       : 2 Амплитуда - Волна по колонне - Канал1 
ALFAK              .дБ/м                                   : 1 Затухание - Волна по колонне 
AMPL               .                                       : 8 Коэффициент усиления ВС 
DK1                .дБ                                     : 3 Кривая ослабления - Волна по колонне - Канал1 
DK2                .дБ                                     : 4 Кривая ослабления - Волна по колонне - Канал2 
DTK                .мкс/м                                  : 5 ДельтаТ - Волна по породе 
QCBL               .                                       : 9 Контакт цемент-колонна 
T1                 .мкс                                    : 6 Время пробега - Волна по породе - Канал1 
T2                 .мкс                                    : 7 Время пробега - Волна по породе - Канал2 
~Ascii
# ...
563.01     9577.387   20.859     1          9.079      19.509     164.852    2          350.492    431.248   
563.21     8506.151   24.154     1          9.469      21.544     168.003    2          349.381    433.045   
563.41     8829.703   26.883     1          9.224      22.623     180.681    2          349.559    438.99    
563.61     9567.561   29.316     1          8.246      22.861     201.725    2          349.008    449.254   
563.81     10832.83   31.544     1          7.098      22.83      218.376    2          347.98     456.581   
564.01     11378.85   30.584     1          6.607      21.899     210.247    2          346        451.123   
564.21     11885.75   26.107     1          6.544      19.597     187.739    2          344.595    438.465   
564.41     12375.01   24.521     1          6.201      18.462     168.227    2          344.717    428.831   
564.61     12982.4    24.876     1          5.779      18.217     163.373    2          345.241    426.927   
564.81     13358.07   26.673     1          5.526      18.863     162.719    2          345.802    427.162   
565.01     13459.52   25.994     1          5.46       18.457     162.023    2          345.706    426.718   
565.21     13351.41   24.687     1          5.531      17.874     162.158    2          345.254    426.333   
565.41     13164.86   23.836     1          5.653      17.571     164.249    2          344.732    426.857   
565.61     12965.73   23.772     1          5.785      17.671     165.243    2          344.813    427.434   
565.81     12899.98   23.953     1          5.829      17.806     165.36     2          345.209    427.889   
566.01     12977.63   24.696     1          5.777      18.125     163.438    2          345.71     427.429   
566.21     13158.62   25.361     1          5.657      18.338     163.688    2          345.636    427.481   
566.41     13193.8    25.599     1          5.634      18.433     164.739    2          345.24     427.609   
566.61     13127.25   25.776     1          5.678      18.566     165.478    2          345.372    428.111   
566.81     13001.15   25.608     1          5.761      18.565     165.073    2          345.418    427.955   
567.01     13003.95   25.956     1          5.759      18.737     163.882    2          345.883    427.824   
567.21     13094.3    25.877     1          5.699      18.638     163.226    2          345.694    427.307   
567.41     13186.56   25.683     1          5.638      18.48      163.172    2          345.209    426.796   
567.61     13184.13   25.055     1          5.64       18.167     163.192    2          344.703    426.3     
567.81     13130.66   25.132     1          5.675      18.241     163.831    2          344.892    426.808   
568.01     12913.25   24.762     1          5.821      18.202     163.92     2          345.336    427.296   
568.21     12667.82   25.155     1          5.989      18.567     164.749    2          345.379    427.753   
568.41     12460.56   24.923     1          6.13       18.592     165.005    2          344.729    427.232   
568.61     12378.28   25.168     1          6.187      18.771     165.165    2          344.232    426.815   
568.81     12357.73   25.079     1          6.202      18.742     165.744    2          344.125    426.997   
569.01     12509.71   25.239     1          6.098      18.718     165.498    2          344.721    427.471   
569.21     12736.03   25.277     1          5.944      18.582     165.225    2          345.266    427.878   
569.41     12992.27   25.174     1          5.767      18.354     163.026    2          345.762    427.275   
569.61     13035.24   25.199     1          5.738      18.337     163.124    2          345.284    426.846   
569.81     13062.09   25.152     1          5.72       18.296     164.572    2          344.738    427.025   
570.01     13074.25   25.304     1          5.712      18.365     166.714    2          344.291    427.63    
570.21     13285.76   25.678     1          5.575      18.414     167.218    2          344.82     428.057   
570.41     13162.69   25.546     1          5.658      18.431     165.755    2          345.332    427.838   
570.61     13082.22   24.925     1          5.712      18.174     164.602    2          345.308    427.255   
570.81     12607.67   23.907     1          6.03       17.983     164.381    2          344.6      426.791   
571.01     12276.72   23.427     1          6.264      17.978     165.839    2          344.051    426.971   
571.21     11828.37   23.848     1          6.586      18.51      167.057    2          343.899    427.428   
571.41     11525.32   23.861     1          6.809      18.739     166.844    2          344.407    427.829   
571.61     11552.62   24.298     1          6.789      18.938     166.279    2          344.5      427.64    
571.81     11648.11   24.339     1          6.717      18.887     165.063    2          344.637    427.168   
572.01     11888.2    24.756     1          6.539      18.917     164.864    2          344.206    426.638   
572.21     11989.33   24.599     1          6.466      18.765     165.218    2          344.146    426.755   
572.41     12172.13   24.226     1          6.333      18.447     165.049    2          344.656    427.181   
572.61     12356.06   23.917     1          6.204      18.162     164.159    2          345.203    427.283   
572.81     12349.63   24.047     1          6.209      18.232     162.12     2          345.716    426.776   
573.01     12236.44   24.529     1          6.29       18.554     161.914    2          345.31     426.268   
573.21     11944.87   24.236     1          6.498      18.616     162.611    2          344.807    426.113   
573.41     11576.02   23.618     1          6.778      18.654     163.53     2          344.224    425.989   
573.61     10727.64   19.083     1          7.516      18.392     162.357    2          344.26     425.439   
573.81     9428.211   17.102     1          8.684      18.581     163.731    2          345.604    427.452   
574.01     8333.44    17.257     1          9.704      19.825     164.131    2          347.751    429.458   
574.21     7381.071   23.053     1          10.744     22.404     165.337    2          349.641    431.95    
574.41     6239.671   26.402     1          12.88      24.42      164.031    2          350.24     431.915   
574.61     5577.758   27.236     1          14.043     24.802     162.567    2          350.552    431.836   
574.81     5834.083   25.743     1          13.713     23.815     166.56     2          349.059    432.339   
575.01     8476.646   25.397     1          10.263     21.975     170.683    2          347.023    432.365   
575.21     10792.01   25.101     1          7.666      20.217     173.071    2          345.193    431.729   
575.41     12530.64   25.189     1          6.082      18.676     169.126    2          344.759    429.323   
575.61     12663.53   24.814     1          5.99       18.397     164.408    2          345.251    427.456   
575.81     12701.44   24.914     1          5.964      18.421     163.153    2          344.7      426.277   
576.01     12685.49   25.234     1          5.975      18.592     163.336    2          344.574    426.242   
576.21     12581.05   24.627     1          6.047      18.36      162.809    2          344.687    426.092   
576.41     12471.77   24.263     1          6.122      18.254     162.788    2          345.178    426.573   
576.61     12529.01   24.086     1          6.082      18.125     162.792    2          345.68     427.077   
576.81     12582.86   24.574     1          6.045      18.332     164.066    2          345.586    427.62    
577.01     12544.52   24.809     1          6.072      18.476     164.157    2          345.106    427.185   
577.21     12509.19   24.905     1          6.096      18.549     164.215    2          344.606    426.714   
577.41     12472.19   25.328     1          6.122      18.786     165.428    2          344.1      426.814   
