~Version
 VERS              .         2.0                           : CWLS LOG ASCII STANDARD - VERSION 2.0
 WRAP              .         NO                            : ONE LINE PER DEPTH STEP
 DLM               .         SPACE                         : DELIMITING CHARACTER(SPACE TAB OR COMMA)
~Well Information
#_______________________________________________________________________________
#
#PARAMETER_NAME    .UNIT     VALUE                         : DESCRIPTION
#_______________________________________________________________________________
STRT               .M        2648.2                        : First reference value
STOP               .M        2758.600166                   : Last reference value
STEP               .M        0.2000003                     : Step increment
NULL               .         -9999                         : Missing value
COMP               .                                       : Company
WELL               .         616                           : Well name
FLD                .                                       : Field
LOC                .                                       : Location
CNTY               .                                       : County
STAT               .                                       : State
CTRY               .                                       : Country
SRVC               .                                       : Service Company
DATE               .                                       : Date
API                .                                       : API number
PROJECT_UPGRADE_TIME .         2021-03-18T21_24_50           : 
group              .         Good                          : 
~Parameter Information Block
#_______________________________________________________________________________
#
#PARAMETER_NAME    .UNIT     VALUE                         : DESCRIPTION
#_______________________________________________________________________________
SET                .         D7020_D                       : 
OTHER              .         Kedr.exe версия 2.1.2.32      : 
OTHER_10           .         TM.GRD = 0.00404*TM$.UE + 0.07: 
OTHER_11           .         MN.ATM = (6.33279e-006*TM.GRD + 0.02401)*(MN$.UE + 2.72*TM.GRD + -2018): 
OTHER_12           .         GK.MKR/H = GK$.UE / 43.5489 + 0: 
OTHER_13           .         RES.SM = 0.00476*CRES.UE - 1.51709: 
OTHER_14           .         PL.GSM3 = 0 + 0 * (PL.UE / 1) +  0 * (PL.UE / 1)^2: 
OTHER_15           .         Постоянная времени ГГП = 6 сек: 
OTHER_16           .         Постоянная времени ГК = 6 сек : 
OTHER_2            .         KedrData.dll версия 3.2.2.14  : 
OTHER_3            .         LasInf.dll версия 3.2.0.13    : 
OTHER_4            .         Драйвер версия 1.2.0.5        : 
OTHER_5            .         Прибор_ КСА-M1                : 
OTHER_6            .         Номер прибора_ 155+р204       : 
OTHER_7            .         Режим_ КСА-М1 + ГГП + Резистивиметр: 
OTHER_8            .         Форма_ 223\2                  : 
OTHER_9            .         Тарировки_                    : 
PROJECT_UPGRADE_TIME .         2021-03-18T21_24_50           : 
TLFamily_CRES      .                                       : 
TLFamily_DEPT      .         Measured Depth                : 
TLFamily_GK        .         Gamma Ray                     : 
TLFamily_GK$       .                                       : 
TLFamily_LM        .         Casing Collar locator         : 
TLFamily_METKA     .                                       : 
TLFamily_MN        .                                       : 
TLFamily_MN$       .                                       : 
TLFamily_PL        .                                       : 
TLFamily_PL_2      .                                       : 
TLFamily_RCOR      .                                       : 
TLFamily_RES       .         Mud Resistivity               : 
TLFamily_SPID      .         Spontaneous Potential         : 
TLFamily_STD       .                                       : 
TLFamily_TIME      .         Time                          : 
TLFamily_TM        .         Temperature                   : 
TLFamily_TM$       .         Temperature                   : 
TLFamily_VGD       .         Gas Volume                    : 
group              .         prim                          : 
~Curve Information
#_______________________________________________________________________________
#
#LOGNAME           .UNIT     LOG_ID                        : DESCRIPTION
#_______________________________________________________________________________
DEPT               .M                                      : 1 Глубина, м -    0.0 см 
CRES               .UE                                     : 9 Проводимость, усл.ед. -  222.0 см 
GK                 .MKR/H                                  : 16 Гамма-активность, мкр./ч -  106.0 см 
GK$                .UE                                     : 13 Гамма-активность, усл.ед. -  106.0 см 
LM                 .                                       : 11 Локатор муфт,  -   16.0 см 
METKA              .                                       : 3 Метки,  -    0.0 см 
MN                 .ATM                                    : 15 Давление, атм. -  160.0 см 
MN$                .UE                                     : 7 Давление, усл.ед. -  160.0 см 
PL                 .UE                                     : 10 Плотность, усл.ед. -  270.0 см 
PL_2               .GSM3                                   : 18 Плотность, г./см3 -  270.0 см 
RCOR               .CM/KM                                  : 5 Коррекция по ролику, см/км -    0.0 см 
RES                .SM                                     : 17 Проводимость,  -  222.0 см 
SPID               .M/H                                    : 2 Скорость, м/час -    0.0 см 
STD                .                                       : 12 Приток,  -  170.0 см 
TIME               .S                                      : 4 Время, сек -    0.0 см 
TM                 .GRD                                    : 14 Температура, °C -  180.0 см 
TM$                .UE                                     : 6 Температура, усл.ед. -  180.0 см 
VGD                .                                       : 8 Влагомер,  -  170.0 см 
~Ascii
# ...
2664.600025 1260       6.01       258        93         0          244.51     11940      15         0          0          4.4805     580        9547       11271.65   48.732     12045      6669      
2664.800025 1260       6          261        99         0          244.508    11940      13         0          0          4.4805     580        9549       11272.91   48.711     12040      6668      
2665.000025 1260       6.11       288        73         0          244.539    11941      15         0          0          4.4805     580        9546       11274.22   48.695     12036      6669      
2665.200025 1258       6.36       288        81         0          244.553    11942      14         0          0          4.473      510        9546       11275.54   48.687     12034      6668      
2665.400026 1258       6.59       303        82         0          244.575    11943      14         0          0          4.471      580        9540       11276.88   48.667     12029      6668      
2665.600026 1259       6.77       303        177        0          244.597    11944      14         0          0          4.475      580        9532       11278.19   48.648     12024      6668      
2665.800026 1257       6.82       294        188        0          244.629    11945      14         0          0          4.467      510        9522       11279.47   48.635     12021      6669      
2666.000027 1259       6.79       294        165        0          244.635    11946      13         0          0          4.4737     580        9515       11280.73   48.627     12019      6668      
2666.200027 1258       6.68       280        166        0          244.668    11947      14         0          0          4.471      580        9511       11282.02   48.616     12016      6670      
2666.400027 1258       6.55       280        220        0          244.692    11948      13         0          0          4.471      580        9507       11283.34   48.618     12017      6669      
2666.600028 1258       6.43       273        186        0          244.673    11947      13         0          0          4.4726     538        9506       11284.64   48.619     12017      6669      
2666.800028 1258       6.35       273        167        0          244.71     11949      14         0          0          4.4686     580        9501       11285.92   48.593     12011      6669      
2667.000028 1256       6.34       277        155        0          244.732    11950      13         0          0          4.4628     522        9502       11287.24   48.569     12005      6668      
2667.200028 1258       6.35       277        134        0          244.736    11950      15         0          0          4.471      545        9501       11288.56   48.546     11999      6669      
2667.400029 1256       6.36       278        124        0          244.763    11952      14         0          0          4.4631     580        9497       11289.89   48.518     11992      6670      
2667.600029 1256       6.37       278        89         0          244.779    11952      13         0          0          4.4599     580        9496       11291.14   48.495     11986      6669      
2667.800029 1255       6.42       282        61         0          244.794    11953      14         0          0          4.4567     568        9494       11292.4    48.481     11983      6669      
2668.00003 1256       6.45       282        98         0          244.817    11954      14         0          0          4.4601     580        9495       11293.72   48.465     11979      6668      
2668.20003 1255       6.54       291        70         0          244.854    11956      14         0          0          4.4587     522        9492       11295.04   48.454     11976      6669      
2668.40003 1254       6.61       291        64         0          244.881    11957      14         0          0          4.4535     580        9488       11296.28   48.436     11972      6669      
2668.600031 1254       6.76       302        54         0          244.907    11958      13         0          0          4.452      580        9485       11297.62   48.415     11967      6669      
2668.800031 1254       6.82       296        49         0          244.905    11958      14         0          0          4.452      557        9485       11298.93   48.396     11962      6670      
2669.000031 1253       6.65       282        53         0          244.904    11958      14         0          0          4.4496     580        9485       11300.19   48.38      11958      6669      
2669.200032 1253       6.56       280        49         0          244.951    11960      14         0          0          4.4472     522        9483       11301.52   48.376     11957      6670      
2669.400032 1253       6.5        280        99         0          244.971    11961      14         0          0          4.4472     552        9483       11302.79   48.364     11954      6670      
2669.600032 1253       6.52       294        88         0          244.974    11961      14         0          0          4.4448     580        9477       11304.08   48.36      11953      6670      
2669.800032 1252       6.95       321        66         0          244.995    11962      13         0          0          4.4408     570        9471       11305.36   48.352     11951      6669      
2670.000033 1252       7.16       322        87         0          244.992    11962      14         0          0          4.4431     522        9463       11306.67   48.326     11944      6669      
2670.200033 1252       7.28       322        187        1          245.03     11964      14         0          0          4.4424     580        9455       11308.58   48.3       11938      6670      
2670.400033 1251       7.37       328        141        0          245.028    11964      14         0          0          4.4377     580        9449       11309.83   48.286     11935      6669      
2670.600034 1252       7.45       328        2862       0          245.058    11965      14         0          0          4.4408     540        9443       11311.14   48.271     11931      6671      
2670.800034 1251       7.37       300        3784       0          245.081    11966      15         0          0          4.4377     533        9439       11312.43   48.252     11926      6670      
2671.000034 1251       7.14       300        588        0          245.103    11967      14         0          0          4.4377     580        9433       11313.75   48.242     11924      6670      
2671.200034 1250       7.34       334        162        0          245.101    11967      14         0          0          4.4329     580        9431       11315      48.224     11919      6670      
2671.400035 1248       7.56       348        69         0          245.123    11968      13         0          0          4.4242     580        9429       11316.32   48.208     11915      6670      
2671.600035 1248       8.15       382        56         0          245.149    11969      13         0          0          4.4234     569        9427       11317.65   48.192     11911      6669      
2671.800035 1249       8.45       382        53         0          245.191    11971      14         0          0          4.4282     580        9426       11318.95   48.174     11907      6670      
2672.000036 1248       8.34       356        66         0          245.197    11971      13         0          0          4.4254     538        9427       11320.25   48.154     11902      6671      
2672.200036 1247       8.27       358        79         0          245.248    11973      14         0          0          4.4194     557        9425       11321.55   48.137     11898      6672      
2672.400036 1248       8.37       369        112        0          245.252    11974      14         0          0          4.4234     510        9425       11322.86   48.132     11897      6671      
2672.600037 1248       8.45       376        131        0          245.282    11975      14         0          0          4.4227     566        9423       11324.14   48.119     11893      6671      
