~Version
 VERS              .         2.0                           : CWLS LOG ASCII STANDARD - VERSION 2.0
 WRAP              .         NO                            : ONE LINE PER DEPTH STEP
 DLM               .         SPACE                         : DELIMITING CHARACTER(SPACE TAB OR COMMA)
~Well Information
#_______________________________________________________________________________
#
#PARAMETER_NAME    .UNIT     VALUE                         : DESCRIPTION
#_______________________________________________________________________________
STRT               .M        11                            : First reference value
STOP               .M        2775.8                        : Last reference value
STEP               .M        0.2                           : Step increment
NULL               .         -9999                         : Missing value
COMP               .                                       : Company
WELL               .         616                           : Well name
FLD                .                                       : Field
LOC                .                                       : Location
CNTY               .                                       : County
STAT               .                                       : State
CTRY               .                                       : Country
SRVC               .                                       : Service Company
DATE               .                                       : Date
API                .                                       : API number
PROJECT_UPGRADE_TIME .         2021-03-18T21_24_50           : 
group              .         Good                          : 
~Parameter Information Block
#_______________________________________________________________________________
#
#PARAMETER_NAME    .UNIT     VALUE                         : DESCRIPTION
#_______________________________________________________________________________
SET                .         D1813_D                       : 
OTHER              .         Программное обеспечение станции MONITOR-386EX 25/12/99 15_08_10   BGF V52 22/08/01 16_56_30   3.1_SNGF___BGF_N_092049: 
OTHER_10           .         Тарировки_                    : 
OTHER_11           .         TM.GRD = 0.00403*TM$.UE + -1.07: 
OTHER_12           .         MN.ATM = (9.34907e-006*TM.GRD + 0.02171)*(MN$.UE + -7.93*TM.GRD + -1787): 
OTHER_13           .         GK.MKR/H = LM. / 42.4676      : 
OTHER_14           .         GK.FLT = 0.1*GK.MKR/H[-1] + (1-0.1)*GK.MKR/H[0]: 
OTHER_2            .         Kedr.exe версия 3.4.2.51      : 
OTHER_3            .         KedrData.dll версия 3.4.2.24  : 
OTHER_4            .         Драйвер версия 2.1.1.3        : 
OTHER_5            .         Мнемоники версия 3.3 S        : 
OTHER_6            .         Прибор_ КСА-Т4                : 
OTHER_7            .         Номер прибора_ 03             : 
OTHER_8            .         Режим_ КСА-Т4                 : 
OTHER_9            .         Форма_ КВА.                   : 
PROJECT_UPGRADE_TIME .         2021-03-18T21_24_49           : 
TLFamily_DEPT      .         Measured Depth                : 
TLFamily_GK        .         Gamma Ray                     : 
TLFamily_GK$       .                                       : 
TLFamily_GK_2      .         Gamma Ray                     : 
TLFamily_LM        .         Casing Collar locator         : 
TLFamily_METKA     .                                       : 
TLFamily_MN        .                                       : 
TLFamily_MN$       .                                       : 
TLFamily_RCOR      .                                       : 
TLFamily_SPID      .         Spontaneous Potential         : 
TLFamily_TENS      .         Cable Tension                 : 
TLFamily_TIME      .         Time                          : 
TLFamily_TM        .         Temperature                   : 
TLFamily_TM$       .         Temperature                   : 
group              .         prim                          : 
~Curve Information
#_______________________________________________________________________________
#
#LOGNAME           .UNIT     LOG_ID                        : DESCRIPTION
#_______________________________________________________________________________
DEPT               .M                                      : 1 Глубина, м -    0.0 см 
GK                 .MKR/H                                  : 13 Гамма-активность, мкр./ч -  110.0 см 
GK$                .UE                                     : 10 Гамма-активность, усл.ед. -  110.0 см 
GK_2               .FLT                                    : 14 Гамма-активность фильтрованная, мкр./ч -  110.0 см 
LM                 .                                       : 9 Локатор муфт,  -   20.0 см 
METKA              .                                       : 3 Метки,  -    0.0 см 
MN                 .ATM                                    : 12 Давление, атм. -  160.0 см 
MN$                .UE                                     : 8 Давление, усл.ед. -  160.0 см 
RCOR               .CM/KM                                  : 5 Коррекция по ролику, см/км -    0.0 см 
SPID               .M/H                                    : 2 Скорость, м/час -    0.0 см 
TENS               .T                                      : 6 Натяжение кабеля, т -    0.0 см 
TIME               .S                                      : 4 Время, сек -    0.0 см 
TM                 .GRD                                    : 11 Температура, °C -  170.0 см 
TM$                .UE                                     : 7 Температура, усл.ед. -  170.0 см 
~Ascii
# ...
1664.6     9.54       405        9.53       1689       0          147.759    8837       -1175      -2389      0.05       9545.16    48.211     12229     
1664.8     9.54       405        9.52       1689       0          147.776    8838       -1175      -2386      0.05       9544.88    48.214     12229     
1665       9.54       405        9.49       1807       0          147.793    8839       -1175      -2388      0.05       9544.56    48.217     12230     
1665.2     9.54       405        9.44       2290       0          147.804    8839       -1175      -2389      0.05       9544.28    48.221     12231     
1665.4     9.48       402        9.32       3401       0          147.81     8839       -1175      -2391      0.05       9543.98    48.224     12232     
1665.6     9.07       385        9.07       3401       0          147.844    8841       -1175      -2390      0.05       9543.66    48.229     12233     
1665.8     9.07       385        9.07       3698       0          147.863    8842       -1175      -2388      0.05       9543.37    48.234     12234     
1666       9.07       385        9.07       1864       0          147.881    8843       -1175      -2389      0.05       9543.09    48.238     12235     
1666.2     9.07       385        9.07       1162       0          147.898    8843       -1175      -2391      0.05       9542.78    48.241     12236     
1666.4     9.07       385        9.07       1340       0          147.915    8844       -1175      -2393      0.05       9542.49    48.244     12237     
1666.6     9.07       385        9.07       1340       0          147.933    8845       -1175      -2395      0.05       9542.19    48.247     12238     
1666.8     9.07       385        9.07       1478       0          147.949    8846       -1175      -2397      0.05       9541.88    48.25      12238     
1667       9.08       386        9.08       1457       0          147.967    8847       -1175      -2400      0.05       9541.56    48.254     12239     
1667.2     9.09       386        9.09       1198       0          147.985    8847       -1175      -2397      0.05       9541.27    48.257     12240     
1667.4     9.09       386        9.09       1209       0          148.002    8848       -1175      -2398      0.05       9540.99    48.264     12242     
1667.6     9.09       386        9.09       1209       0          148.019    8849       -1175      -2400      0.05       9540.69    48.268     12243     
1667.8     9.09       386        9.09       1233       0          148.037    8850       -1175      -2402      0.05       9540.38    48.269     12243     
1668       9.09       386        9.09       1049       0          148.042    8850       -1175      -2399      0.05       9540.08    48.271     12243     
1668.2     9.09       386        9.08       1110       0          148.027    8849       -1175      -2397      0.05       9539.78    48.277     12245     
1668.4     9.09       386        9.08       1104       0          148.015    8849       -1175      -2394      0.05       9539.5     48.277     12245     
1668.6     9.09       386        9.06       1104       0          148.107    8853       -1175      -2393      0.05       9539.2     48.282     12246     
1668.8     9.03       384        9.03       1165       0          148.107    8853       -1175      -2394      0.05       9538.88    48.287     12247     
1669       9.02       383        9.02       1230       0          148.131    8854       -1175      -2390      0.05       9538.56    48.29      12248     
1669.2     9.02       383        9.02       1112       0          148.158    8855       -1175      -2387      0.05       9538.3     48.293     12249     
1669.4     9.02       383        9.02       1073       0          148.176    8856       -1175      -2387      0.05       9538.01    48.297     12250     
1669.6     9.02       383        9.02       1073       0          148.194    8857       -1175      -2389      0.05       9537.71    48.3       12251     
1669.8     9.02       383        9.03       1221       2          148.211    8858       -1175      -2390      0.05       9537.4     48.303     12251     
1670       9.02       383        9.04       1244       0          148.228    8859       -1175      -2392      0.05       9537.06    48.306     12252     
1670.2     9.02       383        9.06       1323       0          148.245    8859       -1173      -2394      0.05       9536.75    48.309     12253     
1670.4     9.05       384        9.1        1432       0          148.263    8860       -1173      -2392      0.05       9536.46    48.316     12255     
1670.6     9.18       390        9.18       1543       0          148.281    8861       -1173      -2389      0.05       9536.16    48.32      12256     
1670.8     9.18       390        9.19       1543       0          148.297    8862       -1173      -2387      0.05       9535.86    48.323     12256     
1671       9.18       390        9.19       1309       0          148.314    8863       -1173      -2388      0.05       9535.56    48.327     12257     
1671.2     9.18       390        9.2        1414       0          148.339    8864       -1173      -2390      0.05       9535.26    48.333     12259     
1671.4     9.18       390        9.22       1220       0          148.367    8865       -1173      -2392      0.05       9534.96    48.334     12259     
1671.6     9.18       390        9.25       1172       0          148.369    8865       -1173      -2390      0.05       9534.68    48.336     12260     
1671.8     9.18       390        9.33       1172       0          148.386    8866       -1173      -2389      0.05       9534.39    48.342     12261     
1672       9.48       403        9.53       1052       0          148.403    8867       -1173      -2390      0.05       9534.08    48.347     12262     
1672.2     9.61       408        9.61       1263       0          148.42     8867       -1173      -2392      0.05       9533.75    48.35      12263     
1672.4     9.61       408        9.61       1230       0          148.438    8868       -1173      -2389      0.05       9533.47    48.353     12264     
1672.6     9.61       408        9.61       1383       0          148.456    8869       -1173      -2389      0.05       9533.18    48.357     12265     
1672.8     9.61       408        9.61       1383       0          148.473    8870       -1173      -2391      0.05       9532.88    48.36      12266     
1673       9.61       408        9.62       1629       0          148.507    8871       -1173      -2393      0.05       9532.59    48.363     12266     
1673.2     9.61       408        9.64       1930       0          148.529    8872       -1173      -2395      0.05       9532.28    48.367     12267     
1673.4     9.61       408        9.68       2509       0          148.54     8873       -1173      -2397      0.05       9531.97    48.373     12269     
1673.6     9.63       409        9.75       3315       0          148.544    8873       -1173      -2399      0.05       9531.68    48.374     12269     
1673.8     9.91       421        9.92       3315       0          148.582    8875       -1173      -2400      0.05       9531.39    48.378     12270     
1674       9.94       422        9.94       4487       0          148.583    8875       -1173      -2398      0.05       9531.07    48.383     12271     
1674.2     9.94       422        9.94       6175       0          148.605    8876       -1173      -2400      0.05       9530.79    48.386     12272     
1674.4     9.94       422        9.94       3257       0          148.634    8877       -1173      -2403      0.05       9530.48    48.39      12273     
1674.6     9.94       422        9.93       1520       0          148.65     8878       -1173      -2403      0.05       9530.16    48.393     12274     
1674.8     9.94       422        9.93       954        0          148.669    8879       -1173      -2400      0.05       9529.87    48.396     12275     
