~Version
 VERS              .         2.0                           : CWLS LOG ASCII STANDARD - VERSION 2.0
 WRAP              .         NO                            : ONE LINE PER DEPTH STEP
 DLM               .         SPACE                         : DELIMITING CHARACTER(SPACE TAB OR COMMA)
~Well Information
#_______________________________________________________________________________
#
#PARAMETER_NAME    .UNIT     VALUE                         : DESCRIPTION
#_______________________________________________________________________________
STRT               .M        2338.9                        : First reference value
STOP               .M        2799.2                        : Last reference value
STEP               .M        0.1                           : Step increment
NULL               .         -9999                         : Missing value
COMP               .                                       : Company
WELL               .         616                           : Well name
FLD                .                                       : Field
LOC                .                                       : Location
CNTY               .                                       : County
STAT               .                                       : State
CTRY               .                                       : Country
SRVC               .                                       : Service Company
DATE               .                                       : Date
API                .                                       : API number
PROJECT_UPGRADE_TIME .         2021-03-18T21_24_50           : 
group              .         Good                          : 
~Parameter Information Block
#_______________________________________________________________________________
#
#PARAMETER_NAME    .UNIT     VALUE                         : DESCRIPTION
#_______________________________________________________________________________
SET                .         D2662_D                       : 
OTHER              .         Программное обеспечение станции MONITOR-386EX 25/12/99 15_08_10   BGF V50 26/12/00 07_26_01   3.1_SNGF___BGF_N_092085: 
OTHER_10           .         Тарировки_                    : 
OTHER_11           .         IK1.GRD = IK1$.UE - -5.96     : 
OTHER_12           .         IK5.GRD = IK5$.UE - -0.74     : 
OTHER_13           .         IK4.GRD = IK4$.UE - -0.9      : 
OTHER_14           .         IK3.GRD = IK3$.UE - -1.28     : 
OTHER_15           .         IK2.GRD = IK2$.UE - -3.55     : 
OTHER_2            .         Kedr.exe версия 3.3.2.32      : 
OTHER_3            .         KedrData.dll версия 3.3.2.17  : 
OTHER_4            .         Драйвер версия 2.1.0.4        : 
OTHER_5            .         Мнемоники версия 3.3 S        : 
OTHER_6            .         Прибор_ Викиз                 : 
OTHER_7            .         Номер прибора_ 0006012        : 
OTHER_8            .         Режим_ Викиз                  : 
OTHER_9            .         Форма_ ВИКИЗ                  : 
PROJECT_UPGRADE_TIME .         2021-03-18T21_24_49           : 
TLFamily_DEPT      .         Measured Depth                : 
TLFamily_IK1       .         Extra Shallow Resistivity     : 
TLFamily_IK1$      .         Extra Shallow Resistivity     : 
TLFamily_IK2       .         Shallow Resistivity           : 
TLFamily_IK2$      .         Shallow Resistivity           : 
TLFamily_IK3       .         Medium Resistivity            : 
TLFamily_IK3$      .         Medium Resistivity            : 
TLFamily_IK4       .         Deep Resistivity              : 
TLFamily_IK4$      .         Deep Resistivity              : 
TLFamily_IK5       .         Resistivity 20                : 
TLFamily_IK5$      .         Resistivity 20                : 
TLFamily_METKA     .                                       : 
TLFamily_PS        .         Spontaneous Potential         : 
TLFamily_RCOR      .                                       : 
TLFamily_SPID      .         Spontaneous Potential         : 
TLFamily_TENS      .         Cable Tension                 : 
TLFamily_TIME      .         Time                          : 
group              .         prim                          : 
~Curve Information
#_______________________________________________________________________________
#
#LOGNAME           .UNIT     LOG_ID                        : DESCRIPTION
#_______________________________________________________________________________
DEPT               .M                                      : 1 Глубина, м -    0.0 см 
IK1                .GRD                                    : 13 3Ф0.5, град. -  226.0 см 
IK1$               .UE                                     : 7 3Ф0.5, усл.ед. -  226.0 см 
IK2                .GRD                                    : 17 3Ф0.7, град. -  240.0 см 
IK2$               .UE                                     : 11 3Ф0.7, усл.ед. -  240.0 см 
IK3                .GRD                                    : 16 3Ф1.0, град. -  260.0 см 
IK3$               .UE                                     : 10 3Ф1.0, усл.ед. -  260.0 см 
IK4                .GRD                                    : 15 3Ф1.4, град. -  288.0 см 
IK4$               .UE                                     : 9 3Ф1.4, усл.ед. -  288.0 см 
IK5                .GRD                                    : 14 3Ф2.0, град. -  328.0 см 
IK5$               .UE                                     : 8 3Ф2.0, усл.ед. -  328.0 см 
METKA              .                                       : 3 Метки,  -    0.0 см 
PS                 .mV                                     : 12 ПС, мВ -  372.0 см 
RCOR               .CM/KM                                  : 5 Коррекция по ролику, см/км -    0.0 см 
SPID               .M/H                                    : 2 Скорость, м/час -    0.0 см 
TENS               .T                                      : 6 Натяжение кабеля, т -    0.0 см 
TIME               .S                                      : 4 Время, сек -    0.0 см 
~Ascii
# ...
2399.1     17.29      11.33      16.29      12.74      15.96      14.68      15.57      14.67      15.85      15.11      0          304.14     -387       -1827      0          35379.36  
2399.2     17.31      11.35      16.29      12.74      15.94      14.66      15.49      14.59      15.73      14.99      0          304.3      -387       -1834      0          35379.18  
2399.3     17.36      11.4       16.33      12.78      15.91      14.63      15.42      14.52      15.58      14.84      0          304.28     -387       -1827      0          35378.97  
2399.4     17.39      11.43      16.35      12.8       15.86      14.58      15.32      14.42      15.42      14.68      0          304.07     -387       -1819      0          35378.78  
2399.5     17.33      11.37      16.26      12.71      15.73      14.45      15.16      14.26      15.23      14.49      0          303.87     -387       -1814      0          35378.59  
2399.6     17.07      11.11      16.04      12.49      15.49      14.21      14.95      14.05      14.97      14.23      0          303.73     -387       -1819      0          35378.41  
2399.7     16.72      10.76      15.7       12.15      15.26      13.98      14.73      13.83      14.75      14.01      0          303.64     -387       -1828      0          35378.18  
2399.8     16.4       10.44      15.45      11.9       15.07      13.79      14.54      13.64      14.58      13.84      0          303.41     -387       -1836      0          35377.99  
2399.9     16.22      10.26      15.34      11.79      14.98      13.7       14.45      13.55      14.45      13.71      1          303.08     -387       -1846      0          35377.82  
2400       16.15      10.19      15.29      11.74      14.97      13.69      14.44      13.54      14.39      13.65      0          302.62     -387       -1863      0          35377.6   
2400.1     16.11      10.15      15.27      11.72      14.97      13.69      14.46      13.56      14.38      13.64      0          302.14     -386       -1861      0          35377.41  
2400.2     16.11      10.15      15.26      11.71      14.98      13.7       14.49      13.59      14.39      13.65      0          301.84     -386       -1847      0          35377.23  
2400.3     16.17      10.21      15.27      11.72      14.99      13.71      14.51      13.61      14.4       13.66      0          301.41     -386       -1830      0          35377.03  
2400.4     16.25      10.29      15.27      11.72      14.98      13.7       14.51      13.61      14.41      13.67      0          301.09     -386       -1829      0          35376.82  
2400.5     16.28      10.32      15.25      11.7       14.95      13.67      14.52      13.62      14.43      13.69      0          300.93     -386       -1838      0          35376.64  
2400.6     16.29      10.33      15.25      11.7       14.91      13.63      14.52      13.62      14.45      13.71      0          300.92     -386       -1849      0          35376.45  
2400.7     16.28      10.32      15.27      11.72      14.92      13.64      14.54      13.64      14.49      13.75      0          300.94     -386       -1851      0          35376.24  
2400.8     16.32      10.36      15.35      11.8       14.97      13.69      14.59      13.69      14.54      13.8       0          300.97     -386       -1849      0          35376.05  
2400.9     16.41      10.45      15.44      11.89      15.08      13.8       14.66      13.76      14.63      13.89      0          301.11     -386       -1846      0          35375.87  
2401       16.53      10.57      15.56      12.01      15.21      13.93      14.75      13.85      14.72      13.98      0          301.29     -386       -1843      0          35375.68  
2401.1     16.68      10.72      15.7       12.15      15.33      14.05      14.85      13.95      14.81      14.07      0          301.47     -386       -1838      0          35375.45  
2401.2     16.84      10.88      15.82      12.27      15.46      14.18      14.96      14.06      14.9       14.16      0          301.49     -386       -1833      0          35375.29  
2401.3     16.99      11.03      15.94      12.39      15.58      14.3       15.05      14.15      14.98      14.24      0          301.8      -386       -1827      0          35375.1   
2401.4     17.09      11.13      16.04      12.49      15.67      14.39      15.13      14.23      15.04      14.3       0          302.14     -386       -1818      0          35374.89  
2401.5     17.19      11.23      16.13      12.58      15.74      14.46      15.2       14.3       15.09      14.35      0          302.36     -386       -1810      0          35374.69  
2401.6     17.27      11.31      16.21      12.66      15.82      14.54      15.26      14.36      15.13      14.39      0          302.62     -386       -1815      0          35374.5   
2401.7     17.33      11.37      16.29      12.74      15.87      14.59      15.32      14.42      15.15      14.41      0          302.67     -386       -1821      0          35374.3   
2401.8     17.4       11.44      16.36      12.81      15.93      14.65      15.36      14.46      15.16      14.42      0          302.7      -386       -1829      0          35374.1   
2401.9     17.45      11.49      16.4       12.85      15.96      14.68      15.38      14.48      15.17      14.43      0          302.47     -386       -1838      0          35373.92  
2402       17.43      11.47      16.39      12.84      15.96      14.68      15.38      14.48      15.15      14.41      0          302.4      -386       -1849      0          35373.73  
2402.1     17.36      11.4       16.32      12.77      15.91      14.63      15.35      14.45      15.13      14.39      0          302.08     -386       -1858      0          35373.52  
2402.2     17.27      11.31      16.24      12.69      15.85      14.57      15.3       14.4       15.1       14.36      0          301.8      -386       -1857      0          35373.32  
2402.3     17.13      11.17      16.17      12.62      15.78      14.5       15.27      14.37      15.07      14.33      0          301.52     -386       -1856      0          35373.13  
2402.4     17.05      11.09      16.09      12.54      15.74      14.46      15.25      14.35      15.05      14.31      0          301.26     -386       -1855      0          35372.92  
2402.5     16.98      11.02      16.05      12.5       15.72      14.44      15.24      14.34      15.06      14.32      0          301.19     -386       -1854      0          35372.73  
2402.6     16.96      11         16.04      12.49      15.71      14.43      15.26      14.36      15.08      14.34      0          301.26     -386       -1853      0          35372.54  
2402.7     16.97      11.01      16.04      12.49      15.72      14.44      15.27      14.37      15.09      14.35      0          301.28     -386       -1851      0          35372.35  
2402.8     16.94      10.98      16.01      12.46      15.71      14.43      15.28      14.38      15.12      14.38      0          301.31     -386       -1849      0          35372.15  
2402.9     16.92      10.96      15.99      12.44      15.7       14.42      15.29      14.39      15.15      14.41      0          301.54     -386       -1846      0          35371.96  
2403       16.97      11.01      16.02      12.47      15.72      14.44      15.3       14.4       15.18      14.44      0          301.56     -386       -1843      0          35371.78  
2403.1     17.05      11.09      16.09      12.54      15.75      14.47      15.33      14.43      15.21      14.47      0          301.71     -386       -1839      0          35371.57  
2403.2     17.15      11.19      16.15      12.6       15.79      14.51      15.36      14.46      15.24      14.5       0          301.91     -386       -1834      0          35371.38  
2403.3     17.21      11.25      16.2       12.65      15.82      14.54      15.38      14.48      15.28      14.54      0          301.89     -386       -1828      0          35371.21  
