~Version
 VERS              .         2.0                           : CWLS LOG ASCII STANDARD - VERSION 2.0
 WRAP              .         NO                            : ONE LINE PER DEPTH STEP
 DLM               .         SPACE                         : DELIMITING CHARACTER(SPACE TAB OR COMMA)
~Well Information
#_______________________________________________________________________________
#
#PARAMETER_NAME    .UNIT     VALUE                         : DESCRIPTION
#_______________________________________________________________________________
STRT               .M        19.65                         : First reference value
STOP               .M        2766.85                       : Last reference value
STEP               .M        0.2                           : Step increment
NULL               .         -9999                         : Missing value
COMP               .                                       : Company
WELL               .         616                           : Well name
FLD                .                                       : Field
LOC                .                                       : Location
CNTY               .                                       : County
STAT               .                                       : State
CTRY               .                                       : Country
SRVC               .                                       : Service Company
DATE               .                                       : Date
API                .                                       : API number
PROJECT_UPGRADE_TIME .         2021-03-18T21_24_50           : 
group              .         Good                          : 
~Parameter Information Block
#_______________________________________________________________________________
#
#PARAMETER_NAME    .UNIT     VALUE                         : DESCRIPTION
#_______________________________________________________________________________
SET                .         D7016_D_2                     : 
NPR                .         155                           : Номер прибора
OTHER              .         Kedr.exe версия 2.1.2.32      : 
OTHER_10           .         TM.GRD = 0.00404*TM$.UE + 0.07: 
OTHER_11           .         MN.ATM = (6.33279e-006*TM.GRD + 0.02401)*(MN$.UE + 2.72*TM.GRD + -2018): 
OTHER_12           .         GK.MKR/H = GK$.UE / 43.5489 + 0: 
OTHER_13           .         RES.SM = 0.00476*CRES.UE - 1.51709: 
OTHER_14           .         PL.GSM3 = 0 + 0 * (PL.UE / 1) +  0 * (PL.UE / 1)^2: 
OTHER_15           .         Постоянная времени ГГП = 6 сек: 
OTHER_16           .         Постоянная времени ГК = 6 сек : 
OTHER_2            .         KedrData.dll версия 3.2.2.14  : 
OTHER_3            .         LasInf.dll версия 3.2.0.13    : 
OTHER_4            .         Драйвер версия 1.2.0.5        : 
OTHER_5            .         Прибор_ КСА-M1                : 
OTHER_6            .         Номер прибора_ 155+р204       : 
OTHER_7            .         Режим_ КСА-М1 + ГГП + Резистивиметр: 
OTHER_8            .         Форма_ 223\2                  : 
OTHER_9            .         Тарировки_                    : 
PR                 .         КСА-Т7 М1                     : Тип прибора
PROJECT_UPGRADE_TIME .         2021-03-18T21_24_50           : 
PRTY               .         ПП-223_2                      : Номер партии
SRV                .         ЦКРС                          : Заказчик
SRVC               .         Лузин  А.Б.                   : Начальник партии
TLFamily_DEPT      .         Measured Depth                : 
TLFamily_LM        .         Casing Collar locator         : 
TLFamily_MN        .                                       : 
TLFamily_SPID      .         Spontaneous Potential         : 
TLFamily_TM        .         Temperature                   : 
group              .         second                        : 
~Curve Information
#_______________________________________________________________________________
#
#LOGNAME           .UNIT     LOG_ID                        : DESCRIPTION
#_______________________________________________________________________________
DEPT               .M                                      : Depth curve 
LM                 .е.ацп                                  : Локация муфт 
MN                 .атм                                    : Манометрия, атм 
SPID               .м/ч                                    : Скорость записи,м/час 
TM                 .град.С                                 : Термометрия,град.С 
~Ascii
# ...
1100.05    1512.98    99.06      1659.998   39.54     
1100.25    1256.993   99.09      1630       39.55     
1100.45    1161.98    99.09      1635.002   39.55     
1100.65    909        99.04      1660.005   39.55     
1100.85    914.013    99.14      1717.995   39.56     
1101.05    1082.012   99.14      1660       39.57     
1101.25    1229.022   99.17      1660       39.57     
1101.45    1504.987   99.19      1660       39.58     
1101.65    1337.978   99.19      1660       39.58     
1101.85    1064.003   99.22      1660       39.59     
1102.05    1099.023   99.26      1660       39.59     
1102.25    1390.969   99.27      1660       39.59     
1102.45    995.022    99.29      1660       39.6      
1102.65    1274.001   99.29      1660       39.6      
1102.85    1284.986   99.3       1660       39.61     
1103.05    1101.056   99.32      1660       39.61     
1103.25    1807.953   99.34      1660       39.61     
1103.45    1207.006   99.34      1660       39.62     
1103.65    1277.272   99.36      1660       39.62     
1103.85    4721.036   99.41      1660       39.62     
1104.05    5172.855   99.42      1660.005   39.63     
1104.25    3330.874   99.42      1725.99    39.64     
1104.45    1735.969   99.44      1600.001   39.64     
1104.65    1337.986   99.47      1611.004   39.64     
1104.85    1160.991   99.49      1660.002   39.64     
1105.05    1044.984   99.5       1689.003   39.65     
1105.25    839.073    99.52      1729.996   39.65     
1105.45    1768.965   99.53      1682.998   39.66     
1105.65    1324.046   99.56      1660       39.67     
1105.85    1909.974   99.57      1660       39.67     
1106.05    1584.998   99.59      1660       39.68     
1106.25    1560.006   99.6       1659.998   39.67     
1106.45    1639.083   99.62      1639.999   39.68     
1106.65    2683.939   99.64      1628.003   39.68     
1106.85    1914.964   99.65      1660       39.69     
1107.05    1460.001   99.66      1660       39.69     
1107.25    1473.027   99.69      1660       39.69     
1107.45    1818.979   99.69      1660       39.69     
1107.65    1550.975   99.72      1660       39.7      
1107.85    1236.011   99.74      1660       39.7      
1108.05    1380.009   99.75      1660       39.71     
1108.25    1487.994   99.78      1659.997   39.71     
1108.45    1406.985   99.79      1624.998   39.71     
1108.65    1220.096   99.79      1600.004   39.72     
1108.85    2425.949   99.83      1653.001   39.73     
1109.05    1786.979   99.84      1660       39.73     
1109.25    1527.984   99.87      1660       39.73     
1109.45    1321.988   99.89      1660       39.74     
1109.65    1168.993   99.89      1660       39.74     
1109.85    1076.067   99.9       1660       39.74     
1110.05    1917.964   99.93      1660       39.75     
1110.25    1470.021   99.96      1660       39.76     
1110.45    1730.965   99.94      1660       39.76     
1110.65    1295.997   99.96      1660       39.77     
1110.85    1256.005   99.99      1660       39.77     
1111.05    1322.002   100        1660       39.77     
1111.25    1346.99    100.06     1660       39.78     
1111.45    1217.05    100.04     1660       39.79     
1111.65    1841.978   100.05     1660       39.79     
1111.85    1568.99    100.09     1660.002   39.79     
1112.05    1442.979   100.09     1691       39.8      
1112.25    1177.01    100.12     1690.998   39.8      
1112.45    1305.002   100.12     1660       39.81     
1112.65    1324.008   100.13     1660       39.81     
1112.85    1421.064   100.16     1660       39.81     
1113.05    2227.971   100.16     1659.999   39.82     
1113.25    1863.969   100.17     1649.996   39.82     
1113.45    1474.988   100.21     1600.002   39.82     
1113.65    1319.011   100.21     1627.003   39.83     
1113.85    1454.036   100.24     1660       39.83     
1114.05    1911.965   100.28     1659.996   39.84     
1114.25    1475.955   100.29     1607.004   39.84     
1114.45    908.988    100.29     1660       39.84     
1114.65    760.072    100.31     1660       39.84     
1114.85    1659.407   100.36     1660       39.85     
1115.05    6765.81    100.36     1660       39.85     
1115.25    4381.878   100.36     1659.997   39.86     
1115.45    2846.942   100.39     1622.006   39.87     
1115.65    2121.952   100.41     1699.002   39.87     
1115.85    1515.977   100.43     1729.994   39.88     
1116.05    1230.98    100.44     1659.995   39.88     
1116.25    984.132    100.44     1600.001   39.88     
1116.45    2638.955   100.45     1618.003   39.89     
1116.65    2077.968   100.49     1660       39.89     
1116.85    1681.983   100.51     1660       39.9      
1117.05    1474.999   100.52     1660       39.9      
1117.25    1459.996   100.53     1660       39.9      
1117.45    1414.99    100.56     1660       39.9      
1117.65    1295.029   100.56     1660       39.9      
1117.85    1657.998   100.59     1660.002   39.91     
1118.05    1637.965   100.61     1679.002   39.91     
1118.25    1200.038   100.63     1702.997   39.91     
1118.45    1678.99    100.65     1660       39.91     
1118.65    1557.978   100.66     1660       39.92     
1118.85    1281.003   100.68     1660       39.92     
1119.05    1319.1     100.68     1660       39.93     
1119.25    2574.011   100.71     1660       39.93     
1119.45    2712.946   100.71     1660       39.94     
1119.65    2040.95    100.74     1660       39.94     
1119.85    1420.966   100.76     1660.005   39.95     
1120.05    1000.054   100.76     1722.001   39.95     
1120.25    1676.035   100.77     1729.994   39.96     
1120.45    2109.975   100.8      1660       39.96     
1120.65    1793.967   100.83     1660       39.96     
1120.85    1378.965   100.83     1660       39.96     
1121.05    944.012    100.86     1660       39.96     
1121.25    1097.985   100.87     1660.004   39.97     
1121.45    904.991    100.88     1706.997   39.97     
1121.65    791.069    100.9      1671.999   39.98     
1121.85    1646.018   100.91     1660       39.98     
1122.05    1870.962   100.93     1660       39.98     
1122.25    1399.968   100.95     1660       39.99     
1122.45    1005.094   100.97     1660       39.99     
1122.65    2178.975   101        1660.003   40        
1122.85    1871.976   101        1695.003   40        
1123.05    1575.974   101.02     1729.996   40.01     
1123.25    1249.014   101.05     1678.998   40.01     
1123.45    1427.009   101.08     1660       40.01     
1123.65    1538.988   101.08     1660       40.02     
1123.85    1388.017   101.08     1660       40.03     
1124.05    1596.976   101.1      1660       40.03     
1124.25    1292.989   101.11     1660       40.03     
1124.45    1151.987   101.13     1660       40.03     
1124.65    987.035    101.14     1660       40.04     
1124.85    1425.981   101.17     1660       40.04     
1125.05    1189.031   101.18     1660       40.04     
1125.25    1569.966   101.18     1660       40.05     
1125.45    1147.988   101.23     1659.999   40.05     
1125.65    996.029    101.23     1643.996   40.06     
1125.85    1355.031   101.25     1600.002   40.06     
1126.05    1734.553   101.27     1630.006   40.07     
1126.25    8597.743   101.28     1703.002   40.07     
1126.45    5410.843   101.3      1729.995   40.08     
1126.65    3457.903   101.35     1667.995   40.08     
1126.85    2258.947   101.35     1600.001   40.09     
1127.05    1601.981   101.35     1607.006   40.09     
1127.25    1368.993   101.36     1679.004   40.1      
1127.45    1277.015   101.39     1729.997   40.1      
1127.65    1464.005   101.4      1692.997   40.11     
1127.85    1530.01    101.42     1660       40.11     
1128.05    1651.967   101.43     1659.996   40.12     
1128.25    1244.977   101.45     1606.004   40.12     
1128.45    954.016    101.48     1660       40.12     
1128.65    1157.989   101.5      1659.998   40.13     
1128.85    1026.989   101.53     1640.001   40.13     
1129.05    890.086    101.55     1655.006   40.13     
