~Version
 VERS              .         2.0                           : CWLS LOG ASCII STANDARD - VERSION 2.0
 WRAP              .         NO                            : ONE LINE PER DEPTH STEP
 DLM               .         SPACE                         : DELIMITING CHARACTER(SPACE TAB OR COMMA)
~Well Information
#_______________________________________________________________________________
#
#PARAMETER_NAME    .UNIT     VALUE                         : DESCRIPTION
#_______________________________________________________________________________
STRT               .M        2648.2                        : First reference value
STOP               .M        2758.600166                   : Last reference value
STEP               .M        0.2000003                     : Step increment
NULL               .         -9999                         : Missing value
COMP               .                                       : Company
WELL               .         616                           : Well name
FLD                .                                       : Field
LOC                .                                       : Location
CNTY               .                                       : County
STAT               .                                       : State
CTRY               .                                       : Country
SRVC               .                                       : Service Company
DATE               .                                       : Date
API                .                                       : API number
PROJECT_UPGRADE_TIME .         2021-03-18T21_24_50           : 
group              .         Good                          : 
~Parameter Information Block
#_______________________________________________________________________________
#
#PARAMETER_NAME    .UNIT     VALUE                         : DESCRIPTION
#_______________________________________________________________________________
SET                .         D7020_D                       : 
OTHER              .         Kedr.exe версия 2.1.2.32      : 
OTHER_10           .         TM.GRD = 0.00404*TM$.UE + 0.07: 
OTHER_11           .         MN.ATM = (6.33279e-006*TM.GRD + 0.02401)*(MN$.UE + 2.72*TM.GRD + -2018): 
OTHER_12           .         GK.MKR/H = GK$.UE / 43.5489 + 0: 
OTHER_13           .         RES.SM = 0.00476*CRES.UE - 1.51709: 
OTHER_14           .         PL.GSM3 = 0 + 0 * (PL.UE / 1) +  0 * (PL.UE / 1)^2: 
OTHER_15           .         Постоянная времени ГГП = 6 сек: 
OTHER_16           .         Постоянная времени ГК = 6 сек : 
OTHER_2            .         KedrData.dll версия 3.2.2.14  : 
OTHER_3            .         LasInf.dll версия 3.2.0.13    : 
OTHER_4            .         Драйвер версия 1.2.0.5        : 
OTHER_5            .         Прибор_ КСА-M1                : 
OTHER_6            .         Номер прибора_ 155+р204       : 
OTHER_7            .         Режим_ КСА-М1 + ГГП + Резистивиметр: 
OTHER_8            .         Форма_ 223\2                  : 
OTHER_9            .         Тарировки_                    : 
PROJECT_UPGRADE_TIME .         2021-03-18T21_24_50           : 
TLFamily_CRES      .                                       : 
TLFamily_DEPT      .         Measured Depth                : 
TLFamily_GK        .         Gamma Ray                     : 
TLFamily_GK$       .                                       : 
TLFamily_LM        .         Casing Collar locator         : 
TLFamily_METKA     .                                       : 
TLFamily_MN        .                                       : 
TLFamily_MN$       .                                       : 
TLFamily_PL        .                                       : 
TLFamily_PL_2      .                                       : 
TLFamily_RCOR      .                                       : 
TLFamily_RES       .         Mud Resistivity               : 
TLFamily_SPID      .         Spontaneous Potential         : 
TLFamily_STD       .                                       : 
TLFamily_TIME      .         Time                          : 
TLFamily_TM        .         Temperature                   : 
TLFamily_TM$       .         Temperature                   : 
TLFamily_VGD       .         Gas Volume                    : 
group              .         prim                          : 
~Curve Information
#_______________________________________________________________________________
#
#LOGNAME           .UNIT     LOG_ID                        : DESCRIPTION
#_______________________________________________________________________________
DEPT               .M                                      : 1 Глубина, м -    0.0 см 
CRES               .UE                                     : 9 Проводимость, усл.ед. -  222.0 см 
GK                 .MKR/H                                  : 16 Гамма-активность, мкр./ч -  106.0 см 
GK$                .UE                                     : 13 Гамма-активность, усл.ед. -  106.0 см 
LM                 .                                       : 11 Локатор муфт,  -   16.0 см 
METKA              .                                       : 3 Метки,  -    0.0 см 
MN                 .ATM                                    : 15 Давление, атм. -  160.0 см 
MN$                .UE                                     : 7 Давление, усл.ед. -  160.0 см 
PL                 .UE                                     : 10 Плотность, усл.ед. -  270.0 см 
PL_2               .GSM3                                   : 18 Плотность, г./см3 -  270.0 см 
RCOR               .CM/KM                                  : 5 Коррекция по ролику, см/км -    0.0 см 
RES                .SM                                     : 17 Проводимость,  -  222.0 см 
SPID               .M/H                                    : 2 Скорость, м/час -    0.0 см 
STD                .                                       : 12 Приток,  -  170.0 см 
TIME               .S                                      : 4 Время, сек -    0.0 см 
TM                 .GRD                                    : 14 Температура, °C -  180.0 см 
TM$                .UE                                     : 6 Температура, усл.ед. -  180.0 см 
VGD                .                                       : 8 Влагомер,  -  170.0 см 
~Ascii
# ...
2730.200123 1275       11.57      529        56         1          251.195    12224      14         0          0          4.5519     568        9186       11701.8    46.958     11606      6651      
2730.400123 1276       12.5       588        60         0          251.214    12224      14         0          0          4.5567     510        9199       11703.12   47.026     11623      6652      
2730.600124 1276       13.1       612        71         0          251.252    12226      13         0          0          4.559      580        9212       11704.38   47.096     11640      6651      
2730.800124 1278       13.82      635        70         0          251.292    12227      14         0          0          4.5662     550        9226       11705.66   47.151     11654      6650      
2731.000124 1279       14.2       635        62         0          251.299    12227      14         0          0          4.5716     580        9239       11706.95   47.213     11669      6650      
2731.200124 1281       14.37      630        68         0          251.303    12227      13         0          0          4.5821     510        9249       11708.22   47.262     11681      6650      
2731.400125 1282       14.03      581        72         0          251.335    12228      15         0          0          4.5868     557        9258       11709.53   47.298     11690      6651      
2731.600125 1285       13.69      581        72         0          251.343    12228      15         0          0          4.5987     580        9269       11710.85   47.353     11704      6651      
2731.800125 1283       13.53      582        64         0          251.4      12230      13         0          0          4.5908     570        9285       11712.12   47.415     11719      6650      
2732.000126 1285       13.45      582        90         0          251.452    12232      13         0          0          4.6011     522        9295       11713.43   47.481     11736      6651      
2732.200126 1286       13.08      542        80         0          251.439    12231      14         0          0          4.6043     545        9307       11714.75   47.535     11749      6650      
2732.400126 1290       12.77      542        95         0          251.471    12232      14         0          0          4.6233     580        9316       11716.01   47.59      11762      6650      
2732.600127 1291       11.88      467        80         0          251.502    12233      14         0          0          4.6281     580        9327       11717.33   47.645     11776      6648      
2732.800127 1292       11.3       467        83         0          251.536    12234      13         0          0          4.6328     560        9341       11718.63   47.7       11790      6648      
2733.000127 1293       10.79      446        97         0          251.592    12236      14         0          0          4.6376     487        9351       11720      47.77      11807      6649      
2733.200127 1294       10.48      437        79         0          251.601    12236      14         0          0          4.6423     520        9365       11721.35   47.828     11821      6648      
2733.400128 1295       10.16      428        91         0          251.627    12237      14         0          0          4.6471     580        9378       11722.61   47.896     11838      6647      
2733.600128 1295       9.99       428        97         0          251.64     12237      14         0          0          4.6471     538        9388       11723.92   47.939     11849      6648      
2733.800128 1297       9.68       408        79         0          251.68     12238      13         0          0          4.6551     580        9398       11725.19   47.978     11859      6646      
2734.000129 1300       9.41       382        74         0          251.698    12239      13         0          0          4.6689     520        9407       11726.5    48.033     11872      6646      
2734.200129 1301       9.02       376        87         0          251.73     12240      13         0          0          4.6749     557        9419       11727.77   48.077     11883      6643      
2734.400129 1304       8.99       404        68         0          251.743    12240      14         0          0          4.6907     580        9433       11729.09   48.138     11898      6642      
2734.60013 1306       9.13       404        81         0          251.789    12242      13         0          0          4.6995     580        9447       11730.41   48.18      11908      6644      
2734.80013 1308       9.37       443        69         0          251.803    12242      13         0          0          4.7074     522        9465       11731.66   48.265     11930      6644      
2735.00013 1309       9.85       450        53         0          251.839    12243      14         0          0          4.7137     545        9479       11732.99   48.324     11944      6643      
2735.20013 1312       10.01      436        67         0          251.856    12243      12         0          0          4.7301     580        9498       11734.31   48.414     11966      6643      
2735.400131 1311       10.01      436        89         0          251.922    12246      15         0          0          4.7241     580        9515       11735.55   48.467     11979      6644      
2735.600131 1313       9.7        396        66         0          251.933    12246      13         0          0          4.7328     580        9530       11736.83   48.518     11992      6642      
2735.800131 1314       9.4        396        89         0          251.927    12245      13         0          0          4.7395     580        9543       11738.14   48.574     12006      6642      
2736.000132 1317       9.02       358        67         0          251.973    12247      13         0          0          4.7495     580        9553       11739.46   48.646     12024      6642      
2736.200132 1321       8.62       358        84         0          251.988    12247      14         0          0          4.7732     580        9569       11740.72   48.751     12050      6640      
2736.400132 1322       8.61       382        119        0          252.03     12248      13         0          0          4.7756     510        9586       11742.02   48.801     12062      6638      
2736.600133 1322       8.69       382        131        0          252.052    12249      14         0          0          4.7772     580        9600       11743.31   48.906     12088      6638      
2736.800133 1325       8.83       392        6480       0          252.082    12249      14         0          0          4.7884     557        9619       11744.58   49.015     12115      6638      
2737.000133 1328       8.91       392        4002       0          252.112    12250      14         0          0          4.8049     580        9636       11745.89   49.117     12140      6634      
2737.200133 1331       8.88       382        2311       0          252.156    12251      15         0          0          4.8201     522        9658       11747.16   49.188     12158      6638      
2737.400134 1333       8.82       382        914        0          252.173    12252      13         0          0          4.828      545        9682       11748.47   49.306     12187      6640      
2737.600134 1335       9.49       457        255        0          252.218    12253      13         0          0          4.8359     580        9701       11749.78   49.378     12205      6641      
2737.800134 1335       9.98       457        140        0          252.256    12254      14         0          0          4.8382     580        9720       11751.06   49.472     12228      6642      
2738.000135 1339       10.57      488        117        0          252.288    12255      13         0          0          4.8573     533        9736       11752.37   49.548     12247      6641      
2738.200135 1342       10.86      483        87         0          252.292    12254      13         0          0          4.8708     533        9752       11753.69   49.658     12274      6643      
