~Version
 VERS              .         2.0                           : CWLS LOG ASCII STANDARD - VERSION 2.0
 WRAP              .         NO                            : ONE LINE PER DEPTH STEP
 DLM               .         SPACE                         : DELIMITING CHARACTER(SPACE TAB OR COMMA)
~Well Information
#_______________________________________________________________________________
#
#PARAMETER_NAME    .UNIT     VALUE                         : DESCRIPTION
#_______________________________________________________________________________
STRT               .M        44.8                          : First reference value
STOP               .M        2755.2                        : Last reference value
STEP               .M        0.2                           : Step increment
NULL               .         -9999                         : Missing value
COMP               .                                       : Company
WELL               .         616                           : Well name
FLD                .                                       : Field
LOC                .                                       : Location
CNTY               .                                       : County
STAT               .                                       : State
CTRY               .                                       : Country
SRVC               .                                       : Service Company
DATE               .                                       : Date
API                .                                       : API number
PROJECT_UPGRADE_TIME .         2021-03-18T21_24_50           : 
group              .         Good                          : 
~Parameter Information Block
#_______________________________________________________________________________
#
#PARAMETER_NAME    .UNIT     VALUE                         : DESCRIPTION
#_______________________________________________________________________________
SET                .         D4390_D_2                     : 
COMM               .                                       : 
OTHER              .         Запись производится в присутствии: 
OTHER_10           .         Максимальная температура      : 
OTHER_100          .         GK.FLT = 0.1*GR.UR/H[-1] + (1-0.1)*GR.UR/H[0]: 
OTHER_11           .         Тип промывочной жидкости      : 
OTHER_12           .         Сопротивление ПЖ (Ом*м) при 20°C: 
OTHER_13           .         Плотность ПЖ(г/см3)           : 
OTHER_14           .         Вязкость ПЖ(с)                : 
OTHER_15           .         Водоотдача ПЖ(см3/30мин)      : 
OTHER_16           .         Уровень ПЖ                    : 
OTHER_17           .         Нефть ПЖ (%)                  : 
OTHER_18           .         Барит ПЖ (%)                  : 
OTHER_19           .         Гематит ПЖ (%)                : 
OTHER_2            .         Заказчик ННСН  ЦДНГ-1         : 
OTHER_20           .         КМЦ ПЖ (%)                    : 
OTHER_21           .         Разгазирование ПЖ (да,нет)    : 
OTHER_22           .         Подъемник                     : 
OTHER_23           .         Лаборатория                   : 
OTHER_24           .         Тип кабеля                    : 
OTHER_25           .         Длина кабеля (м)              : 
OTHER_26           .         Цена последней метки          : 
OTHER_27           .         Цена контрольной метки        : 
OTHER_28           .         Диаметр долота (мм)           : 
OTHER_29           .         Глубина бурения (м)           : 
OTHER_3            .         Площадь                       : 
OTHER_30           .         Искусственный забой (м)       : 
OTHER_31           .         Диаметр колонны (мм)          : 
OTHER_32           .         Толщина колонны (мм)          : 
OTHER_33           .         Башмак колонны (м)            : 
OTHER_34           .         Диаметр НКТ (мм)              : 
OTHER_35           .         Толщина НКТ (мм)              : 
OTHER_36           .         Воронка НКТ (м)               : 
OTHER_37           .         Дата цементожа                : 
OTHER_38           .         Тип, количество(т) и плотность цемента: 
OTHER_39           .         Интервалы перфорации (м)      : 
OTHER_4            .         Категория                     : 
OTHER_40           .         Направление, диаметр (мм)     : 
OTHER_41           .         Направление, глубина (м)      : 
OTHER_42           .         Кондуктор, диаметр (мм)       : 
OTHER_43           .         Кондуктор, глубина (м)        : 
OTHER_44           .         Техническая колонна, диаметр (мм): 
OTHER_45           .         Техническая колонна, глубина (м): 
OTHER_46           .         Эксплуатационная колонна, диаметр (мм): 
OTHER_47           .         Эксплуатационная колонна, глубина (м): 
OTHER_48           .         Программа Кедр-02 версия 3.4  : 
OTHER_49           .         Операционная система Windows NT 5.1 build 2600 Service Pack 2: 
OTHER_5            .         Назначение исследований       : 
OTHER_50           .         Программное обеспечение станции MONITOR-386EX 25/12/99 15_08_10   BGF V54 20/09/05 15_32_17   3.3__BGF_9030071: 
OTHER_51           .         Kedr.exe версия 3.4.2.74      : 
OTHER_52           .         KedrData.dll версия 3.4.2.29  : 
OTHER_53           .         Мнемоники версия 3.18 S       : 
OTHER_54           .         Драйвер версия 2.1.1.4        : 
OTHER_55           .         LasInf.dll 4.3.0.35           : 
OTHER_56           .         Прибор_ КСА-Т4                : 
OTHER_57           .         Номер прибора_ 160            : 
OTHER_58           .         Режим_ КСА-Т4                 : 
OTHER_59           .         Форма_ С.А.Б.                 : 
OTHER_6            .         Альтитуда стола ротора        : 
OTHER_60           .         Тарировки_                    : 
OTHER_61           .         <_techsia_sc_> Дата тарировки температуры 25.05.2010: 
OTHER_62           .         Ручной ввод коэффициентов     : 
OTHER_63           .         TM.DEGC = 0.00402*RTM.E.ACP + -0.994: 
OTHER_64           .         <_techsia_sc_> Дата тарировки давления 25.05.2010: 
OTHER_65           .         Ручной ввод коэффициентов     : 
OTHER_66           .         MN.ATM = (2.27521e-006*TM.DEGC + 0.02078)*(RMN.E.ACP + 6.2*TM.DEGC + -1688): 
OTHER_67           .         <_techsia_sc_> Дата тарировки ГК 25.05.2010: 
OTHER_68           .         Ручной ввод коэффициентов     : 
OTHER_69           .         GR.UR/H = RGR.IMP/MIN / 45.5144: 
OTHER_7            .         Вид исследований 3  6         : 
OTHER_70           .         GK.FLT = 0.1*GR.UR/H[-1] + (1-0.1)*GR.UR/H[0]: 
OTHER_71           .         <_techsia_sc_> Дата тарировки температуры 25.05.2010: 
OTHER_72           .         Ручной ввод коэффициентов     : 
OTHER_73           .         TM.DEGC = 0.00402*RTM.E.ACP + -0.994: 
OTHER_74           .         <_techsia_sc_> Дата тарировки давления 25.05.2010: 
OTHER_75           .         Ручной ввод коэффициентов     : 
OTHER_76           .         MN.ATM = (2.27521e-006*TM.DEGC + 0.02078)*(RMN.E.ACP + 6.2*TM.DEGC + -1688): 
OTHER_77           .         <_techsia_sc_> Дата тарировки ГК 25.05.2010: 
OTHER_78           .         Ручной ввод коэффициентов     : 
OTHER_79           .         GR.UR/H = RGR.IMP/MIN / 45.5144: 
OTHER_8            .         Начало бурения интервала каротажа: 
OTHER_80           .         GK.FLT = 0.1*GR.UR/H[-1] + (1-0.1)*GR.UR/H[0]: 
OTHER_81           .         <_techsia_sc_> Дата тарировки температуры 25.05.2010: 
OTHER_82           .         Ручной ввод коэффициентов     : 
OTHER_83           .         TM.DEGC = 0.00402*RTM.E.ACP + -0.994: 
OTHER_84           .         <_techsia_sc_> Дата тарировки давления 25.05.2010: 
OTHER_85           .         Ручной ввод коэффициентов     : 
OTHER_86           .         MN.ATM = (2.27521e-006*TM.DEGC + 0.02078)*(RMN.E.ACP + 6.2*TM.DEGC + -1688): 
OTHER_87           .         <_techsia_sc_> Дата тарировки ГК 25.05.2010: 
OTHER_88           .         Ручной ввод коэффициентов     : 
OTHER_89           .         GR.UR/H = RGR.IMP/MIN / 45.5144: 
OTHER_9            .         Окончание бурения интервала каротажа: 
OTHER_90           .         GK.FLT = 0.1*GR.UR/H[-1] + (1-0.1)*GR.UR/H[0]: 
OTHER_91           .         <_techsia_sc_> Дата тарировки температуры 25.05.2010: 
OTHER_92           .         Ручной ввод коэффициентов     : 
OTHER_93           .         TM.DEGC = 0.00402*RTM.E.ACP + -0.994: 
OTHER_94           .         <_techsia_sc_> Дата тарировки давления 25.05.2010: 
OTHER_95           .         Ручной ввод коэффициентов     : 
OTHER_96           .         MN.ATM = (2.27521e-006*TM.DEGC + 0.02078)*(RMN.E.ACP + 6.2*TM.DEGC + -1688): 
OTHER_97           .         <_techsia_sc_> Дата тарировки ГК 25.05.2010: 
OTHER_98           .         Ручной ввод коэффициентов     : 
OTHER_99           .         GR.UR/H = RGR.IMP/MIN / 45.5144: 
PROJECT_UPGRADE_TIME .         2021-03-18T21_24_50           : 
PRTY               .         ПП-601-1                      : N партии
SRVC               .         Барковский                    : Начальник партии
TLFamily_DEPT      .         Measured Depth                : 
TLFamily_LM        .         Casing Collar locator         : 
TLFamily_METKA     .                                       : 
TLFamily_MN        .                                       : 
TLFamily_TM        .         Temperature                   : 
group              .         second                        : 
~Curve Information
#_______________________________________________________________________________
#
#LOGNAME           .UNIT     LOG_ID                        : DESCRIPTION
#_______________________________________________________________________________
DEPT               .M                                      : Depth curve 
LM                 .е.ацп                                  : Локатор муфт,е.ацп 
METKA              .е.ацп                                  : Магнитные метки,е.ацп 
MN                 .атм                                    : 12 Давление, атм. -  160.0 см 
TM                 .град.C                                 : Термограмма по стволу скважины,град.C 
~Ascii
# ...
2205.6     467.003    0          196.195    56.827    
2205.8     483.991    0          196.187    56.833    
2206       427.995    0          196.214    56.842    
2206.2     394        0          196.241    56.847    
2206.4     394.991    0          196.248    56.854    
2206.6     337.006    0          196.288    56.861    
2206.8     372.009    0          196.289    56.869    
2207       430.019    0          196.305    56.874    
2207.2     550.988    0          196.332    56.881    
2207.4     474.996    0          196.372    56.888    
2207.6     452.001    0          196.364    56.896    
2207.8     461.008    0          196.39     56.902    
2208       512.001    0          196.416    56.907    
2208.2     518.991    0          196.442    56.913    
2208.4     460.023    0          196.449    56.921    
2208.6     603.988    0          196.475    56.929    
2208.8     524.991    0          196.487    56.934    
2209       466.009    0          196.525    56.939    
2209.2     519.997    0          196.528    56.947    
2209.4     499.999    0          196.531    56.953    
2209.6     495.001    0          196.586    56.958    
2209.8     503.006    0          196.581    56.967    
2210       542.984    0          196.597    56.973    
2210.2     442.99     0          196.636    56.981    
2210.4     381.013    0          196.629    56.989    
2210.6     466.006    0          196.669    56.995    
2210.8     502.986    0          196.686    57.003    
2211       416.993    0          196.688    57.008    
2211.2     371.996    0          196.715    57.016    
2211.4     348        0          196.73     57.022    
2211.6     348.998    0          196.746    57.027    
2211.8     335.998    0          196.79     57.033    
2212       326.013    0          196.778    57.041    
2212.2     405.991    0          196.814    57.046    
2212.4     348.992    0          196.827    57.055    
2212.6     300.643    0          196.836    57.061    
2212.8     4377.762   0          196.884    57.07     
2213       2865.861   0          196.889    57.077    
2213.2     1984.925   0          196.917    57.082    
2213.4     1507.949   0          196.929    57.087    
2213.6     1185.976   0          196.947    57.096    
2213.8     1035.995   0          196.954    57.101    
2214       1003.958   0          197        57.106    
2214.2     739.983    0          197.005    57.115    
2214.4     632.98     0          197.012    57.12     
2214.6     507.98     0          197.055    57.124    
2214.8     381.024    2          197.063    57.131    
2215       531.989    0          197.089    57.138    
2215.2     463.001    0          197.092    57.143    
2215.4     469.004    0          197.118    57.149    
2215.6     492.992    0          197.147    57.157    
2215.8     445.01     0          197.149    57.162    
2216       506.005    0          197.166    57.169    
2216.2     535.003    0          197.193    57.175    
2216.4     550.999    0          197.194    57.184    
2216.6     542.997    0          197.237    57.192    
2216.8     520.99     0          197.259    57.199    
2217       458.988    0          197.281    57.206    
2217.2     384.994    0          197.291    57.214    
2217.4     349.01     0          197.317    57.22     
2217.6     415.003    0          197.343    57.226    
2217.8     430.993    0          197.349    57.233    
2218       384.006    0          197.374    57.238    
2218.2     419.032    0          197.402    57.247    
2218.4     620.999    0          197.413    57.252    
2218.6     613.995    0          197.432    57.258    
2218.8     583.985    0          197.442    57.266    
2219       487.993    0          197.487    57.271    
2219.2     442.994    0          197.501    57.279    
2219.4     404.989    0          197.502    57.285    
2219.6     336.003    0          197.545    57.293    
2219.8     357.007    0          197.554    57.301    
2220       403.025    0          197.589    57.307    
2220.2     561.998    0          197.59     57.316    
2220.4     551.986    0          197.592    57.323    
2220.6     465.024    0          197.638    57.332    
2220.8     619.018    0          197.657    57.339    
2221       730.977    0          197.658    57.348    
2221.2     584.98     0          197.711    57.354    
2221.4     459.009    0          197.703    57.362    
2221.6     516.987    0          197.725    57.367    
2221.8     435.997    0          197.739    57.373    
2222       417.702    0          197.76     57.38     
2222.2     4851.736   0          197.785    57.386    
2222.4     3185.729   0          197.813    57.392    
2222.6     1472.946   0          197.833    57.399    
2222.8     1130.969   0          197.844    57.404    
2223       937.971    0          197.887    57.413    
2223.2     755.023    0          197.878    57.418    
2223.4     897.003    0          197.902    57.423    
2223.6     912.988    0          197.93     57.431    
2223.8     837.003    0          197.944    57.44     
2224       856        0          197.978    57.445    
2224.2     855.007    0          197.987    57.45     
2224.4     899.984    0          197.971    57.457    
2224.6     797.998    0          198.015    57.464    
2224.8     785.99     0          198.04     57.469    
2225       723.052    0          198.033    57.478    
2225.2     1051.017   0          198.078    57.483    
2225.4     1159.01    0          198.103    57.49     
2225.6     1223.995   0          198.11     57.497    
2225.8     1192.023   0          198.128    57.502    
2226       1339.972   0          198.162    57.51     
2226.2     1162.977   0          198.15     57.515    
2226.4     1016.962   0          198.193    57.523    
2226.6     775.982    0          198.208    57.529    
2226.8     660.03     0          198.209    57.535    
2227       852.006    0          198.253    57.544    
2227.2     890.996    0          198.274    57.552    
2227.4     863.987    0          198.276    57.56     
2227.6     783.972    0          198.289    57.566    
2227.8     608.975    0          198.298    57.571    
2228       450        0          198.323    57.579    
2228.2     450.025    0          198.363    57.584    
2228.4     610.037    0          198.364    57.593    
2228.6     846.022    0          198.379    57.598    
2228.8     987.004    0          198.424    57.607    
2229       1009.976   0          198.447    57.614    
2229.2     858.99     0          198.439    57.621    
2229.4     797.024    0          198.478    57.63     
2229.6     944.989    0          198.479    57.635    
2229.8     872.964    0          198.516    57.643    
2230       645.985    0          198.514    57.651    
2230.2     549.01     0          198.527    57.657    
2230.4     611.034    0          198.575    57.662    
2230.6     825.034    0          198.585    57.667    
2230.8     1037.994   0          198.586    57.676    
2231       1003.013   0          198.614    57.683    
2231.2     1083.996   0          198.64     57.689    
2231.4     1056       0          198.652    57.695    
2231.6     1053.996   0          198.671    57.703    
2231.8     7314.588   0          198.679    57.708    
2232       4722.761   0          198.717    57.713    
2232.2     3222.828   0          198.73     57.722    
2232.4     2142.888   0          198.74     57.728    
2232.6     1440.878   0          198.761    57.736    
2232.8     673.976    0          198.787    57.742    
2233       525.976    0          198.806    57.749    
2233.2     378        0          198.821    57.755    
2233.4     376        0          198.845    57.763    
2233.6     378.005    0          198.871    57.768    
2233.8     412        0          198.881    57.773    
2234       411.998    0          198.915    57.781    
2234.2     401.004    0          198.917    57.787    
2234.4     424.983    0          198.952    57.796    
2234.6     318.013    0          198.981    57.8      
