~Version
 VERS              .         2.0                           : CWLS LOG ASCII STANDARD - VERSION 2.0
 WRAP              .         NO                            : ONE LINE PER DEPTH STEP
 DLM               .         SPACE                         : DELIMITING CHARACTER(SPACE TAB OR COMMA)
~Well Information
#_______________________________________________________________________________
#
#PARAMETER_NAME    .UNIT     VALUE                         : DESCRIPTION
#_______________________________________________________________________________
STRT               .M        44                            : First reference value
STOP               .M        2769.2                        : Last reference value
STEP               .M        0.2                           : Step increment
NULL               .         -9999                         : Missing value
COMP               .                                       : Company
WELL               .         616                           : Well name
FLD                .                                       : Field
LOC                .                                       : Location
CNTY               .                                       : County
STAT               .                                       : State
CTRY               .                                       : Country
SRVC               .                                       : Service Company
DATE               .                                       : Date
API                .                                       : API number
PROJECT_UPGRADE_TIME .         2021-03-18T21_24_50           : 
group              .         Good                          : 
~Parameter Information Block
#_______________________________________________________________________________
#
#PARAMETER_NAME    .UNIT     VALUE                         : DESCRIPTION
#_______________________________________________________________________________
SET                .         D1160_D                       : 
OTHER              .         Программное обеспечение станции MONITOR-386EX 25/12/99 15_08_10   BGF V52 22/08/01 16_56_30   3.2_BGF_N_3070031: 
OTHER_10           .         Тарировки_                    : 
OTHER_11           .         TM.GRD = 0.00403*TM$.UE + -1.19: 
OTHER_12           .         MN.ATM = (7.1e-006*TM.GRD + 0.02017)*(MN$.UE + -3.03*TM.GRD + -1833): 
OTHER_13           .         Id error                      : 
OTHER_2            .         Kedr.exe версия 3.4.2.51      : 
OTHER_3            .         KedrData.dll версия 3.4.2.24  : 
OTHER_4            .         Драйвер версия 2.1.1.8        : 
OTHER_5            .         Мнемоники версия 3.3 S        : 
OTHER_6            .         Прибор_ КСА-М1                : 
OTHER_7            .         Номер прибора_ 265            : 
OTHER_8            .         Режим_ КСА-М1                 : 
OTHER_9            .         Форма_ ТЕРМОМЕТР              : 
PROJECT_UPGRADE_TIME .         2021-03-18T21_24_49           : 
TLFamily_DEPT      .         Measured Depth                : 
TLFamily_GK        .         Gamma Ray                     : 
TLFamily_GK$       .                                       : 
TLFamily_LM        .         Casing Collar locator         : 
TLFamily_METKA     .                                       : 
TLFamily_MN        .                                       : 
TLFamily_MN$       .                                       : 
TLFamily_RCOR      .                                       : 
TLFamily_SPID      .         Spontaneous Potential         : 
TLFamily_STD       .                                       : 
TLFamily_TENS      .         Cable Tension                 : 
TLFamily_TIME      .         Time                          : 
TLFamily_TM        .         Temperature                   : 
TLFamily_TM$       .         Temperature                   : 
TLFamily_VGD       .         Gas Volume                    : 
group              .         prim                          : 
~Curve Information
#_______________________________________________________________________________
#
#LOGNAME           .UNIT     LOG_ID                        : DESCRIPTION
#_______________________________________________________________________________
DEPT               .M                                      : 1 Глубина, м -    0.0 см 
GK                 .MKR/H                                  : 15 Гамма-активность, мкр./ч -  110.0 см 
GK$                .UE                                     : 12 Гамма-активность, усл.ед. -  110.0 см 
LM                 .                                       : 10 Локатор муфт,  -   20.0 см 
METKA              .                                       : 3 Метки,  -    0.0 см 
MN                 .ATM                                    : 14 Давление, атм. -  160.0 см 
MN$                .UE                                     : 8 Давление, усл.ед. -  160.0 см 
RCOR               .CM/KM                                  : 5 Коррекция по ролику, см/км -    0.0 см 
SPID               .M/H                                    : 2 Скорость, м/час -    0.0 см 
STD                .                                       : 11 Приток,  -  170.0 см 
TENS               .T                                      : 6 Натяжение кабеля, т -    0.0 см 
TIME               .S                                      : 4 Время, сек -    0.0 см 
TM                 .GRD                                    : 13 Температура, °C -  180.0 см 
TM$                .UE                                     : 7 Температура, усл.ед. -  180.0 см 
VGD                .                                       : 9 Влагомер,  -  170.0 см 
~Ascii
# ...
2758.6     7.26       314        1          0          256.773    14445      -1400      566        32373      0          15980.17   90.045     22639      6503      
2758.8     7.82       348        1          0          256.853    14449      -1400      559        32373      0          15981.48   90.049     22640      6503      
2759       8.04       348        1          0          256.749    14444      -1400      557        32374      0          15982.77   90.05      22640      6503      
2759.2     7.89       333        2704       0          256.875    14450      -1400      563        32374      0          15984.03   90.053     22641      6502      
2759.4     7.82       333        385        0          256.861    14449      -1400      562        32373      0          15985.31   90.081     22648      6502      
2759.6     7.12       284        1          0          256.895    14451      -1400      560        32373      0          15986.61   90.115     22656      6503      
2759.8     6.78       284        1          0          256.919    14452      -1400      559        32373      0          15987.89   90.167     22669      6503      
2760       7.41       336        1          2          256.917    14452      -1400      565        32373      0          15989.2    90.209     22680      6503      
2760.2     7.72       336        1          0          256.962    14454      -1400      559        32373      0          15990.57   90.237     22687      6503      
2760.4     8.37       369        1          0          256.957    14454      -1400      562        32373      0          15991.81   90.265     22693      6504      
2760.6     8.56       369        1          0          257.007    14456      -1400      567        32373      0          15993.12   90.304     22703      6503      
2760.8     8.13       340        1          0          256.98     14455      -1400      565        32374      0          15994.39   90.4       22727      6503      
2761       8.01       340        1          0          257.043    14457      -1400      561        32374      0          15995.69   90.509     22754      6502      
2761.2     7.42       307        1          0          257.035    14457      -1400      566        32374      0          15996.96   90.601     22777      6504      
2761.4     7.25       307        1          0          257.086    14459      -1400      563        32373      0          15998.23   90.662     22792      6503      
2761.6     7.14       303        1          0          257.078    14459      -1400      560        32374      0          15999.54   90.709     22804      6504      
2761.8     7.44       346        1          0          257.123    14461      -1400      553        32373      0          16000.84   90.746     22813      6504      
2762       8.02       353        1          0          257.112    14461      -1400      561        32373      0          16002.14   90.771     22819      6504      
2762.2     8.26       362        1          0          257.151    14462      -1400      566        32373      0          16003.39   90.788     22823      6504      
2762.4     8.45       365        1          0          257.163    14463      -1400      556        32373      0          16004.7    90.802     22827      6504      
2762.6     8.54       368        1          0          257.17     14463      -1400      562        32373      0          16005.95   90.816     22830      6505      
2762.8     8.6        369        1          0          257.205    14465      -1400      561        32373      0          16007.25   90.828     22833      6505      
2763       8.25       335        1          0          257.209    14465      -1400      554        32373      0          16008.56   90.843     22837      6506      
2763.2     7.96       335        1          0          257.248    14467      -1400      560        32373      0          16009.87   90.856     22840      6506      
2763.4     7.29       282        1          0          257.23     14466      -1400      559        32373      0          16011.11   90.868     22843      6506      
2763.6     6.81       282        1          0          257.29     14469      -1400      565        32373      0          16012.38   90.876     22845      6507      
2763.8     6.74       290        1          0          257.269    14468      -1400      550        32373      0          16013.73   90.888     22848      6506      
2764       6.77       290        1          0          257.332    14471      -1400      554        32373      0          16015.02   90.896     22850      6507      
2764.2     6.83       295        1          0          257.311    14470      -1400      561        32373      0          16016.28   90.908     22853      6506      
2764.4     6.88       295        1          0          257.368    14473      -1400      562        32374      0          16017.56   90.912     22854      6507      
2764.6     6.95       299        1          0          257.356    14472      -1400      558        32373      0          16018.83   90.923     22857      6506      
2764.8     6.98       299        1          0          257.41     14475      -1400      564        32374      0          16020.1    90.928     22858      6507      
2765       6.98       298        1          0          257.422    14475      -1400      555        32372      0          16021.38   90.935     22860      6507      
2765.2     6.97       298        1          0          257.429    14476      -1400      556        32373      0          16022.69   90.947     22863      6507      
2765.4     7.12       310        1          0          257.458    14477      -1400      562        32373      0          16024      90.952     22864      6507      
2765.6     7.22       310        1          0          257.451    14477      -1400      554        32373      0          16025.25   90.96      22866      6506      
2765.8     7.48       328        1          0          257.5      14479      -1400      554        32373      0          16026.62   90.964     22867      6506      
2766       7.61       328        1          0          257.49     14479      -1400      554        32374      0          16027.86   90.972     22869      6507      
2766.2     8.12       357        1          0          257.542    14481      -1400      561        32372      0          16029.17   90.98      22871      6508      
2766.4     8.28       357        1          0          257.521    14480      -1400      559        32373      0          16030.41   90.988     22873      6509      
2766.6     8.46       365        1          0          257.569    14482      -1400      558        32373      0          16031.72   90.992     22874      6508      
2766.8     8.51       365        1          0          257.563    14482      -1400      564        32373      0          16033.02   91         22876      6507      
2767       7.97       329        1          0          257.605    14484      -1400      562        32373      0          16034.27   91.005     22877      6507      
2767.2     7.78       329        1          0          257.605    14484      -1400      561        32373      0          16035.64   91.009     22878      6507      
2767.4     7.84       337        1          0          257.653    14486      -1400      556        32373      0          16036.95   91.016     22880      6507      
2767.6     7.86       336        1          -9999      257.644    14486      -9999      -9999      32373      -9999      -9999      91.018     22880      6508      
2767.8     7.84       335        -9999      -9999      257.671    14487      -9999      -9999      32373      -9999      -9999      91.021     22881      6506      
2768       7.71       319        -9999      -9999      257.689    14488      -9999      -9999      32374      -9999      -9999      91.025     22882      6471      
2768.2     7.18       298        -9999      -9999      257.669    14487      -9999      -9999      32374      -9999      -9999      91.037     22885      6454      
