~Version
 VERS              .         2.0                           : CWLS LOG ASCII STANDARD - VERSION 2.0
 WRAP              .         NO                            : ONE LINE PER DEPTH STEP
 DLM               .         SPACE                         : DELIMITING CHARACTER(SPACE TAB OR COMMA)
~Well Information
#_______________________________________________________________________________
#
#PARAMETER_NAME    .UNIT     VALUE                         : DESCRIPTION
#_______________________________________________________________________________
STRT               .M        2657.6                        : First reference value
STOP               .M        2764.999893                   : Last reference value
STEP               .M        0.1999998                     : Step increment
NULL               .         -9999                         : Missing value
COMP               .                                       : Company
WELL               .         616                           : Well name
FLD                .                                       : Field
LOC                .                                       : Location
CNTY               .                                       : County
STAT               .                                       : State
CTRY               .                                       : Country
SRVC               .                                       : Service Company
DATE               .                                       : Date
API                .                                       : API number
PROJECT_UPGRADE_TIME .         2021-03-18T21_24_50           : 
group              .         Good                          : 
~Parameter Information Block
#_______________________________________________________________________________
#
#PARAMETER_NAME    .UNIT     VALUE                         : DESCRIPTION
#_______________________________________________________________________________
SET                .         D7024_D_2                     : 
NPR                .         155                           : Номер прибора
OTHER              .         Kedr.exe версия 2.1.2.32      : 
OTHER_10           .         TM.GRD = 0.00404*TM$.UE + 0.07: 
OTHER_11           .         MN.ATM = (6.33279e-006*TM.GRD + 0.02401)*(MN$.UE + 2.72*TM.GRD + -2018): 
OTHER_12           .         GK.MKR/H = GK$.UE / 43.5489 + 0: 
OTHER_13           .         RES.SM = 0.00476*CRES.UE - 1.51709: 
OTHER_14           .         PL.GSM3 = 0 + 0 * (PL.UE / 1) +  0 * (PL.UE / 1)^2: 
OTHER_15           .         Постоянная времени ГГП = 6 сек: 
OTHER_16           .         Постоянная времени ГК = 6 сек : 
OTHER_2            .         KedrData.dll версия 3.2.2.14  : 
OTHER_3            .         LasInf.dll версия 3.2.0.13    : 
OTHER_4            .         Драйвер версия 1.2.0.5        : 
OTHER_5            .         Прибор_ КСА-M1                : 
OTHER_6            .         Номер прибора_ 155+р204       : 
OTHER_7            .         Режим_ КСА-М1 + ГГП + Резистивиметр: 
OTHER_8            .         Форма_ 223\2                  : 
OTHER_9            .         Тарировки_                    : 
PR                 .         КСА-Т7 М1                     : Тип прибора
PROJECT_UPGRADE_TIME .         2021-03-18T21_24_50           : 
PRTY               .         ПП-223_2                      : Номер партии
SRV                .         ЦКРС                          : Заказчик
SRVC               .         Лузин  А.Б.                   : Начальник партии
TLFamily_DEPT      .         Measured Depth                : 
TLFamily_LM        .         Casing Collar locator         : 
TLFamily_MN        .                                       : 
TLFamily_SPID      .         Spontaneous Potential         : 
TLFamily_TM        .         Temperature                   : 
group              .         second                        : 
~Curve Information
#_______________________________________________________________________________
#
#LOGNAME           .UNIT     LOG_ID                        : DESCRIPTION
#_______________________________________________________________________________
DEPT               .M                                      : Depth curve 
LM                 .е.ацп                                  : Локация муфт 
MN                 .атм                                    : Манометрия, атм 
SPID               .м/ч                                    : Скорость записи,м/час 
TM                 .град.С                                 : Термометрия,град.С 
~Ascii
2657.6000977 -9999      -9999      -9999      -9999     
2657.8     -9999      -9999      130.029    -9999     
2658       123.017    -9999      190.113    -9999     
2658.199999 158.159    -9999      422.071    -9999     
2658.399999 483.873    -9999      568.035    -9999     
2658.599999 224.016    -9999      639.991    -9999     
2658.799999 255.996    -9999      620.946    -9999     
2658.999999 248.001    -9999      510.034    -9999     
2659.199998 250.984    -9999      580        -9999     
2659.399998 218.986    368.72     580.029    -9999     
2659.599998 190.992    367.68     639.971    56.99     
2659.799998 175.021    365.48     579.966    57        
2659.999998 218.998    365.12     510.034    57.01     
2660.199997 215.02     365.28     580.008    57        
2660.399997 255.994    365.55     596.958    57        
2660.599997 242.97     364.81     510.034    57        
2660.799997 181.988    364.9      579.983    56.99     
2660.999997 157.011    365.18     545.017    56.99     
2661.199996 179.999    365.74     580.019    56.99     
2661.399996 177.039    364.79     617.953    56.99     
2661.599996 255.969    366.5      522.028    56.99     
2661.799996 192.984    365.28     579.977    56.99     
2661.999996 160.037    364.88     532.989    56.98     
2662.199995 235.971    364.76     510.006    56.97     
2662.399995 175.991    365.39     521.994    56.97     
2662.599995 157.009    366.44     510.034    56.97     
2662.799995 174.993    366.97     579.966    56.96     
2662.999995 160.002    368.11     510        56.96     
2663.199994 164.004    367.24     510.034    56.96     
2663.399994 172.991    367.74     580        56.95     
2663.599994 154.993    368.57     580        56.95     
2663.799994 139.989    368.52     579.977    56.94     
2663.999994 118.012    368.01     533.003    56.94     
2664.199993 142.003    367.23     540.02     56.94     
2664.399993 148.992    366.8      580        56.93     
2664.599993 133.007    366.36     579.977    56.93     
2664.799993 147        365.89     533        56.92     
2664.999993 148.004    365.42     533        56.92     
2665.199992 155.988    365.62     532.019    56.92     
2665.399992 131.012    364.68     570.005    56.91     
2665.599992 155.983    366.3      579.986    56.91     
2665.799992 122.011    366.98     551.979    56.9      
2665.999992 143.988    368.38     510.023    56.9      
2666.199991 119.001    367.6      557.011    56.89     
2666.399991 122.011    367.9      580        56.88     
2666.599991 144.985    368.94     579.994    56.88     
2666.799991 113.999    368.62     568.006    56.88     
2666.999991 110.999    368.51     580        56.87     
2667.19999 108.016    368.31     580        56.87     
2667.39999 141.003    367.58     580        56.86     
2667.59999 147.999    366.86     580        56.86     
2667.79999 145.982    366.21     579.966    56.86     
2667.99999 109.993    365.84     510        56.85     
2668.199989 95.006     365.8      510.034    56.85     
2668.399989 108.014    365.69     580        56.84     
2668.599989 135.984    367.09     580        56.84     
2668.799989 103.009    367.69     579.971    56.83     
2668.999989 124.479    368.71     520        56.83     
2669.199988 5189.022   368.02     520.029    56.82     
2669.399988 3189.824   368.43     580        56.82     
2669.599988 785.699    369.38     579.966    56.82     
2669.799988 169.978    369.4      510.034    56.81     
2669.999988 125.994    368.72     580        56.81     
2670.199987 113.002    368.16     579.972    56.8      
2670.399987 118.004    367.89     522.014    56.79     
2670.599987 125.982    367.63     550.015    56.79     
2670.799987 90.005     366.87     580        56.79     
2670.999987 100.012    366.44     579.976    56.78     
2671.199986 124.994    366.69     529.99     56.77     
2671.399986 111.999    365.84     510.034    56.77     
2671.599986 108.99     366.59     580.019    56.76     
2671.799986 88.015     368.81     617.958    56.75     
2671.999986 117.988    368.65     533.023    56.75     
2672.199985 94.003     367.76     579.972    56.74     
2672.399985 100.999    367.54     522.023    56.74     
2672.599985 98.007     366.69     568.006    56.73     
2672.799985 112.991    367.64     579.985    56.73     
2672.999985 94.999     367.28     550.015    56.72     
2673.199984 93.006     367.11     579.966    56.72     
2673.399984 105.023    366.98     510.034    56.71     
2673.599984 150.983    369.41     580        56.71     
2673.799984 116        368.89     580.002    56.7      
2673.999984 114.982    369.48     583.992    56.7      
2674.199983 78.997     370.39     568.006    56.69     
2674.399983 72.006     369.17     579.977    56.69     
2674.599983 84.019     369.31     534.023    56.69     
2674.799983 122.993    369.17     579.994    56.69     
2674.999983 107.997    369.29     567.972    56.68     
2675.199982 101.017    368.49     510.023    56.67     
2675.399982 135.99     368.97     557.008    56.67     
2675.599982 116.002    368.14     573.976    56.67     
2675.799982 119.986    367.59     523.993    56.66     
2675.999982 92.001     367.16     510.034    56.65     
2676.199981 94.997     367.3      579.977    56.65     
2676.399981 88.007     367.34     533.023    56.65     
2676.599981 103.004    368.44     579.972    56.65     
2676.799981 111.996    366.73     522.028    56.64     
2676.999981 102.991    369.52     580        56.63     
2677.19998 84.992     368.84     579.994    56.63     
2677.39998 69.009     369.55     567.972    56.62     
2677.59998 88.001     371.37     510        56.62     
2677.79998 90         369.77     510.034    56.61     
2677.99998 89.989     369.77     579.966    56.61     
2678.199979 67.996     369.88     510.011    56.61     
2678.399979 59.016     369.45     533.003    56.6      
2678.599979 91.994     368.91     540.02     56.6      
2678.799979 80.007     368.71     579.994    56.59     
2678.999979 94.993     368.02     567.991    56.59     
2679.199978 81.009     368.31     550.015    56.59     
2679.399978 99.991     368.04     579.966    56.58     
2679.599978 82.035     368.03     510.028    56.58     
2679.799978 153.019    367.96     568.006    56.57     
2679.999978 191.961    369.81     579.994    56.56     
2680.199977 115.215    369.42     567.977    56.56     
2680.399977 4631.603   371.1      522.006    56.56     
2680.599977 1780.342   370.99     534        56.55     
2680.799977 437.86     370.09     533.023    56.54     
2680.999977 151.971    370.12     579.994    56.54     
2681.199976 92.003     369.51     568.006    56.53     
2681.399976 99.013     369.49     579.977    56.52     
2681.599976 124.982    369.32     532.989    56.52     
2681.799976 88.999     370.08     510.028    56.52     
2681.999976 86.008     371.37     568.006    56.5      
2682.199975 103.007    370.13     580        56.49     
2682.399975 117        371        580        56.48     
2682.599975 117.999    371.28     580        56.48     
2682.799975 115.99     370.92     579.966    56.48     
2682.999975 94.996     370.02     510.023    56.47     
2683.199974 86.01      369.25     556.977    56.47     
2683.399974 107.006    368.85     510.034    56.46     
2683.599974 119.003    369.24     579.98     56.46     
2683.799974 125.001    368.19     539.997    56.46     
2683.999974 127.987    367.73     533.023    56.45     
2684.199973 101        367.75     579.972    56.45     
2684.399973 100.99     367.9      522.006    56.44     
2684.599973 80.996     369.71     534        56.44     
2684.799973 72.999     369.87     533.023    56.43     
2684.999973 70.006     371.49     579.972    56.43     
2685.199972 82.009     370.96     522.028    56.43     
2685.399972 100.02     371.55     580        56.42     
2685.599972 140.998    370.64     580        56.42     
2685.799972 135.975    371.62     580        56.41     
2685.999972 86.037     370.98     580        56.4      
2686.199971 162.027    370.68     580        56.4      
