~Version
 VERS              .         2.0                           : CWLS LOG ASCII STANDARD - VERSION 2.0
 WRAP              .         NO                            : ONE LINE PER DEPTH STEP
 DLM               .         SPACE                         : DELIMITING CHARACTER(SPACE TAB OR COMMA)
~Well Information
#_______________________________________________________________________________
#
#PARAMETER_NAME    .UNIT     VALUE                         : DESCRIPTION
#_______________________________________________________________________________
STRT               .M        2648.2                        : First reference value
STOP               .M        2758.600166                   : Last reference value
STEP               .M        0.2000003                     : Step increment
NULL               .         -9999                         : Missing value
COMP               .                                       : Company
WELL               .         616                           : Well name
FLD                .                                       : Field
LOC                .                                       : Location
CNTY               .                                       : County
STAT               .                                       : State
CTRY               .                                       : Country
SRVC               .                                       : Service Company
DATE               .                                       : Date
API                .                                       : API number
PROJECT_UPGRADE_TIME .         2021-03-18T21_24_50           : 
group              .         Good                          : 
~Parameter Information Block
#_______________________________________________________________________________
#
#PARAMETER_NAME    .UNIT     VALUE                         : DESCRIPTION
#_______________________________________________________________________________
SET                .         D7020_D                       : 
OTHER              .         Kedr.exe версия 2.1.2.32      : 
OTHER_10           .         TM.GRD = 0.00404*TM$.UE + 0.07: 
OTHER_11           .         MN.ATM = (6.33279e-006*TM.GRD + 0.02401)*(MN$.UE + 2.72*TM.GRD + -2018): 
OTHER_12           .         GK.MKR/H = GK$.UE / 43.5489 + 0: 
OTHER_13           .         RES.SM = 0.00476*CRES.UE - 1.51709: 
OTHER_14           .         PL.GSM3 = 0 + 0 * (PL.UE / 1) +  0 * (PL.UE / 1)^2: 
OTHER_15           .         Постоянная времени ГГП = 6 сек: 
OTHER_16           .         Постоянная времени ГК = 6 сек : 
OTHER_2            .         KedrData.dll версия 3.2.2.14  : 
OTHER_3            .         LasInf.dll версия 3.2.0.13    : 
OTHER_4            .         Драйвер версия 1.2.0.5        : 
OTHER_5            .         Прибор_ КСА-M1                : 
OTHER_6            .         Номер прибора_ 155+р204       : 
OTHER_7            .         Режим_ КСА-М1 + ГГП + Резистивиметр: 
OTHER_8            .         Форма_ 223\2                  : 
OTHER_9            .         Тарировки_                    : 
PROJECT_UPGRADE_TIME .         2021-03-18T21_24_50           : 
TLFamily_CRES      .                                       : 
TLFamily_DEPT      .         Measured Depth                : 
TLFamily_GK        .         Gamma Ray                     : 
TLFamily_GK$       .                                       : 
TLFamily_LM        .         Casing Collar locator         : 
TLFamily_METKA     .                                       : 
TLFamily_MN        .                                       : 
TLFamily_MN$       .                                       : 
TLFamily_PL        .                                       : 
TLFamily_PL_2      .                                       : 
TLFamily_RCOR      .                                       : 
TLFamily_RES       .         Mud Resistivity               : 
TLFamily_SPID      .         Spontaneous Potential         : 
TLFamily_STD       .                                       : 
TLFamily_TIME      .         Time                          : 
TLFamily_TM        .         Temperature                   : 
TLFamily_TM$       .         Temperature                   : 
TLFamily_VGD       .         Gas Volume                    : 
group              .         prim                          : 
~Curve Information
#_______________________________________________________________________________
#
#LOGNAME           .UNIT     LOG_ID                        : DESCRIPTION
#_______________________________________________________________________________
DEPT               .M                                      : 1 Глубина, м -    0.0 см 
CRES               .UE                                     : 9 Проводимость, усл.ед. -  222.0 см 
GK                 .MKR/H                                  : 16 Гамма-активность, мкр./ч -  106.0 см 
GK$                .UE                                     : 13 Гамма-активность, усл.ед. -  106.0 см 
LM                 .                                       : 11 Локатор муфт,  -   16.0 см 
METKA              .                                       : 3 Метки,  -    0.0 см 
MN                 .ATM                                    : 15 Давление, атм. -  160.0 см 
MN$                .UE                                     : 7 Давление, усл.ед. -  160.0 см 
PL                 .UE                                     : 10 Плотность, усл.ед. -  270.0 см 
PL_2               .GSM3                                   : 18 Плотность, г./см3 -  270.0 см 
RCOR               .CM/KM                                  : 5 Коррекция по ролику, см/км -    0.0 см 
RES                .SM                                     : 17 Проводимость,  -  222.0 см 
SPID               .M/H                                    : 2 Скорость, м/час -    0.0 см 
STD                .                                       : 12 Приток,  -  170.0 см 
TIME               .S                                      : 4 Время, сек -    0.0 см 
TM                 .GRD                                    : 14 Температура, °C -  180.0 см 
TM$                .UE                                     : 6 Температура, усл.ед. -  180.0 см 
VGD                .                                       : 8 Влагомер,  -  170.0 см 
~Ascii
# ...
2746.600148 1458       8.44       366        101        0          253.768    12282      14         0          0          5.4217     580        10883      11808.33   55.691     13768      6630      
2746.800148 1461       8.79       404        286        0          253.794    12282      14         0          0          5.4365     530        10927      11809.61   55.834     13803      6628      
2747.000148 1466       9.03       404        119        0          253.839    12283      14         0          0          5.4611     580        10968      11810.9    55.978     13839      6626      
2747.200148 1468       8.95       386        82         0          253.899    12285      14         0          0          5.469      580        11006      11812.17   56.123     13875      6625      
2747.400149 1471       8.91       386        108        0          253.914    12285      13         0          0          5.4828     533        11043      11813.42   56.274     13912      6624      
2747.600149 1476       8.48       342        90         0          253.952    12285      14         0          0          5.5079     580        11080      11814.74   56.448     13955      6612      
2747.800149 1477       8.17       342        75         0          254        12286      14         0          0          5.5134     580        11116      11816      56.676     14011      6609      
2748.00015 1480       7.65       308        5357       0          253.988    12285      13         0          0          5.5261     580        11150      11817.27   56.852     14055      6607      
2748.20015 1483       7.38       309        3313       0          254.04     12287      14         0          0          5.542      580        11178      11818.54   56.894     14065      6593      
2748.40015 1486       7.28       313        2742       0          254.066    12287      13         0          0          5.5563     580        11206      11819.81   57.062     14107      6606      
2748.600151 1489       7.24       313        2884       0          254.137    12289      14         0          0          5.5706     510        11237      11821.11   57.168     14133      6604      
2748.800151 1492       7.78       369        843        0          254.138    12288      13         0          0          5.5856     580        11269      11822.41   57.337     14175      6599      
2749.000151 1496       8.12       369        223        0          254.169    12289      13         0          0          5.6039     580        11301      11823.66   57.528     14222      6597      
2749.200151 1498       8.64       401        91         0          254.191    12289      14         0          0          5.6134     580        11328      11824.92   57.641     14250      6610      
2749.400152 1500       8.9        395        79         0          254.225    12289      13         0          0          5.6221     580        11355      11826.2    57.807     14291      6595      
2749.600152 1502       8.9        388        59         0          254.258    12289      14         0          0          5.6324     545        11380      11827.47   58         14339      6589      
2749.800152 1504       8.94       395        29         0          254.307    12290      14         0          0          5.642      580        11410      11828.78   58.246     14400      6599      
2750.000153 1505       9.01       396        29         0          254.321    12290      14         0          0          5.6443     580        11444      11830.05   58.438     14448      6597      
2750.200153 1505       9.05       396        30         1          254.331    12290      14         0          0          5.6451     580        11474      11831.92   58.538     14472      6592      
2750.400153 1507       9.06       395        32         0          254.384    12292      14         0          0          5.6554     580        11501      11833.17   58.616     14492      6589      
2750.600154 1507       9.04       388        31         0          254.375    12291      14         0          0          5.6562     580        11522      11834.44   58.681     14508      6583      
2750.800154 1508       8.92       383        31         0          254.387    12291      13         0          0          5.6624     580        11538      11835.71   58.763     14528      6581      
2751.000154 1508       8.87       385        30         0          254.419    12292      15         0          0          5.6634     550        11552      11837.01   58.831     14545      6581      
2751.200154 1327       8.85       385        29         0          254.43     12292      15         0          0          4.8001     580        11564      11838.3    58.915     14566      6583      
2751.400155 1099       8.99       399        28         0          254.421    12291      14         0          0          3.7141     580        11578      11839.56   58.993     14585      6581      
2751.600155 1067       9.07       399        28         0          254.43     12291      13         0          0          3.5614     580        11596      11840.88   59.084     14608      6583      
2751.800155 1015       9.19       408        29         0          254.43     12290      14         0          0          3.3142     580        11618      11842.16   59.183     14632      6581      
2752.000156 1000       9.28       408        29         0          254.421    12290      14         0          0          3.2429     545        11626      11843.42   59.306     14662      6582      
2752.200156 987        9.4        416        26         0          254.419    12290      14         0          0          3.181      522        11631      11844.75   59.329     14668      6581      
2752.400156 983        9.47       416        27         0          254.408    12290      14         0          0          3.1604     580        11634      11846.01   59.28      14656      6582      
2752.600157 982        9.15       383        26         0          254.35     12288      14         0          0          3.1572     568        11638      11847.28   59.195     14635      6579      
2752.800157 982        8.92       369        25         0          254.371    12289      14         0          0          3.1557     580        11642      11848.61   59.132     14619      6579      
2753.000157 981        8.39       341        26         0          254.339    12288      14         0          0          3.1518     530        11649      11849.89   59.1       14611      6580      
2753.200157 980        8.11       341        26         0          254.321    12287      15         0          0          3.1484     580        11654      11851.2    59.078     14606      6581      
2753.400158 980        8.05       348        25         0          254.34     12288      13         0          0          3.1477     580        11654      11852.47   59.092     14609      6582      
2753.600158 979        8.02       348        25         0          254.312    12286      14         0          0          3.143      510        11657      11853.75   59.116     14615      6580      
2753.800158 978        7.99       347        25         0          254.299    12286      13         0          0          3.139      580        11656      11855.06   59.121     14617      6580      
2754.000159 979        8.08       370        24         0          254.271    12285      14         0          0          3.143      568        11657      11856.34   59.108     14613      6582      
2754.200159 978        8.34       375        24         0          254.267    12285      13         0          0          3.1382     510        11659      11857.68   59.082     14607      6586      
2754.400159 979        8.49       380        25         0          254.262    12285      13         0          0          3.1406     580        11662      11858.95   59.055     14600      6586      
2754.60016 978        8.61       380        25         0          254.255    12285      15         0          0          3.1382     580        11665      11860.27   59.014     14590      6585      
