~Version
 VERS              .         2.0                           : CWLS LOG ASCII STANDARD - VERSION 2.0
 WRAP              .         NO                            : ONE LINE PER DEPTH STEP
 DLM               .         SPACE                         : DELIMITING CHARACTER(SPACE TAB OR COMMA)
~Well Information
#_______________________________________________________________________________
#
#PARAMETER_NAME    .UNIT     VALUE                         : DESCRIPTION
#_______________________________________________________________________________
STRT               .M        9                             : First reference value
STOP               .M        197.4                         : Last reference value
STEP               .M        0.2                           : Step increment
NULL               .         -9999                         : Missing value
COMP               .                                       : Company
WELL               .         616                           : Well name
FLD                .                                       : Field
LOC                .                                       : Location
CNTY               .                                       : County
STAT               .                                       : State
CTRY               .                                       : Country
SRVC               .                                       : Service Company
DATE               .                                       : Date
API                .                                       : API number
PROJECT_UPGRADE_TIME .         2021-03-18T21_24_50           : 
group              .         Good                          : 
~Parameter Information Block
#_______________________________________________________________________________
#
#PARAMETER_NAME    .UNIT     VALUE                         : DESCRIPTION
#_______________________________________________________________________________
SET                .         616                           : 
CONF               .         00                            : 
END                .         0                             : 
ERR                .         0                             : 
GS00               .M        0195.38                       : 
GS01               .M        0006.66                       : 
MM00               .M        0080.00                       : 
NOKG               .         0                             : 
NPR                .         980402                        : 
PART               .         Палагутин                     : 
PROJECT_UPGRADE_TIME .         2021-03-18T21_24_49           : 
PRZK               .         Шакиров                       : 
TLFamily_AZIMUTH   .         True Dip Azimuth              : 
TLFamily_DEPTH     .         Measured Depth                : 
TLFamily_METKA     .                                       : 
TLFamily_ROLL      .                                       : 
TLFamily_SPEED     .         Spontaneous Potential         : 
TLFamily_ZENIT     .                                       : 
VPRG               .         310                           : 
WAY                .         UP                            : 
group              .         prim                          : 
~Curve Information
#_______________________________________________________________________________
#
#LOGNAME           .UNIT     LOG_ID                        : DESCRIPTION
#_______________________________________________________________________________
DEPTH              .M                                      :  
AZIMUTH            .DEG                                    :  
METKA              .                                       :  
ROLL               .DEG                                    :  
SPEED              .M/H                                    :  
ZENIT              .DEG                                    :  
~Ascii
# ...
33.4       160.87     0          46.5       540        0.56      
33.6       161.89     0          44.67      504        0.54      
33.8       164.65     0          41.61      540        0.56      
34         164.44     0          41.52      504        0.54      
34.2       165.7      0          39.94      540        0.54      
34.4       164        0          41.2       504        0.55      
34.6       168.22     0          36.76      504        0.53      
34.8       166.13     0          38.98      540        0.53      
35         164.34     0          40.73      540        0.51      
35.2       164.88     0          40.09      468        0.53      
35.4       161.46     0          43.51      540        0.51      
35.6       154.73     0          49.61      540        0.53      
35.8       156.23     0          44.39      504        0.51      
36         145.29     0          45.74      504        0.48      
36.2       138.08     0          42.07      540        0.4       
36.4       352.8      0          37.1       540        0.4       
36.6       179.29     0          31.98      504        0.4       
36.8       177.21     0          27.57      504        0.45      
37         175.2      0          25.49      504        0.52      
37.2       173.69     0          25.84      540        0.57      
37.4       174.98     0          25.03      540        0.59      
37.6       176.28     0          23.59      504        0.62      
37.8       175.45     0          23.19      504        0.63      
38         178.37     0          20.88      468        0.66      
38.2       179.39     0          19.41      540        0.69      
38.4       179.7      0          17.9       504        0.75      
38.6       179.93     0          16.24      540        0.82      
38.8       178.73     0          16.88      540        0.85      
39         181.17     0          12.76      504        0.89      
39.2       181.39     0          9.93       504        0.95      
39.4       179.58     0          10.32      540        0.96      
39.6       179.83     0          10.28      540        0.95      
39.8       179.76     0          10.96      468        0.96      
40         180.55     0          9.68       540        0.94      
40.2       179.2      0          12.26      540        0.86      
40.4       178.25     0          14.61      540        0.85      
40.6       178.2      0          15.31      540        0.87      
40.8       177.57     0          15.97      540        0.83      
41         178.44     0          15.32      504        0.87      
41.2       177.66     0          15.88      504        0.84      
41.4       177.63     0          15.69      504        0.87      
41.6       176.12     0          17.25      576        0.85      
41.8       173.95     0          19.32      504        0.83      
42         175.64     0          18.38      540        0.83      
42.2       173.62     1          20.98      504        0.81      
42.4       173.11     0          21.86      504        0.79      
42.6       173.08     0          23.36      504        0.78      
42.8       174.25     0          21.9       540        0.79      
43         173.32     0          22.47      504        0.77      
43.2       172.97     0          22.47      504        0.77      
43.4       170.83     0          24.09      576        0.76      
43.6       172.6      0          22.31      504        0.74      
43.8       172.42     0          22.47      504        0.77      
44         171.7      0          23.76      504        0.75      
44.2       171.26     0          23.95      540        0.74      
44.4       170.08     0          25.17      540        0.73      
44.6       170.38     0          24.95      540        0.73      
44.8       170.05     0          23.05      504        0.7       
45         168.35     0          24.15      468        0.7       
45.2       168.94     0          23.59      540        0.68      
45.4       168.19     0          24.03      540        0.68      
45.6       166.92     0          25.24      504        0.67      
45.8       171.73     0          20.37      504        0.67      
46         167.33     0          24.42      504        0.64      
46.2       170.08     0          21.39      540        0.65      
46.4       170.26     0          20.79      540        0.65      
46.6       171.67     0          18.73      504        0.65      
46.8       172.95     0          16.99      540        0.65      
47         171.27     0          17.97      468        0.66      
47.2       172.31     0          16.31      504        0.66      
47.4       173.7      0          14.16      540        0.67      
47.6       175.77     0          11.42      504        0.67      
47.8       173.27     0          12.55      504        0.71      
48         172.66     0          9.75       504        0.7       
48.2       99.64      0          9.19       540        0.75      
48.4       109.56     0          9.23       540        0.75      
48.6       297.1      0          7.43       576        0.76      
48.8       179.49     0          6.11       504        0.78      
49         175.49     0          8.26       432        0.83      
49.2       175.03     0          6.69       504        0.84      
49.4       177.25     0          3.75       540        0.87      
49.6       176.54     0          3.8        540        0.9       
49.8       175.4      0          4.9        504        0.88      
50         174.87     0          4.85       540        0.89      
50.2       175.15     0          4.14       468        0.91      
50.4       174.18     0          4.67       540        0.89      
50.6       177.43     0          1.72       540        0.91      
50.8       178.79     0          359.88     540        0.89      
51         177.3      0          0.44       540        0.89      
51.2       178.36     0          359.2      540        0.87      
51.4       179.14     0          358.2      504        0.88      
51.6       176.68     0          0.44       504        0.87      
51.8       178.5      0          358.48     504        0.87      
52         179.44     0          357.85     504        0.87      
52.2       179.77     1          357.31     504        0.86      
52.4       180.73     0          356.2      504        0.85      
52.6       178.72     0          357.37     540        0.87      
52.8       181.58     0          354.24     504        0.87      
53         179.97     0          355.05     540        0.89      
53.2       179.73     0          354.71     504        0.92      
53.4       181.24     0          352.92     540        0.92      
53.6       181.3      0          352.27     540        0.91      
53.8       181.01     0          352.03     504        0.93      
54         179.71     0          352.72     540        0.94      
54.2       180.9      0          351.33     540        0.93      
54.4       182.43     0          349.71     504        0.93      
54.6       182        0          350        504        0.93      
54.8       181.59     0          350.41     504        0.94      
55         182.75     0          349.92     468        0.93      
55.2       182.65     0          350.45     540        0.94      
55.4       182.43     0          350.75     504        0.96      
55.6       181.87     0          350.23     540        0.95      
55.8       183.36     0          348.41     468        0.94      
56         182.96     0          348.55     504        0.93      
56.2       183.08     0          348.51     576        0.91      
56.4       182.67     0          348.73     540        0.93      
56.6       182.11     0          348.94     540        0.95      
56.8       183.07     0          347.68     504        0.93      
57         182.34     0          347.77     468        0.92      
57.2       181.3      0          348.5      540        0.91      
57.4       180.31     0          349.21     540        0.92      
57.6       180.28     0          348.88     504        0.93      
