~Version
 VERS              .         2.0                           : CWLS LOG ASCII STANDARD - VERSION 2.0
 WRAP              .         NO                            : ONE LINE PER DEPTH STEP
 DLM               .         SPACE                         : DELIMITING CHARACTER(SPACE TAB OR COMMA)
~Well Information
#_______________________________________________________________________________
#
#PARAMETER_NAME    .UNIT     VALUE                         : DESCRIPTION
#_______________________________________________________________________________
STRT               .M        9                             : First reference value
STOP               .M        197.4                         : Last reference value
STEP               .M        0.2                           : Step increment
NULL               .         -9999                         : Missing value
COMP               .                                       : Company
WELL               .         616                           : Well name
FLD                .                                       : Field
LOC                .                                       : Location
CNTY               .                                       : County
STAT               .                                       : State
CTRY               .                                       : Country
SRVC               .                                       : Service Company
DATE               .                                       : Date
API                .                                       : API number
PROJECT_UPGRADE_TIME .         2021-03-18T21_24_50           : 
group              .         Good                          : 
~Parameter Information Block
#_______________________________________________________________________________
#
#PARAMETER_NAME    .UNIT     VALUE                         : DESCRIPTION
#_______________________________________________________________________________
SET                .         616                           : 
CONF               .         00                            : 
END                .         0                             : 
ERR                .         0                             : 
GS00               .M        0195.38                       : 
GS01               .M        0006.66                       : 
MM00               .M        0080.00                       : 
NOKG               .         0                             : 
NPR                .         980402                        : 
PART               .         Палагутин                     : 
PROJECT_UPGRADE_TIME .         2021-03-18T21_24_49           : 
PRZK               .         Шакиров                       : 
TLFamily_AZIMUTH   .         True Dip Azimuth              : 
TLFamily_DEPTH     .         Measured Depth                : 
TLFamily_METKA     .                                       : 
TLFamily_ROLL      .                                       : 
TLFamily_SPEED     .         Spontaneous Potential         : 
TLFamily_ZENIT     .                                       : 
VPRG               .         310                           : 
WAY                .         UP                            : 
group              .         prim                          : 
~Curve Information
#_______________________________________________________________________________
#
#LOGNAME           .UNIT     LOG_ID                        : DESCRIPTION
#_______________________________________________________________________________
DEPTH              .M                                      :  
AZIMUTH            .DEG                                    :  
METKA              .                                       :  
ROLL               .DEG                                    :  
SPEED              .M/H                                    :  
ZENIT              .DEG                                    :  
~Ascii
# ...
82.2       207.43     1          227.4      540        1.77      
82.4       207.78     0          226.14     504        1.79      
82.6       206.7      0          226.08     504        1.8       
82.8       207.67     0          224.21     468        1.82      
83         206.25     0          224.5      540        1.84      
83.2       206.66     0          223.21     540        1.84      
83.4       206.43     0          222.26     468        1.86      
83.6       206.88     0          220.86     540        1.87      
83.8       206.37     0          220.49     504        1.89      
84         205.88     0          220.62     504        1.9       
84.2       206.59     0          220.1      540        1.91      
84.4       207.43     0          219.64     540        1.92      
84.6       207.75     0          219.62     504        1.92      
84.8       210.6      0          218.66     432        1.93      
85         236.09     0          217.66     540        1.93      
85.2       115.04     0          216.53     504        1.94      
85.4       37.19      0          216.05     540        1.97      
85.6       231.74     0          215.25     504        1.93      
85.8       217.4      0          214.03     504        1.96      
86         216.13     0          214.05     540        1.97      
86.2       218.02     0          212.59     540        1.99      
86.4       219.99     0          211.38     504        2.06      
86.6       219.72     0          211.45     468        2.07      
86.8       220.75     0          210.08     504        2.09      
87         223.12     0          207.47     540        2.14      
87.2       222.89     0          207.33     540        2.19      
87.4       221.71     0          207.7      540        2.25      
87.6       223.04     0          205.98     504        2.29      
87.8       222.01     0          206.59     540        2.38      
88         221.76     0          205.98     504        2.41      
88.2       221.93     0          205.61     540        2.49      
88.4       222.12     0          205.26     540        2.53      
88.6       221.91     0          204.74     468        2.57      
88.8       221.96     0          204.42     540        2.61      
89         221.76     0          204.19     468        2.65      
89.2       221.98     0          203.88     540        2.67      
89.4       222.32     0          203.59     540        2.71      
89.6       222.95     0          203.23     540        2.75      
89.8       223.43     0          202.31     540        2.76      
90         223.64     0          201.07     540        2.75      
90.2       223.93     0          200.05     468        2.78      
90.4       224.55     0          198.46     540        2.82      
90.6       224.19     0          197        468        2.81      
90.8       225.38     0          195.3      504        2.85      
91         225.17     0          193.18     540        2.85      
91.2       225.41     0          191.54     468        2.87      
91.4       225.75     0          189.68     504        2.88      
91.6       225.55     0          188.38     504        2.89      
91.8       225.48     0          188.09     540        2.9       
92         226.71     0          188.06     504        2.93      
92.2       227.16     1          186.31     540        2.94      
92.4       227.04     0          184.43     504        2.96      
92.6       227.42     0          183.37     468        3         
92.8       227.8      0          181.78     504        2.98      
93         228        0          180.36     540        3         
93.2       228.01     0          179.22     540        3.07      
93.4       228.28     0          178.05     504        3.04      
93.6       228.08     0          177.32     540        3.09      
93.8       227.83     0          177.76     504        3.07      
94         229.57     0          178.34     540        3.12      
94.2       229.17     0          177.41     540        3.1       
94.4       229.91     0          176.7      540        3.14      
94.6       230.62     0          175.74     468        3.2       
94.8       230.56     0          174.17     540        3.22      
95         230.06     0          174.12     540        3.19      
95.2       230.85     0          174.4      540        3.27      
95.4       231.04     0          173.72     504        3.26      
95.6       230.51     0          173.7      504        3.25      
95.8       231.69     0          173.61     504        3.31      
96         232.04     0          172.34     540        3.33      
96.2       232.14     0          170.63     504        3.34      
96.4       232.04     0          168.66     504        3.39      
96.6       233.13     0          166.74     468        3.43      
96.8       234.09     0          164.19     468        3.41      
97         230.67     0          161.71     540        3.42      
97.2       245.66     0          159.11     540        3.43      
97.4       213.37     0          157.09     540        3.43      
97.6       187.44     0          155.06     504        3.39      
97.8       234.02     0          153.51     504        3.38      
98         231.64     0          152.91     504        3.36      
98.2       230.36     0          152.9      540        3.33      
98.4       229.79     0          153.56     504        3.32      
98.6       231.18     0          153.9      468        3.4       
98.8       232.75     0          152.72     540        3.45      
99         233.58     0          150.91     504        3.48      
99.2       234.29     0          149.05     540        3.48      
99.4       235.57     0          146.66     540        3.54      
99.6       235.76     0          143.39     504        3.55      
99.8       235.34     0          141.84     540        3.57      
100        235.88     0          140.39     540        3.62      
100.2      235.81     0          138.95     504        3.7       
100.4      235.73     0          138.05     504        3.71      
100.6      235.6      0          137.36     468        3.8       
100.8      236.26     0          137.2      540        3.86      
101        236.35     0          136.06     540        3.89      
101.2      234.04     0          135.96     504        3.87      
101.4      234.43     0          136.08     504        3.92      
101.6      234.73     0          134.44     504        3.93      
101.8      234.36     0          133.48     504        3.95      
102        234.59     0          133.04     540        4.04      
102.2      233.9      1          132.71     540        4.07      
102.4      234.23     0          132.19     504        4.1       
102.6      233.84     0          131.79     540        4.13      
102.8      234.01     0          131.94     540        4.12      
103        234.37     0          131.6      540        4.17      
103.2      234.51     0          130.58     504        4.15      
103.4      234.19     0          129.22     504        4.17      
103.6      234.44     0          128.48     540        4.24      
103.8      234.1      0          128.11     540        4.23      
104        234.26     0          127.7      540        4.25      
104.2      234.37     0          127.02     540        4.28      
104.4      234.3      0          126.37     468        4.27      
104.6      234.4      0          125.97     540        4.28      
104.8      234.72     0          125.03     540        4.28      
105        234.9      0          123.65     540        4.33      
105.2      234.76     0          122.21     540        4.3       
105.4      234.98     0          120.98     504        4.41      
105.6      235.03     0          119.79     540        4.41      
105.8      234.59     0          118.84     540        4.39      
106        235.36     0          117.89     540        4.44      
106.2      235.82     0          116.07     504        4.53      
106.4      236.01     0          113.42     468        4.53      
