~Version
 VERS              .         2.0                           : CWLS LOG ASCII STANDARD - VERSION 2.0
 WRAP              .         NO                            : ONE LINE PER DEPTH STEP
 DLM               .         SPACE                         : DELIMITING CHARACTER(SPACE TAB OR COMMA)
~Well Information
#_______________________________________________________________________________
#
#PARAMETER_NAME    .UNIT     VALUE                         : DESCRIPTION
#_______________________________________________________________________________
STRT               .M        12                            : First reference value
STOP               .M        2758.6                        : Last reference value
STEP               .M        0.2                           : Step increment
NULL               .         -9999                         : Missing value
COMP               .                                       : Company
WELL               .         616                           : Well name
FLD                .                                       : Field
LOC                .                                       : Location
CNTY               .                                       : County
STAT               .                                       : State
CTRY               .                                       : Country
SRVC               .                                       : Service Company
DATE               .                                       : Date
API                .                                       : API number
PROJECT_UPGRADE_TIME .         2021-03-18T21_24_50           : 
group              .         Good                          : 
~Parameter Information Block
#_______________________________________________________________________________
#
#PARAMETER_NAME    .UNIT     VALUE                         : DESCRIPTION
#_______________________________________________________________________________
SET                .         616ULN                        : 
PROJECT_UPGRADE_TIME .         2021-03-18T21_24_49           : 
TLFamily_AK4       .                                       : 
TLFamily_ALFAK     .                                       : 
TLFamily_AMPL      .                                       : 
TLFamily_DEPTH     .         Measured Depth                : 
TLFamily_DK1       .                                       : 
TLFamily_DK2       .                                       : 
TLFamily_DTK       .         Compressional Slowness        : 
TLFamily_QCBL      .                                       : 
TLFamily_T1        .         Travel Time 1                 : 
TLFamily_T2        .         Travel Time 2                 : 
group              .         prim                          : 
~Curve Information
#_______________________________________________________________________________
#
#LOGNAME           .UNIT     LOG_ID                        : DESCRIPTION
#_______________________________________________________________________________
DEPTH              .M                                      : 0 Depth curve 
AK4                .                                       : 2 Амплитуда - Волна по колонне - Канал1 
ALFAK              .дБ/м                                   : 1 Затухание - Волна по колонне 
AMPL               .                                       : 8 Коэффициент усиления ВС 
DK1                .дБ                                     : 3 Кривая ослабления - Волна по колонне - Канал1 
DK2                .дБ                                     : 4 Кривая ослабления - Волна по колонне - Канал2 
DTK                .мкс/м                                  : 5 ДельтаТ - Волна по породе 
QCBL               .                                       : 9 Контакт цемент-колонна 
T1                 .мкс                                    : 6 Время пробега - Волна по породе - Канал1 
T2                 .мкс                                    : 7 Время пробега - Волна по породе - Канал2 
~Ascii
# ...
2377.2     245.278    35.333     1          33.627     44.99      492.959    3          305.723    563.491   
2377.4     238.546    35.894     1          33.909     45.189     514.188    3          305.715    582.165   
2377.6     224.724    36.58      1          34.485     45.599     532.717    3          305.485    596.864   
2377.8     212.431    37.194     1          35.008     45.78      539.976    3          305.353    603.182   
2378       202.175    37.736     1          35.442     45.826     546.445    3          306.758    605.357   
2378.2     189.423    38.241     1          36.045     45.889     552.201    3          311.076    605.521   
2378.4     174.956    38.438     1          36.758     45.837     557.245    3          316.89     605.844   
2378.6     164.012    37.918     1          37.339     45.813     551.038    3          322.281    606.315   
2378.8     153.989    36.79      1          37.869     45.796     543.654    3          327.164    607.206   
2379       144.325    35.485     1          38.365     45.801     540.284    3          329.032    608.989   
2379.2     142.01     34.265     1          38.463     45.735     547.518    3          325.685    611.305   
2379.4     157.66     33.284     1          37.736     45.749     560.57     3          320.596    613.743   
2379.6     186.44     32.723     1          36.474     45.66      573.687    3          315.555    615.767   
2379.8     217.182    32.491     1          35.156     45.517     576.798    3          311.177    610.409   
2380       245.071    32.223     1          33.968     45.483     567.977    3          308.444    600.304   
2380.2     266.357    31.617     1          33.056     45.276     550.311    3          307.899    588.88    
2380.4     277.018    30.754     1          32.612     44.965     528.583    3          307.664    576.411   
2380.6     282.031    29.802     1          32.451     44.74      510.057    3          307.776    562.925   
2380.8     294.203    28.796     1          32.147     44.459     493.646    3          307.738    554.681   
2381       322.459    27.826     1          31.44      44.095     471.763    3          307.736    541.556   
2381.2     359.674    27.013     1          30.525     43.634     437.901    3          307.983    522.564   
2381.4     399.929    26.154     1          29.561     43.037     396.812    3          308.279    502.26    
2381.6     448.763    25.398     1          28.541     42.185     354.627    3          308.462    482.33    
2381.8     498.36     24.849     1          27.588     41.395     315.622    3          308.943    463.317   
2382       544.462    24.675     1          26.822     40.693     289.41     3          309.516    451.562   
2382.2     579.938    24.558     1          26.249     40.088     269.738    2          310.443    444.883   
2382.4     611.399    24.455     1          25.75      39.508     252.871    2          311.227    437.264   
2382.6     626.093    24.391     1          25.501     39.048     237.161    2          312.241    429.307   
2382.8     635.639    24.649     1          25.353     38.733     219.417    2          312.825    421.011   
2383       632.934    24.823     1          25.393     38.366     202.734    2          312.99     414.295   
2383.2     631.375    25.051     1          25.422     38.144     192.755    2          312.552    408.867   
2383.4     623.766    25.274     1          25.53      38.199     189.054    2          311.988    406.453   
2383.6     618.209    25.618     1          25.611     38.482     193.319    2          311.423    408.083   
2383.8     612.3      25.762     1          25.689     38.795     206.029    2          310.859    413.874   
2384       606.795    25.839     1          25.762     39.081     223.189    2          310.49     422.086   
2384.2     601.737    25.951     1          25.829     39.375     240.63     2          310.261    430.576   
2384.4     596.81     26.264     1          25.904     39.611     256.8      2          310.412    438.813   
2384.6     587.311    26.072     1          26.049     39.623     267.609    2          310.477    444.301   
2384.8     575.179    25.764     1          26.23      39.508     272.674    2          310.527    446.901   
2385       565.13     25.158     1          26.379     39.201     273.081    2          310.419    447.03    
2385.2     559.855    24.947     1          26.453     39.172     272.92     2          310.4      446.944   
2385.4     557.875    24.813     1          26.483     39.205     271.903    2          310.303    446.351   
2385.6     559.148    25.057     1          26.463     39.422     269.284    2          310.074    442.752   
2385.8     555.933    25.07      1          26.512     39.415     264.965    2          309.877    436.346   
2386       550.433    25.411     1          26.598     39.563     264.65     2          309.782    430.554   
2386.2     539.438    25.228     1          26.774     39.389     268.857    2          309.7      425.55    
2386.4     526.979    25.327     1          26.981     39.488     275.328    3          309.548    425.07    
2386.6     509.912    25.374     1          27.277     39.622     287.765    3          309.39     431.684   
2386.8     491.745    26.148     1          27.599     40.238     303.676    3          309.242    442.988   
2387       475.012    26.928     1          27.896     40.678     314.882    3          309.104    453.901   
2387.2     459.972    27.952     1          28.171     41.183     321.88     3          308.92     464.213   
2387.4     449.973    28.767     1          28.357     41.379     328.176    3          308.851    470.749   
2387.6     442.11     29.763     1          28.51      41.444     333.414    3          308.766    474.813   
2387.8     434.072    30.444     1          28.681     41.084     340.534    3          308.711    478.801   
2388       420.871    31.218     1          28.958     40.732     353.806    3          308.529    485.354   
2388.2     403.921    31.953     1          29.328     40.495     370.183    3          308.142    493.17    
2388.4     379.489    32.558     1          29.908     40.535     389.404    3          307.626    502.291   
2388.6     351.147    32.977     1          30.623     40.84      408.339    3          307.234    511.158   
2388.8     320.348    33.152     1          31.44      41.271     422.744    3          307.054    517.958   
2389       293.949    33.193     1          32.171     41.811     428.248    3          306.884    520.334   
2389.2     273.422    33.225     1          32.757     42.419     427.4      3          306.879    519.798   
2389.4     260.483    33.362     1          33.12      42.924     421.098    3          306.761    517.874   
2389.6     256.624    33.642     1          33.232     43.209     409.344    3          306.413    514.329   
2389.8     256.765    34.053     1          33.227     43.413     396.312    3          305.78     511.101   
2390       256.169    34.413     1          33.248     43.541     386.981    3          305.304    509.77    
2390.2     251.854    34.593     1          33.401     43.631     384.397    3          305.022    509.436   
2390.4     243.205    34.583     1          33.723     43.562     386.877    3          304.905    509.282   
2390.6     231.402    34.361     1          34.164     43.856     398.315    3          304.879    512.622   
2390.8     222.685    34.068     1          34.496     44.401     414.035    3          305.04     517.149   
2391       219.269    33.693     1          34.625     45.059     426.837    3          305.272    520.262   
2391.2     220.787    33.362     1          34.569     45.516     433.673    3          305.546    522.86    
2391.4     228.162    32.888     1          34.292     45.704     435.007    3          305.786    523.767   
2391.6     235.887    32.375     1          33.993     45.452     428.722    3          306.053    520.732   
