~Version
 VERS              .         2.0                           : CWLS LOG ASCII STANDARD - VERSION 2.0
 WRAP              .         NO                            : ONE LINE PER DEPTH STEP
 DLM               .         SPACE                         : DELIMITING CHARACTER(SPACE TAB OR COMMA)
~Well Information
#_______________________________________________________________________________
#
#PARAMETER_NAME    .UNIT     VALUE                         : DESCRIPTION
#_______________________________________________________________________________
STRT               .M        199                           : First reference value
STOP               .M        270.2                         : Last reference value
STEP               .M        0.2                           : Step increment
NULL               .         -9999                         : Missing value
COMP               .                                       : Company
WELL               .         616                           : Well name
FLD                .                                       : Field
LOC                .                                       : Location
CNTY               .                                       : County
STAT               .                                       : State
CTRY               .                                       : Country
SRVC               .                                       : Service Company
DATE               .                                       : Date
API                .                                       : API number
PROJECT_UPGRADE_TIME .         2021-03-18T21_24_50           : 
group              .         Good                          : 
~Parameter Information Block
#_______________________________________________________________________________
#
#PARAMETER_NAME    .UNIT     VALUE                         : DESCRIPTION
#_______________________________________________________________________________
SET                .         616_2_1                       : 
CONF               .         00                            : 
END                .         0                             : 
ERR                .         0                             : 
GS00               .M        0268.25                       : 
GS01               .M        0196.64                       : 
MM00               .M        0060.00                       : 
NOKG               .         0                             : 
NPR                .         980402                        : 
PART               .         Палагутин                     : 
PROJECT_UPGRADE_TIME .         2021-03-18T21_24_49           : 
PRZK               .         Шакиров                       : 
TLFamily_AZIMUTH   .         True Dip Azimuth              : 
TLFamily_DEPTH     .         Measured Depth                : 
TLFamily_METKA     .                                       : 
TLFamily_ROLL      .                                       : 
TLFamily_SPEED     .         Spontaneous Potential         : 
TLFamily_ZENIT     .                                       : 
VPRG               .         310                           : 
WAY                .         UP                            : 
group              .         prim                          : 
~Curve Information
#_______________________________________________________________________________
#
#LOGNAME           .UNIT     LOG_ID                        : DESCRIPTION
#_______________________________________________________________________________
DEPTH              .M                                      :  
AZIMUTH            .DEG                                    :  
METKA              .                                       :  
ROLL               .DEG                                    :  
SPEED              .M/H                                    :  
ZENIT              .DEG                                    :  
~Ascii
# ...
223.4      254.92     0          275.72     648        23.18     
223.6      250.11     0          272.85     612        22.31     
223.8      247.24     0          271.14     612        21.83     
224        247.6      0          269.73     648        22.27     
224.2      252.77     0          269.76     612        23.13     
224.4      255.82     0          270.36     648        23.68     
224.6      258.19     0          269.54     612        24.14     
224.8      254.82     0          268.64     612        23.55     
225        250.9      0          268.84     612        22.95     
225.2      248.92     0          269.65     648        22.25     
225.4      248.72     0          268.9      648        22.3      
225.6      249.48     0          267.3      612        22.71     
225.8      252.24     0          265.68     648        23.32     
226        254.8      0          264.4      648        24.16     
226.2      254.87     0          262.18     648        24.15     
226.4      249.3      0          261.41     612        23.16     
226.6      247.63     0          262.94     612        22.47     
226.8      248.48     0          263.37     612        22.69     
227        251.31     0          261.55     648        23.36     
227.2      252.46     0          260.44     648        23.75     
227.4      250.01     0          260.6      612        23.32     
227.6      253.7      0          261.28     612        23.87     
227.8      253.7      0          259.99     684        23.73     
228        251.31     0          259.11     648        23.37     
228.2      249.73     0          258.66     648        22.94     
228.4      248.71     0          257.81     612        22.62     
228.6      249.59     0          257.16     612        22.96     
228.8      252.7      0          256.83     612        23.68     
229        256.41     0          255.65     612        24.44     
229.2      256.62     0          253.03     684        24.53     
229.4      254.83     0          250.32     576        24.22     
229.6      251.86     0          247.48     612        23.63     
229.8      251.68     0          244.27     648        23.33     
230        250.31     0          242.37     612        23.29     
230.2      253.49     0          242.61     648        23.69     
230.4      253.03     0          242.31     612        23.86     
230.6      255.36     0          241.89     576        24.36     
230.8      260.15     0          240.15     648        24.58     
231        263.75     0          238.47     648        24.18     
231.2      287.98     0          238.07     648        23.86     
231.4      327.13     0          237.6      648        23.46     
231.6      164.89     0          237.57     612        23.85     
231.8      270.22     0          237.6      648        24.47     
232        330.08     1          237.29     648        24.59     
232.2      269.15     0          236.25     648        24.5      
232.4      257.91     0          234.64     612        24.3      
232.6      252.09     0          233.54     612        23.99     
232.8      252.84     0          234.57     612        24.06     
233        250.57     0          234.96     684        23.64     
233.2      251.3      0          235.2      648        23.81     
233.4      252.12     0          236.02     648        24.01     
233.6      253.91     0          236.55     648        24.26     
233.8      254.99     0          237.36     612        24.43     
234        253.66     0          236.92     612        24.31     
234.2      252.3      0          235.65     648        23.91     
234.4      250.9      0          234.48     612        23.6      
234.6      250.91     0          235.39     648        23.47     
234.8      252.73     0          236.02     612        23.88     
235        253.03     0          237.19     612        24.23     
235.2      252.63     0          238.31     648        24.39     
235.4      254.35     0          239.09     612        24.59     
235.6      253.99     0          238.43     612        24.43     
235.8      252.96     0          237.42     684        24.27     
236        250.59     0          237.3      612        23.99     
236.2      251.25     0          236.57     648        24.01     
236.4      253.05     0          235.54     612        24.21     
236.6      254.09     0          234.48     612        24.57     
236.8      254.16     0          233.64     648        24.65     
237        251.71     0          234.47     612        24.04     
237.2      251.86     0          236.52     648        23.9      
237.4      251.09     0          238.26     612        23.82     
237.6      252.45     0          239.37     648        24.17     
237.8      253.39     0          239.3      612        24.51     
238        254.73     0          238.77     648        24.85     
238.2      255.51     0          238.35     684        25.15     
238.4      256.03     0          238.33     576        25.11     
238.6      254.5      0          238.48     648        24.8      
238.8      252.74     0          238.51     612        24.64     
239        251.93     0          237.8      648        24.36     
239.2      253.33     0          236.66     648        24.42     
239.4      252.89     0          235.56     576        24.42     
239.6      253.35     0          235.2      648        24.65     
239.8      256.14     0          236        612        25.07     
240        254.47     0          236.27     648        25.1      
240.2      253.91     0          235.64     612        24.85     
240.4      253.31     0          235.89     612        24.69     
240.6      251.51     0          236.62     612        24.33     
240.8      252.64     0          236.3      648        24.39     
241        253.8      0          235.61     648        24.57     
241.2      254.08     0          235.52     648        24.71     
241.4      255.39     0          235.21     612        24.92     
241.6      256.06     0          236.43     576        25.09     
241.8      254.99     0          237.78     648        25.02     
242        252.48     0          237.71     648        24.55     
242.2      252.87     1          237.94     612        24.5      
242.4      254.75     0          237.85     576        24.82     
242.6      256.76     0          237        648        25.13     
242.8      258.2      0          237.21     648        25.57     
243        256.63     0          237.92     648        25.04     
243.2      260.94     0          238.29     648        24.89     
243.4      274.71     0          238.57     648        24.83     
243.6      320.89     0          238.06     612        24.84     
243.8      213.13     0          237.44     648        24.8      
244        195.82     0          236.94     612        24.9      
244.2      347.42     0          236.43     612        25.08     
244.4      288.92     0          236.86     612        25.31     
244.6      266.21     0          237        648        25.65     
244.8      261.13     0          236.14     612        25.82     
245        256.03     0          234.57     612        25.35     
245.2      253.69     0          234.66     648        25.08     
245.4      254.13     0          235.38     612        24.91     
245.6      253.72     0          236.3      612        24.94     
245.8      254.36     0          236.76     648        24.89     
246        255.01     0          237.32     612        25.1      
246.2      255.25     0          236.79     612        25.03     
246.4      253.95     0          235.64     612        25        
246.6      255.95     0          235.06     612        25.36     
246.8      253.89     0          235.78     612        25.04     
247        255.39     0          237.48     648        25.15     
247.2      253.62     0          238.5      540        24.99     
247.4      253.71     0          238.21     612        25.09     
247.6      252.26     0          238.49     576        24.85     
