~Version
 VERS              .         2.0                           : CWLS LOG ASCII STANDARD - VERSION 2.0
 WRAP              .         NO                            : ONE LINE PER DEPTH STEP
 DLM               .         SPACE                         : DELIMITING CHARACTER(SPACE TAB OR COMMA)
~Well Information
#_______________________________________________________________________________
#
#PARAMETER_NAME    .UNIT     VALUE                         : DESCRIPTION
#_______________________________________________________________________________
STRT               .M        2338.9                        : First reference value
STOP               .M        2799.2                        : Last reference value
STEP               .M        0.1                           : Step increment
NULL               .         -9999                         : Missing value
COMP               .                                       : Company
WELL               .         616                           : Well name
FLD                .                                       : Field
LOC                .                                       : Location
CNTY               .                                       : County
STAT               .                                       : State
CTRY               .                                       : Country
SRVC               .                                       : Service Company
DATE               .                                       : Date
API                .                                       : API number
PROJECT_UPGRADE_TIME .         2021-03-18T21_24_50           : 
group              .         Good                          : 
~Parameter Information Block
#_______________________________________________________________________________
#
#PARAMETER_NAME    .UNIT     VALUE                         : DESCRIPTION
#_______________________________________________________________________________
SET                .         D2662_D                       : 
OTHER              .         Программное обеспечение станции MONITOR-386EX 25/12/99 15_08_10   BGF V50 26/12/00 07_26_01   3.1_SNGF___BGF_N_092085: 
OTHER_10           .         Тарировки_                    : 
OTHER_11           .         IK1.GRD = IK1$.UE - -5.96     : 
OTHER_12           .         IK5.GRD = IK5$.UE - -0.74     : 
OTHER_13           .         IK4.GRD = IK4$.UE - -0.9      : 
OTHER_14           .         IK3.GRD = IK3$.UE - -1.28     : 
OTHER_15           .         IK2.GRD = IK2$.UE - -3.55     : 
OTHER_2            .         Kedr.exe версия 3.3.2.32      : 
OTHER_3            .         KedrData.dll версия 3.3.2.17  : 
OTHER_4            .         Драйвер версия 2.1.0.4        : 
OTHER_5            .         Мнемоники версия 3.3 S        : 
OTHER_6            .         Прибор_ Викиз                 : 
OTHER_7            .         Номер прибора_ 0006012        : 
OTHER_8            .         Режим_ Викиз                  : 
OTHER_9            .         Форма_ ВИКИЗ                  : 
PROJECT_UPGRADE_TIME .         2021-03-18T21_24_49           : 
TLFamily_DEPT      .         Measured Depth                : 
TLFamily_IK1       .         Extra Shallow Resistivity     : 
TLFamily_IK1$      .         Extra Shallow Resistivity     : 
TLFamily_IK2       .         Shallow Resistivity           : 
TLFamily_IK2$      .         Shallow Resistivity           : 
TLFamily_IK3       .         Medium Resistivity            : 
TLFamily_IK3$      .         Medium Resistivity            : 
TLFamily_IK4       .         Deep Resistivity              : 
TLFamily_IK4$      .         Deep Resistivity              : 
TLFamily_IK5       .         Resistivity 20                : 
TLFamily_IK5$      .         Resistivity 20                : 
TLFamily_METKA     .                                       : 
TLFamily_PS        .         Spontaneous Potential         : 
TLFamily_RCOR      .                                       : 
TLFamily_SPID      .         Spontaneous Potential         : 
TLFamily_TENS      .         Cable Tension                 : 
TLFamily_TIME      .         Time                          : 
group              .         prim                          : 
~Curve Information
#_______________________________________________________________________________
#
#LOGNAME           .UNIT     LOG_ID                        : DESCRIPTION
#_______________________________________________________________________________
DEPT               .M                                      : 1 Глубина, м -    0.0 см 
IK1                .GRD                                    : 13 3Ф0.5, град. -  226.0 см 
IK1$               .UE                                     : 7 3Ф0.5, усл.ед. -  226.0 см 
IK2                .GRD                                    : 17 3Ф0.7, град. -  240.0 см 
IK2$               .UE                                     : 11 3Ф0.7, усл.ед. -  240.0 см 
IK3                .GRD                                    : 16 3Ф1.0, град. -  260.0 см 
IK3$               .UE                                     : 10 3Ф1.0, усл.ед. -  260.0 см 
IK4                .GRD                                    : 15 3Ф1.4, град. -  288.0 см 
IK4$               .UE                                     : 9 3Ф1.4, усл.ед. -  288.0 см 
IK5                .GRD                                    : 14 3Ф2.0, град. -  328.0 см 
IK5$               .UE                                     : 8 3Ф2.0, усл.ед. -  328.0 см 
METKA              .                                       : 3 Метки,  -    0.0 см 
PS                 .mV                                     : 12 ПС, мВ -  372.0 см 
RCOR               .CM/KM                                  : 5 Коррекция по ролику, см/км -    0.0 см 
SPID               .M/H                                    : 2 Скорость, м/час -    0.0 см 
TENS               .T                                      : 6 Натяжение кабеля, т -    0.0 см 
TIME               .S                                      : 4 Время, сек -    0.0 см 
~Ascii
2338.9     -9999      -9999      -9999      -9999      -9999      -9999      -9999      -9999      -9999      -9999      -9999      -9999      -9999      -9999      -9999      -9999     
2339       -9999      -9999      -9999      -9999      -9999      -9999      -9999      -9999      -9999      -9999      0          -9999      -393       -1582      0          35504.11  
2339.1     -9999      -9999      -9999      -9999      -9999      -9999      -9999      -9999      -9999      -9999      0          -9999      -393       -1594      0          35503.89  
2339.2     -9999      -9999      -9999      -9999      -9999      -9999      -9999      -9999      -9999      -9999      0          -9999      -393       -1601      0          35503.67  
2339.3     -9999      -9999      -9999      -9999      -9999      -9999      -9999      -9999      -9999      -9999      0          -9999      -393       -1605      0          35503.46  
2339.4     -9999      -9999      -9999      -9999      -9999      -9999      -9999      -9999      -9999      -9999      0          -9999      -393       -1605      0          35503.22  
2339.5     -9999      -9999      -9999      -9999      -9999      -9999      -9999      -9999      -9999      -9999      0          -9999      -393       -1605      0          35503     
2339.6     -9999      -9999      -9999      -9999      -9999      -9999      -9999      -9999      -9999      -9999      0          -9999      -393       -1606      0          35502.79  
2339.7     -9999      -9999      -9999      -9999      -9999      -9999      -9999      -9999      -9999      -9999      0          -9999      -393       -1607      0          35502.58  
2339.8     -9999      -9999      -9999      -9999      -9999      -9999      -9999      -9999      -9999      -9999      0          -9999      -393       -1608      0          35502.32  
2339.9     -9999      -9999      -9999      -9999      -9999      -9999      -9999      -9999      -9999      -9999      1          -9999      -393       -1609      0          35502.11  
2340       -9999      -9999      -9999      -9999      -9999      -9999      -9999      -9999      -9999      -9999      0          -9999      -392       -1611      0          35501.89  
2340.1     -9999      -9999      -9999      -9999      -9999      -9999      -9999      -9999      -9999      -9999      0          -9999      -392       -1611      0          35501.66  
2340.2     -9999      -9999      -9999      -9999      -9999      -9999      -9999      -9999      -9999      -9999      0          -9999      -392       -1612      0          35501.43  
2340.3     -9999      -9999      -9999      -9999      -9999      -9999      -9999      -9999      -9999      -9999      0          -9999      -392       -1612      0          35501.2   
2340.4     -9999      -9999      -9999      -9999      -9999      -9999      -9999      -9999      -9999      -9999      0          -9999      -392       -1612      0          35500.97  
2340.5     -9999      -9999      -9999      -9999      -9999      -9999      -9999      -9999      -9999      -9999      0          -9999      -392       -1612      0          35500.75  
2340.6     -9999      -9999      -9999      -9999      -9999      -9999      -9999      -9999      -9999      -9999      0          -9999      -392       -1612      0          35500.53  
2340.7     -9999      -9999      -9999      -9999      -9999      -9999      -9999      -9999      -9999      -9999      0          -9999      -392       -1612      0          35500.3   
2340.8     -9999      -9999      -9999      -9999      -9999      -9999      -9999      -9999      -9999      -9999      0          -9999      -392       -1613      0          35500.08  
2340.9     -9999      -9999      -9999      -9999      -9999      -9999      -9999      -9999      -9999      -9999      0          -9999      -392       -1613      0          35499.86  
2341       -9999      -9999      -9999      -9999      -9999      -9999      -9999      -9999      -9999      -9999      0          -9999      -392       -1613      0          35499.64  
2341.1     -9999      -9999      -9999      -9999      -9999      -9999      -9999      -9999      -9999      -9999      0          -9999      -392       -1613      0          35499.41  
2341.2     -9999      -9999      -9999      -9999      -9999      -9999      -9999      -9999      -9999      -9999      0          -9999      -392       -1613      0          35499.19  
2341.3     10.53      4.57       -9999      -9999      -9999      -9999      -9999      -9999      -9999      -9999      0          -9999      -392       -1613      0          35498.97  
2341.4     11.71      5.75       -9999      -9999      -9999      -9999      -9999      -9999      -9999      -9999      0          -9999      -392       -1613      0          35498.75  
2341.5     12.04      6.08       3.63       0.08       -9999      -9999      -9999      -9999      -9999      -9999      0          -9999      -392       -1613      0          35498.52  
2341.6     12.41      6.45       3.19       -0.36      -0.51      -1.79      -9999      -9999      -9999      -9999      0          -9999      -392       -1613      0          35498.3   
2341.7     12.82      6.86       2.33       -1.22      -0.19      -1.47      -9999      -9999      -9999      -9999      0          -9999      -392       -1613      0          35498.08  
2341.8     13.11      7.15       4.2        0.65       -0.01      -1.29      -9999      -9999      -9999      -9999      0          -9999      -392       -1613      0          35497.86  
2341.9     13.44      7.48       5.1        1.55       0.08       -1.2       -228.41    -229.31    -9999      -9999      0          -9999      -392       -1614      0          35497.64  
2342       15.28      9.32       4.54       0.99       0.22       -1.06      -273.02    -273.92    -9999      -9999      0          -9999      -392       -1604      0          35497.46  
2342.1     16.12      10.16      6.09       2.54       0.28       -1         -286.5     -287.4     -9999      -9999      0          -9999      -392       -1586      0          35497.21  
2342.2     17.05      11.09      7.44       3.89       0.22       -1.06      -299.17    -300.07    -9999      -9999      0          -9999      -392       -1579      0          35496.99  
2342.3     19.13      13.17      7.55       4          0.74       -0.54      -308.7     -309.6     1.85       1.11       0          -9999      -392       -1590      0          35496.77  
2342.4     19.7       13.74      7.86       4.31       1.5        0.22       -220.1     -221       2.18       1.44       0          -9999      -392       -1606      0          35496.52  
2342.5     20.27      14.31      7.64       4.09       1.78       0.5        -65.8      -66.7      2.26       1.52       0          -9999      -392       -1608      0          35496.34  
2342.6     20.4       14.44      7.76       4.21       2.29       1.01       -40.71     -41.61     2.35       1.61       0          -9999      -392       -1610      0          35496.09  
2342.7     20.49      14.53      7.88       4.33       2.48       1.2        -35.51     -36.41     2.45       1.71       0          -9999      -392       -1611      0          35495.87  
2342.8     20.57      14.61      8.02       4.47       2.6        1.32       -34.23     -35.13     2.51       1.77       0          205.84     -392       -1611      0          35495.65  
2342.9     20.66      14.7       8.16       4.61       2.73       1.45       -26.78     -27.68     2.54       1.8        0          210.81     -392       -1606      0          35495.4   
2343       20.74      14.78      8.29       4.74       2.87       1.59       -19.18     -20.08     2.65       1.91       0          212.72     -392       -1608      0          35495.2   
2343.1     20.83      14.87      8.43       4.88       3.01       1.73       -11.59     -12.49     2.74       2          0          214.87     -392       -1610      0          35494.98  
