~Version
 VERS              .         2.0                           : CWLS LOG ASCII STANDARD - VERSION 2.0
 WRAP              .         NO                            : ONE LINE PER DEPTH STEP
 DLM               .         SPACE                         : DELIMITING CHARACTER(SPACE TAB OR COMMA)
~Well Information
#_______________________________________________________________________________
#
#PARAMETER_NAME    .UNIT     VALUE                         : DESCRIPTION
#_______________________________________________________________________________
STRT               .M        209.2                         : First reference value
STOP               .M        612.6                         : Last reference value
STEP               .M        0.2                           : Step increment
NULL               .         -9999                         : Missing value
COMP               .                                       : Company
WELL               .         616                           : Well name
FLD                .                                       : Field
LOC                .                                       : Location
CNTY               .                                       : County
STAT               .                                       : State
CTRY               .                                       : Country
SRVC               .                                       : Service Company
DATE               .                                       : Date
API                .                                       : API number
PROJECT_UPGRADE_TIME .         2021-03-18T21_24_50           : 
group              .         Good                          : 
~Parameter Information Block
#_______________________________________________________________________________
#
#PARAMETER_NAME    .UNIT     VALUE                         : DESCRIPTION
#_______________________________________________________________________________
SET                .         616_3                         : 
CONF               .         00                            : 
END                .         0                             : 
ERR                .         0                             : 
GS00               .M        0610.64                       : 
GS01               .M        0206.79                       : 
MM00               .M        0060.00                       : 
NOKG               .         1                             : 
NPR                .         980119                        : 
PART               .         Палагутин                     : 
PROJECT_UPGRADE_TIME .         2021-03-18T21_24_49           : 
PRZK               .         Шакиров                       : 
TLFamily_AZIMUTH   .         True Dip Azimuth              : 
TLFamily_DEPTH     .         Measured Depth                : 
TLFamily_METKA     .                                       : 
TLFamily_ROLL      .                                       : 
TLFamily_SPEED     .         Spontaneous Potential         : 
TLFamily_ZENIT     .                                       : 
VPRG               .         310                           : 
WAY                .         UP                            : 
group              .         prim                          : 
~Curve Information
#_______________________________________________________________________________
#
#LOGNAME           .UNIT     LOG_ID                        : DESCRIPTION
#_______________________________________________________________________________
DEPTH              .M                                      :  
AZIMUTH            .DEG                                    :  
METKA              .                                       :  
ROLL               .DEG                                    :  
SPEED              .M/H                                    :  
ZENIT              .DEG                                    :  
~Ascii
# ...
428.8      267.15     0          46.62      648        24.39     
429        266.84     0          45.84      648        24.31     
429.2      265.88     0          44.87      648        24.11     
429.4      266.7      0          44.93      684        24.3      
429.6      266.39     0          45.49      684        24.21     
429.8      266.6      0          46.03      684        24.24     
430        267.18     0          46.79      648        24.35     
430.2      266.45     0          47.29      684        24.19     
430.4      265.82     0          47.55      684        24.11     
430.6      266.46     0          48.22      684        24.31     
430.8      264.69     0          49.07      648        24.19     
431        265.75     0          46.9       648        24.42     
431.2      267.01     0          45.29      648        24.48     
431.4      266.39     0          44.76      684        24.33     
431.6      266.9      0          44.54      684        24.46     
431.8      266.85     0          44.86      648        24.48     
432        266.3      0          45.52      648        24.27     
432.2      267.11     1          46.05      648        24.46     
432.4      267.3      0          46         684        24.49     
432.6      265.8      0          45.4       684        24.25     
432.8      268.32     0          45.12      648        24.71     
433        267.4      0          45.39      684        24.59     
433.2      264.65     0          48.37      648        24.1      
433.4      265.33     0          58.73      684        24.31     
433.6      265.2      0          69.31      684        23.96     
433.8      266.26     0          75.72      648        24.42     
434        265.67     0          80.43      648        24.39     
434.2      265.36     0          84.71      648        24.26     
434.4      267.81     0          87.97      684        24.79     
434.6      264.95     0          89.96      648        24.2      
434.8      264.53     0          90.82      684        24.08     
435        267.43     0          91.84      684        24.81     
435.2      265.57     0          92.79      684        24.38     
435.4      266.43     0          93.35      648        24.53     
435.6      266.42     0          93.85      648        24.58     
435.8      265.97     0          94.47      684        24.43     
436        266.06     0          94.81      612        24.5      
436.2      265.88     0          94.64      684        24.49     
436.4      265.95     0          94.91      684        24.49     
436.6      266.65     0          94.86      684        24.54     
436.8      265.88     0          93.88      612        24.4      
437        266.11     0          92.82      684        24.5      
437.2      265.95     0          91.9       648        24.42     
437.4      267.29     0          91.49      684        24.76     
437.6      265.97     0          91.42      684        24.47     
437.8      265.43     0          92.08      612        24.38     
438        268.02     0          93.18      684        24.76     
438.2      266.53     0          94.71      648        24.28     
438.4      270.81     0          96.12      684        24.6      
438.6      282        0          97.06      720        24.88     
438.8      315.14     0          97.96      648        24.51     
439        198.96     0          99.22      612        24.95     
439.2      161.51     0          100.25     684        24.83     
439.4      333.61     0          100.44     648        24.45     
439.6      298.69     0          100.25     684        25.24     
439.8      273.98     0          99.45      684        24.66     
440        266.75     0          98.77      648        24.33     
440.2      268.54     0          99.1       684        24.95     
440.4      265.48     0          99.75      684        24.49     
440.6      266.04     0          100.16     648        24.56     
440.8      266.87     0          99.8       684        24.75     
441        264.93     0          98.73      648        24.38     
441.2      266.38     0          97.75      612        24.72     
441.4      265.97     0          97.34      684        24.69     
441.6      265.24     0          97.22      684        24.46     
441.8      266.94     0          96.48      648        24.91     
442        264.4      0          96.01      648        24.26     
442.2      265.12     1          95.48      648        24.33     
442.4      266.35     0          94.95      684        24.69     
442.6      264.31     0          95.02      684        24.28     
442.8      264.66     0          95.82      684        24.39     
443        266.47     0          97.21      648        24.94     
443.2      263.54     0          97.88      684        24.32     
443.4      263.46     0          98.8       648        24.38     
443.6      265.48     0          100.11     684        24.79     
443.8      265.63     0          101.21     648        24.74     
444        265.55     0          101.38     648        24.67     
444.2      265.28     0          100.61     684        24.61     
444.4      266.45     0          98.84      684        24.65     
444.6      265.18     0          97.55      648        24.63     
444.8      266.7      0          95.85      684        24.77     
445        264.49     0          94.77      684        24.5      
445.2      265.78     0          94.58      684        24.65     
445.4      265.91     0          95.12      684        24.85     
445.6      264.41     0          96.69      612        24.5      
445.8      265.1      0          97.38      648        24.52     
446        266.09     0          97.36      648        24.75     
446.2      264.6      0          97.37      684        24.43     
446.4      266.15     0          97.41      684        24.79     
446.6      265        0          97.67      648        24.53     
446.8      263.04     0          98.21      648        24.19     
447        267.18     0          99.36      648        25.09     
447.2      264.67     0          100.57     684        24.53     
447.4      263.95     0          101.03     720        24.37     
447.6      266.51     0          100.57     684        24.9      
447.8      264.26     0          99.84      576        24.47     
448        265.57     0          99.51      684        24.74     
448.2      266.19     0          99.39      684        24.89     
448.4      263.3      0          99.64      684        24.29     
448.6      266.21     0          99.87      648        24.91     
448.8      265        0          99.98      684        24.7      
449        264.56     0          100.03     648        24.59     
449.2      268.73     0          99.44      648        25.4      
449.4      266.64     0          98.11      684        24.77     
449.6      264.72     0          97.42      684        24.7      
449.8      266.94     0          98.02      648        25.1      
450        265.48     0          100.3      648        24.78     
450.2      266.79     0          102.5      684        24.92     
450.4      268.6      0          104.89     684        25.17     
450.6      271.36     0          108.02     648        25.05     
450.8      283.57     0          109.43     648        25.06     
451        319.62     0          109.52     684        25.18     
451.2      231.06     0          109.4      612        25.22     
451.4      217.74     0          109.17     684        25.11     
451.6      333.6      0          109.27     684        25.26     
451.8      297.04     0          109.71     684        25.28     
452        273.52     1          110.23     684        25.1      
452.2      269.62     0          109.27     648        25.28     
452.4      266.83     0          107.33     684        25.07     
452.6      266.83     0          104.28     684        24.99     
452.8      265.85     0          102.41     648        25.03     
453        264.28     0          101.53     684        24.72     
