~Version
 VERS              .         2.0                           : CWLS LOG ASCII STANDARD - VERSION 2.0
 WRAP              .         NO                            : ONE LINE PER DEPTH STEP
 DLM               .         SPACE                         : DELIMITING CHARACTER(SPACE TAB OR COMMA)
~Well Information
#_______________________________________________________________________________
#
#PARAMETER_NAME    .UNIT     VALUE                         : DESCRIPTION
#_______________________________________________________________________________
STRT               .M        2645.2                        : First reference value
STOP               .M        2753.000054                   : Last reference value
STEP               .M        0.2000001                     : Step increment
NULL               .         -9999                         : Missing value
COMP               .                                       : Company
WELL               .         616                           : Well name
FLD                .                                       : Field
LOC                .                                       : Location
CNTY               .                                       : County
STAT               .                                       : State
CTRY               .                                       : Country
SRVC               .                                       : Service Company
DATE               .                                       : Date
API                .                                       : API number
PROJECT_UPGRADE_TIME .         2021-03-18T21_24_50           : 
group              .         Good                          : 
~Parameter Information Block
#_______________________________________________________________________________
#
#PARAMETER_NAME    .UNIT     VALUE                         : DESCRIPTION
#_______________________________________________________________________________
SET                .         D4407_D                       : 
OTHER              .         Запись производится в присутствии: 
OTHER_10           .         Максимальная температура      : 
OTHER_11           .         Тип промывочной жидкости      : 
OTHER_12           .         Сопротивление ПЖ (Ом*м) при 20°C: 
OTHER_13           .         Плотность ПЖ(г/см3)           : 
OTHER_14           .         Вязкость ПЖ(с)                : 
OTHER_15           .         Водоотдача ПЖ(см3/30мин)      : 
OTHER_16           .         Уровень ПЖ                    : 
OTHER_17           .         Нефть ПЖ (%)                  : 
OTHER_18           .         Барит ПЖ (%)                  : 
OTHER_19           .         Гематит ПЖ (%)                : 
OTHER_2            .         Заказчик ННСН  ЦДНГ-1         : 
OTHER_20           .         КМЦ ПЖ (%)                    : 
OTHER_21           .         Разгазирование ПЖ (да,нет)    : 
OTHER_22           .         Подъемник                     : 
OTHER_23           .         Лаборатория                   : 
OTHER_24           .         Тип кабеля                    : 
OTHER_25           .         Длина кабеля (м)              : 
OTHER_26           .         Цена последней метки          : 
OTHER_27           .         Цена контрольной метки        : 
OTHER_28           .         Диаметр долота (мм)           : 
OTHER_29           .         Глубина бурения (м)           : 
OTHER_3            .         Площадь                       : 
OTHER_30           .         Искусственный забой (м)       : 
OTHER_31           .         Диаметр колонны (мм)          : 
OTHER_32           .         Толщина колонны (мм)          : 
OTHER_33           .         Башмак колонны (м)            : 
OTHER_34           .         Диаметр НКТ (мм)              : 
OTHER_35           .         Толщина НКТ (мм)              : 
OTHER_36           .         Воронка НКТ (м)               : 
OTHER_37           .         Дата цементожа                : 
OTHER_38           .         Тип, количество(т) и плотность цемента: 
OTHER_39           .         Интервалы перфорации (м)      : 
OTHER_4            .         Категория                     : 
OTHER_40           .         Направление, диаметр (мм)     : 
OTHER_41           .         Направление, глубина (м)      : 
OTHER_42           .         Кондуктор, диаметр (мм)       : 
OTHER_43           .         Кондуктор, глубина (м)        : 
OTHER_44           .         Техническая колонна, диаметр (мм): 
OTHER_45           .         Техническая колонна, глубина (м): 
OTHER_46           .         Эксплуатационная колонна, диаметр (мм): 
OTHER_47           .         Эксплуатационная колонна, глубина (м): 
OTHER_48           .         Программа Кедр-02 версия 3.4  : 
OTHER_49           .         Операционная система Windows NT 5.1 build 2600 Service Pack 2: 
OTHER_5            .         Назначение исследований       : 
OTHER_50           .         Программное обеспечение станции MONITOR-386EX 25/12/99 15_08_10   BGF V54 20/09/05 15_32_17   3.3__BGF_9030071: 
OTHER_51           .         Kedr.exe версия 3.4.2.74      : 
OTHER_52           .         KedrData.dll версия 3.4.2.29  : 
OTHER_53           .         Мнемоники версия 3.18 S       : 
OTHER_54           .         Драйвер версия 2.1.1.4        : 
OTHER_55           .         LasInf.dll 4.3.0.35           : 
OTHER_56           .         Прибор_ КСА-Т4                : 
OTHER_57           .         Номер прибора_ 160            : 
OTHER_58           .         Режим_ КСА-Т4                 : 
OTHER_59           .         Форма_ С.А.Б.                 : 
OTHER_6            .         Альтитуда стола ротора        : 
OTHER_60           .         Тарировки_                    : 
OTHER_61           .         <_techsia_sc_> Дата тарировки температуры 25.05.2010: 
OTHER_62           .         Ручной ввод коэффициентов     : 
OTHER_63           .         TM.DEGC = 0.00402*RTM.E.ACP + -0.994: 
OTHER_64           .         <_techsia_sc_> Дата тарировки давления 25.05.2010: 
OTHER_65           .         Ручной ввод коэффициентов     : 
OTHER_66           .         MN.ATM = (2.27521e-006*TM.DEGC + 0.02078)*(RMN.E.ACP + 6.2*TM.DEGC + -1688): 
OTHER_67           .         <_techsia_sc_> Дата тарировки ГК 25.05.2010: 
OTHER_68           .         Ручной ввод коэффициентов     : 
OTHER_69           .         GR.UR/H = RGR.IMP/MIN / 45.5144: 
OTHER_7            .         Вид исследований 3  6         : 
OTHER_70           .         GK.FLT = 0.1*GR.UR/H[-1] + (1-0.1)*GR.UR/H[0]: 
OTHER_8            .         Начало бурения интервала каротажа: 
OTHER_9            .         Окончание бурения интервала каротажа: 
PROJECT_UPGRADE_TIME .         2021-03-18T21_24_50           : 
TLFamily_CCLC      .                                       : 
TLFamily_DEPT      .         Measured Depth                : 
TLFamily_GK        .         Gamma Ray                     : 
TLFamily_GR        .         Gamma Ray                     : 
TLFamily_METKA     .                                       : 
TLFamily_MN        .                                       : 
TLFamily_RCOR      .                                       : 
TLFamily_RGR       .                                       : 
TLFamily_RMN       .                                       : 
TLFamily_RTEN      .                                       : 
TLFamily_RTM       .                                       : 
TLFamily_SPEE      .         Cable Speed                   : 
TLFamily_TIME      .         Time                          : 
TLFamily_TM        .         Temperature                   : 
group              .         prim                          : 
~Curve Information
#_______________________________________________________________________________
#
#LOGNAME           .UNIT     LOG_ID                        : DESCRIPTION
#_______________________________________________________________________________
DEPT               .M                                      : 1 Глубина, м -    0.0 см 
CCLC               .E.ACP                                  : 9 Локатор муфт,  -   20.0 см 
GK                 .FLT                                    : 14 Гамма-активность фильтрованная, мкр./ч -  110.0 см 
GR                 .UR/H                                   : 13 Гамма-активность, мкр./ч -  110.0 см 
METKA              .CU                                     : 3 Метки,  -    0.0 см 
MN                 .ATM                                    : 12 Давление, атм. -  160.0 см 
RCOR               .CM/KM                                  : 5 Коррекция по ролику, см/км -    0.0 см 
RGR                .IMP/MIN                                : 10 Гамма-активность, усл.ед. -  110.0 см 
RMN                .E.ACP                                  : 8 Давление, усл.ед. -  160.0 см 
RTEN               .T                                      : 6 Натяжение кабеля, т -    0.0 см 
RTM                .E.ACP                                  : 7 Температура, усл.ед. -  170.0 см 
SPEE               .M/H                                    : 2 Скорость, м/час -    0.0 см 
TIME               .S                                      : 4 Время, сек -    0.0 см 
TM                 .DEGC                                   : 11 Температура, °C -  170.0 см 
~Ascii
# ...
2697.200026 70         12.43      12.43      0          241.831    -1110      566        12910      0.26       14106      575        331.18     55.712    
2697.400026 88         12.17      12.17      0          241.842    -1110      554        12911      0.26       14088      576        332.38     55.641    
2697.600026 151        13.2       13.2       0          241.853    -1110      601        12912      0.26       14072      576        333.62     55.574    
2697.800026 87         13.2       13.2       0          241.889    -1110      601        12914      0.26       14061      576        334.88     55.533    
2698.000026 130        13.27      13.27      0          241.897    -1110      604        12915      0.26       14047      577        336.15     55.475    
2698.200026 101        13.27      13.27      0          241.926    -1110      604        12917      0.26       14022      577        337.44     55.376    
2698.400027 71         11.08      11.08      0          241.934    -1110      504        12918      0.26       14004      577        338.63     55.302    
2698.600027 75         10.52      10.52      0          241.941    -1110      479        12919      0.26       13983      577        339.9      55.218    
2698.800027 90         8.68       8.68       0          241.957    -1110      395        12920      0.26       13963      577        341.14     55.136    
2699.000027 76         8.68       8.68       0          241.987    -1110      395        12922      0.26       13953      577        342.44     55.097    
2699.200027 57         8.79       8.79       0          241.994    -1110      400        12923      0.26       13936      577        343.7      55.029    
2699.400027 69         8.79       8.79       0          241.996    -1110      400        12924      0.26       13908      576        344.95     54.915    
2699.600027 110        8.89       8.89       0          242.01     -1110      405        12925      0.26       13882      576        346.2      54.81     
2699.800027 75         8.94       8.94       0          242.027    -1110      407        12927      0.26       13855      575        347.45     54.702    
2700.000027 68         8.57       8.57       0          242.058    -1110      390        12929      0.26       13833      576        348.77     54.615    
2700.200028 30         8.57       8.57       0          242.061    -1110      390        12930      0.26       13814      576        350        54.54     
2700.400028 29         8          8          0          242.054    -1110      364        12931      0.26       13774      577        351.2      54.378    
2700.600028 38         8          8          0          242.078    -1110      364        12933      0.26       13735      577        352.45     54.222    
2700.800028 78         8.05       8.05       0          242.091    -1110      367        12934      0.26       13716      575        353.77     54.143    
2701.000028 78         8.06       8.06       0          242.101    -1110      367        12935      0.26       13704      576        355.02     54.097    
2701.200028 61         8.63       8.63       0          242.13     -1110      393        12937      0.26       13682      576        356.28     54.008    
2701.400028 89         8.63       8.63       0          242.137    -1110      393        12938      0.26       13664      575        357.52     53.935    
2701.600028 120        8.79       8.79       0          242.16     -1110      400        12940      0.26       13634      576        358.83     53.816    
2701.800028 142        8.79       8.79       0          242.167    -1110      400        12941      0.26       13605      576        360.03     53.699    
2702.000028 107        9.69       9.69       0          242.166    -1110      441        12942      0.26       13575      576        361.28     53.578    
2702.200028 77         9.69       9.69       0          242.193    -1110      441        12944      0.26       13555      578        362.53     53.497    
2702.400029 94         10.39      10.39      0          242.212    -1110      473        12945      0.26       13533      578        363.78     53.41     
2702.600029 86         10.39      10.39      0          242.232    -1110      473        12947      0.26       13519      578        365.06     53.352    
2702.800029 92         10.74      10.74      0          242.252    -1110      489        12948      0.26       13509      579        366.33     53.311    
2703.000029 121        10.74      10.74      0          242.288    -1110      489        12950      0.26       13494      577        367.53     53.253    
2703.200029 4094       10.94      10.94      0          242.301    -1110      498        12951      0.26       13488      577        368.8      53.228    
2703.400029 2794       10.94      10.94      0          242.328    -1110      498        12953      0.26       13468      576        370.11     53.148    
2703.600029 791        9.87       9.87       0          242.335    -1110      449        12954      0.26       13444      575        371.36     53.052    
2703.800029 200        9.87       9.87       0          242.352    -1110      449        12956      0.26       13420      575        372.61     52.954    
2704.000029 142        9.23       9.23       0          242.363    -1110      420        12957      0.26       13391      575        373.87     52.839    
2704.200029 93         9.23       9.23       0          242.369    -1110      420        12958      0.26       13363      574        375.11     52.727    
2704.40003 94         9.4        9.4        0          242.396    -1110      428        12960      0.26       13344      574        376.44     52.65     
2704.60003 85         9.4        9.4        0          242.413    -1110      428        12961      0.26       13332      575        377.63     52.602    
2704.80003 73         9.34       9.34       0          242.424    -1110      425        12962      0.26       13316      577        378.94     52.535    
2705.00003 79         9.34       9.34       0          242.452    -1110      425        12964      0.26       13301      576        380.15     52.476    
2705.20003 109        10.19      10.19      0          242.466    -1110      464        12965      0.26       13286      576        381.44     52.414    
2705.40003 126        10.19      10.19      0          242.486    -1110      464        12967      0.26       13267      576        382.69     52.338    
2705.60003 82         10.94      10.94      0          242.483    -1110      498        12967      0.26       13244      576        383.94     52.247    
2705.80003 211        10.94      10.94      0          242.514    -1110      498        12969      0.26       13226      575        385.19     52.176    
2706.00003 126        11.1       11.1       2          242.526    -1107      505        12970      0.26       13213      574        386.24     52.122    
2706.20003 109        11.1       11.1       0          242.557    -1106      505        12972      0.26       13194      572        387.5      52.047    
2706.400031 129        10.37      10.37      0          242.564    -1106      472        12973      0.26       13174      574        388.75     51.967    
2706.600031 122        10.37      10.37      0          242.587    -1106      472        12975      0.26       13158      575        390        51.9      
2706.800031 73         10.28      10.28      0          242.609    -1106      468        12976      0.26       13143      575        391.26     51.842    
2707.000031 92         10.28      10.28      0          242.639    -1106      468        12978      0.26       13125      575        392.58     51.767    
2707.200031 83         11.42      11.42      0          242.664    -1106      520        12980      0.26       13110      574        393.83     51.708    
2707.400031 79         11.42      11.42      0          242.682    -1106      520        12981      0.26       13094      569        395.14     51.643    
