~Version
 VERS              .         2.0                           : CWLS LOG ASCII STANDARD - VERSION 2.0
 WRAP              .         NO                            : ONE LINE PER DEPTH STEP
 DLM               .         SPACE                         : DELIMITING CHARACTER(SPACE TAB OR COMMA)
~Well Information
#_______________________________________________________________________________
#
#PARAMETER_NAME    .UNIT     VALUE                         : DESCRIPTION
#_______________________________________________________________________________
STRT               .M        19.65                         : First reference value
STOP               .M        2766.85                       : Last reference value
STEP               .M        0.2                           : Step increment
NULL               .         -9999                         : Missing value
COMP               .                                       : Company
WELL               .         616                           : Well name
FLD                .                                       : Field
LOC                .                                       : Location
CNTY               .                                       : County
STAT               .                                       : State
CTRY               .                                       : Country
SRVC               .                                       : Service Company
DATE               .                                       : Date
API                .                                       : API number
PROJECT_UPGRADE_TIME .         2021-03-18T21_24_50           : 
group              .         Good                          : 
~Parameter Information Block
#_______________________________________________________________________________
#
#PARAMETER_NAME    .UNIT     VALUE                         : DESCRIPTION
#_______________________________________________________________________________
SET                .         D7016_D_2                     : 
NPR                .         155                           : Номер прибора
OTHER              .         Kedr.exe версия 2.1.2.32      : 
OTHER_10           .         TM.GRD = 0.00404*TM$.UE + 0.07: 
OTHER_11           .         MN.ATM = (6.33279e-006*TM.GRD + 0.02401)*(MN$.UE + 2.72*TM.GRD + -2018): 
OTHER_12           .         GK.MKR/H = GK$.UE / 43.5489 + 0: 
OTHER_13           .         RES.SM = 0.00476*CRES.UE - 1.51709: 
OTHER_14           .         PL.GSM3 = 0 + 0 * (PL.UE / 1) +  0 * (PL.UE / 1)^2: 
OTHER_15           .         Постоянная времени ГГП = 6 сек: 
OTHER_16           .         Постоянная времени ГК = 6 сек : 
OTHER_2            .         KedrData.dll версия 3.2.2.14  : 
OTHER_3            .         LasInf.dll версия 3.2.0.13    : 
OTHER_4            .         Драйвер версия 1.2.0.5        : 
OTHER_5            .         Прибор_ КСА-M1                : 
OTHER_6            .         Номер прибора_ 155+р204       : 
OTHER_7            .         Режим_ КСА-М1 + ГГП + Резистивиметр: 
OTHER_8            .         Форма_ 223\2                  : 
OTHER_9            .         Тарировки_                    : 
PR                 .         КСА-Т7 М1                     : Тип прибора
PROJECT_UPGRADE_TIME .         2021-03-18T21_24_50           : 
PRTY               .         ПП-223_2                      : Номер партии
SRV                .         ЦКРС                          : Заказчик
SRVC               .         Лузин  А.Б.                   : Начальник партии
TLFamily_DEPT      .         Measured Depth                : 
TLFamily_LM        .         Casing Collar locator         : 
TLFamily_MN        .                                       : 
TLFamily_SPID      .         Spontaneous Potential         : 
TLFamily_TM        .         Temperature                   : 
group              .         second                        : 
~Curve Information
#_______________________________________________________________________________
#
#LOGNAME           .UNIT     LOG_ID                        : DESCRIPTION
#_______________________________________________________________________________
DEPT               .M                                      : Depth curve 
LM                 .е.ацп                                  : Локация муфт 
MN                 .атм                                    : Манометрия, атм 
SPID               .м/ч                                    : Скорость записи,м/час 
TM                 .град.С                                 : Термометрия,град.С 
~Ascii
# ...
2735.25    4763.201   250.54     1660       46.02     
2735.45    5765.563   250.57     1660       46.03     
2735.65    3585.733   250.6      1660       46.04     
2735.85    2255.833   250.63     1660       46.05     
2736.05    1421.895   250.65     1660       46.06     
2736.25    899.934    250.66     1660       46.07     
2736.45    572.934    250.69     1660       46.08     
2736.65    244.986    250.72     1660       46.09     
2736.85    175.988    250.74     1660       46.11     
2737.05    116.997    250.77     1660       46.12     
2737.25    99.999     250.79     1660       46.14     
2737.45    96.998     250.79     1659.993   46.16     
2737.65    88.995     250.83     1626.995   46.18     
2737.85    63         250.85     1600.009   46.21     
2738.05    63.007     250.88     1647.003   46.24     
2738.25    100.002    250.91     1660       46.28     
2738.45    109.002    250.92     1659.99    46.34     
2738.65    117        250.96     1609.01    46.4      
2738.85    115.998    250.98     1660       46.46     
2739.05    107.996    251.01     1660       46.51     
2739.25    89.006     251.06     1660       46.57     
2739.45    119.997    251.08     1660       46.62     
2739.65    106.993    251.1      1660       46.68     
2739.85    74.017     251.14     1660       46.73     
2740.05    157.996    251.17     1660       46.79     
2740.25    135.999    251.21     1660       46.86     
2740.45    131.006    251.22     1660       46.93     
2740.65    159.995    251.25     1660       46.99     
2740.85    135.997    251.26     1660       47.04     
2741.05    123.002    251.3      1660       47.1      
2741.25    132.996    251.33     1659.999   47.16     
2741.45    115.003    251.36     1653.994   47.24     
2741.65    127.997    251.38     1622.022   47.3      
2741.85    114.998    251.4      1729.99    47.35     
2742.05    103.004    251.44     1678.997   47.41     
2742.25    123.001    251.47     1662.014   47.47     
2742.45    128.008    251.51     1729.982   47.53     
2742.65    166.002    251.54     1641.001   47.59     
2742.85    174.994    251.55     1647.003   47.64     
2743.05    146.994    251.59     1660       47.7      
2743.25    119.008    251.61     1660.001   47.76     
2743.45    159.998    251.63     1664.013   47.81     
2743.65    151.002    251.66     1729.997   47.86     
2743.85    161.008    251.69     1713.989   47.91     
2744.05    201.995    251.73     1660       47.96     
2744.25    174.995    251.76     1660       48.01     
2744.45    151.993    251.78     1660       48.08     
2744.65    117.002    251.79     1660       48.15     
2744.85    125.006    251.82     1660       48.22     
2745.05    156.003    251.86     1660       48.28     
2745.25    170.005    251.89     1660       48.34     
2745.45    193.985    251.92     1660       48.39     
2745.65    120.004    251.95     1659.998   48.45     
2745.85    138.01     251.97     1649.99    48.52     
2746.05    186.004    252.01     1600.004   48.6      
2746.25    204.904    252.05     1622.008   48.69     
2746.45    4694.256   252.08     1660       48.77     
2746.65    5965.545   252.1      1660       48.85     
2746.85    3705.723   252.13     1660       48.91     
2747.05    2328.831   252.17     1660.012   48.99     
2747.25    1487.892   252.19     1718.002   49.09     
2747.45    950.888    252.23     1729.986   49.2      
2747.65    392.974    252.27     1660       49.29     
2747.85    263.991    252.3      1660       49.38     
2748.05    219.028    252.33     1660       49.46     
2748.25    358.987    252.36     1660       49.57     
2748.45    291.98     252.4      1660       49.68     
2748.65    190.991    252.44     1660       49.8      
2748.85    145.002    252.49     1660       49.91     
2749.05    156.996    252.51     1660       50.04     
2749.25    135.001    252.55     1660.011   50.16     
2749.45    139.991    252.57     1713.998   50.28     
2749.65    96.999     252.61     1704.991   50.41     
2749.85    94.001     252.65     1660       50.53     
2750.05    97.999     252.69     1660       50.65     
2750.25    93.999     252.73     1660       50.76     
2750.45    90.009     252.76     1660       50.87     
2750.65    132.996    252.79     1660       50.98     
2750.85    110.997    252.82     1660       51.1      
2751.05    93.998     252.85     1660       51.22     
2751.25    86.003     252.92     1660       51.34     
2751.45    98.999     252.96     1660       51.53     
2751.65    94         253        1660       51.68     
2751.85    92         253.03     1659.994   51.83     
2752.05    90.997     253.08     1629.994   51.99     
2752.25    75.009     253.1      1600.019   52.13     
2752.45    119.994    253.16     1691.997   52.26     
2752.65    88.002     253.21     1674.997   52.38     
2752.85    98.999     253.22     1660       52.51     
2753.05    92.004     253.25     1659.989   52.64     
2753.25    109.994    253.29     1604.011   52.78     
2753.45    78         253.34     1660       52.91     
2753.65    76.998     253.37     1660       53.03     
2753.85    69         253.4      1660       53.16     
2754.05    68.005     253.45     1660       53.31     
2754.25    93.999     253.48     1660       53.48     
2754.45    90.997     253.52     1660       53.62     
2754.65    76.994     253.56     1660       53.77     
2754.85    46.004     253.61     1660       53.92     
2755.05    68.01      253.64     1660       54.08     
2755.25    118        253.68     1660       54.24     
2755.45    120.008    253.72     1660       54.39     
2755.65    160.993    253.75     1660       54.55     
2755.85    127        253.8      1660       54.71     
2756.05    127        253.85     1660       54.87     
2756.25    125.999    253.88     1659.992   55.02     
2756.45    120.01     253.92     1619.996   55.17     
2756.65    167.996    253.94     1600.01    55.32     
2756.85    148.083    253.99     1650.002   55.46     
2757.05    557.961    254.04     1660       55.63     
2757.25    362.974    254.08     1660       55.8      
2757.45    236.114    254.12     1660       55.96     
2757.65    5748.551   254.16     1660       56.13     
2757.85    3525.734   254.21     1659.995   56.33     
2758.05    2209.834   254.25     1633       56.52     
2758.25    1389.897   254.3      1633.005   56.69     
2758.45    878.936    254.34     1660       56.85     
2758.65    562.965    254.39     1660       57.02     
2758.85    389.978    254.41     1660       57.2      
2759.05    280.979    254.45     1659.988   57.35     
2759.25    174.994    254.49     1603.012   57.52     
2759.45    142.996    254.55     1660       57.67     
2759.65    121.992    254.58     1660       57.84     
2759.85    83.002     254.61     1659.988   58        
2760.05    94.998     254.62     1600.001   58.14     
2760.25    85.001     254.65     1603.012   58.24     
2760.45    87.996     254.69     1659.997   58.33     
2760.65    70.029     254.73     1642.991   58.43     
2760.85    212.984    254.77     1600.006   58.54     
2761.05    133.99     254.79     1630.006   58.65     
2761.25    83.994     254.85     1660       58.74     
2761.45    52.997     254.9      1660       58.89     
2761.65    37.999     254.95     1660       59.05     
2761.85    30.999     254.97     1659.988   59.21     
2762.05    27.001     255.01     1602.999   59.34     
2762.25    29.999     255.06     1600.014   59.49     
2762.45    27         255.09     1667.013   59.67     
2762.65    25         255.11     1729.996   59.9      
2762.85    24         255.14     1711.989   60.11     
2763.05    23         255.16     1660       60.3      
2763.25    23         255.18     1660       60.48     
2763.45    24         255.19     1660       60.62     
2763.65    23         255.18     1659.992   60.71     
2763.85    23         255.18     1618.996   60.78     
2764.05    24         255.19     1600.011   60.81     
2764.25    -9999      255.19     -9999      60.83     
