~Version
 VERS              .         2.0                           : CWLS LOG ASCII STANDARD - VERSION 2.0
 WRAP              .         NO                            : ONE LINE PER DEPTH STEP
 DLM               .         SPACE                         : DELIMITING CHARACTER(SPACE TAB OR COMMA)
~Well Information
#_______________________________________________________________________________
#
#PARAMETER_NAME    .UNIT     VALUE                         : DESCRIPTION
#_______________________________________________________________________________
STRT               .M        2338.9                        : First reference value
STOP               .M        2799.2                        : Last reference value
STEP               .M        0.1                           : Step increment
NULL               .         -9999                         : Missing value
COMP               .                                       : Company
WELL               .         616                           : Well name
FLD                .                                       : Field
LOC                .                                       : Location
CNTY               .                                       : County
STAT               .                                       : State
CTRY               .                                       : Country
SRVC               .                                       : Service Company
DATE               .                                       : Date
API                .                                       : API number
PROJECT_UPGRADE_TIME .         2021-03-18T21_24_50           : 
group              .         Good                          : 
~Parameter Information Block
#_______________________________________________________________________________
#
#PARAMETER_NAME    .UNIT     VALUE                         : DESCRIPTION
#_______________________________________________________________________________
SET                .         D2662_D                       : 
OTHER              .         Программное обеспечение станции MONITOR-386EX 25/12/99 15_08_10   BGF V50 26/12/00 07_26_01   3.1_SNGF___BGF_N_092085: 
OTHER_10           .         Тарировки_                    : 
OTHER_11           .         IK1.GRD = IK1$.UE - -5.96     : 
OTHER_12           .         IK5.GRD = IK5$.UE - -0.74     : 
OTHER_13           .         IK4.GRD = IK4$.UE - -0.9      : 
OTHER_14           .         IK3.GRD = IK3$.UE - -1.28     : 
OTHER_15           .         IK2.GRD = IK2$.UE - -3.55     : 
OTHER_2            .         Kedr.exe версия 3.3.2.32      : 
OTHER_3            .         KedrData.dll версия 3.3.2.17  : 
OTHER_4            .         Драйвер версия 2.1.0.4        : 
OTHER_5            .         Мнемоники версия 3.3 S        : 
OTHER_6            .         Прибор_ Викиз                 : 
OTHER_7            .         Номер прибора_ 0006012        : 
OTHER_8            .         Режим_ Викиз                  : 
OTHER_9            .         Форма_ ВИКИЗ                  : 
PROJECT_UPGRADE_TIME .         2021-03-18T21_24_49           : 
TLFamily_DEPT      .         Measured Depth                : 
TLFamily_IK1       .         Extra Shallow Resistivity     : 
TLFamily_IK1$      .         Extra Shallow Resistivity     : 
TLFamily_IK2       .         Shallow Resistivity           : 
TLFamily_IK2$      .         Shallow Resistivity           : 
TLFamily_IK3       .         Medium Resistivity            : 
TLFamily_IK3$      .         Medium Resistivity            : 
TLFamily_IK4       .         Deep Resistivity              : 
TLFamily_IK4$      .         Deep Resistivity              : 
TLFamily_IK5       .         Resistivity 20                : 
TLFamily_IK5$      .         Resistivity 20                : 
TLFamily_METKA     .                                       : 
TLFamily_PS        .         Spontaneous Potential         : 
TLFamily_RCOR      .                                       : 
TLFamily_SPID      .         Spontaneous Potential         : 
TLFamily_TENS      .         Cable Tension                 : 
TLFamily_TIME      .         Time                          : 
group              .         prim                          : 
~Curve Information
#_______________________________________________________________________________
#
#LOGNAME           .UNIT     LOG_ID                        : DESCRIPTION
#_______________________________________________________________________________
DEPT               .M                                      : 1 Глубина, м -    0.0 см 
IK1                .GRD                                    : 13 3Ф0.5, град. -  226.0 см 
IK1$               .UE                                     : 7 3Ф0.5, усл.ед. -  226.0 см 
IK2                .GRD                                    : 17 3Ф0.7, град. -  240.0 см 
IK2$               .UE                                     : 11 3Ф0.7, усл.ед. -  240.0 см 
IK3                .GRD                                    : 16 3Ф1.0, град. -  260.0 см 
IK3$               .UE                                     : 10 3Ф1.0, усл.ед. -  260.0 см 
IK4                .GRD                                    : 15 3Ф1.4, град. -  288.0 см 
IK4$               .UE                                     : 9 3Ф1.4, усл.ед. -  288.0 см 
IK5                .GRD                                    : 14 3Ф2.0, град. -  328.0 см 
IK5$               .UE                                     : 8 3Ф2.0, усл.ед. -  328.0 см 
METKA              .                                       : 3 Метки,  -    0.0 см 
PS                 .mV                                     : 12 ПС, мВ -  372.0 см 
RCOR               .CM/KM                                  : 5 Коррекция по ролику, см/км -    0.0 см 
SPID               .M/H                                    : 2 Скорость, м/час -    0.0 см 
TENS               .T                                      : 6 Натяжение кабеля, т -    0.0 см 
TIME               .S                                      : 4 Время, сек -    0.0 см 
~Ascii
# ...
2459.3     19.65      13.69      18.43      14.88      18.19      16.91      17.65      16.75      17.37      16.63      0          313.84     -379       -1798      0          35260.38  
2459.4     19.82      13.86      18.54      14.99      18.25      16.97      17.66      16.76      17.33      16.59      0          313.57     -379       -1786      0          35260.19  
2459.5     19.95      13.99      18.6       15.05      18.26      16.98      17.64      16.74      17.25      16.51      0          313.26     -379       -1785      0          35260     
2459.6     19.72      13.76      18.42      14.87      18.1       16.82      17.52      16.62      17.15      16.41      0          313.19     -379       -1784      0          35259.78  
2459.7     19.38      13.42      18.1       14.55      17.84      16.56      17.33      16.43      17.02      16.28      0          312.74     -379       -1783      0          35259.59  
2459.8     18.9       12.94      17.77      14.22      17.55      16.27      17.06      16.16      16.85      16.11      0          312.38     -379       -1781      0          35259.41  
2459.9     18.55      12.59      17.42      13.87      17.26      15.98      16.86      15.96      16.67      15.93      1          311.66     -379       -1778      0          35259.18  
2460       18.21      12.25      17.09      13.54      17.04      15.76      16.69      15.79      16.55      15.81      0          311.07     -379       -1775      0          35258.99  
2460.1     17.93      11.97      16.92      13.37      16.86      15.58      16.54      15.64      16.48      15.74      0          310.67     -378       -1772      0          35258.79  
2460.2     17.76      11.8       16.83      13.28      16.74      15.46      16.47      15.57      16.45      15.71      0          309.9      -378       -1771      0          35258.58  
2460.3     17.6       11.64      16.7       13.15      16.66      15.38      16.43      15.53      16.45      15.71      0          309.14     -378       -1782      0          35258.38  
2460.4     17.39      11.43      16.51      12.96      16.58      15.3       16.4       15.5       16.47      15.73      0          308.52     -378       -1794      0          35258.19  
2460.5     17.09      11.13      16.38      12.83      16.5       15.22      16.4       15.5       16.54      15.8       0          308.42     -378       -1804      0          35257.99  
2460.6     17.25      11.29      16.48      12.93      16.6       15.32      16.46      15.56      16.62      15.88      0          307.87     -378       -1807      0          35257.78  
2460.7     17.42      11.46      16.65      13.1       16.72      15.44      16.56      15.66      16.7       15.96      0          307.33     -378       -1812      0          35257.57  
2460.8     17.37      11.41      16.68      13.13      16.8       15.52      16.71      15.81      16.85      16.11      0          307.22     -378       -1806      0          35257.39  
2460.9     17.52      11.56      16.85      13.3       16.99      15.71      16.86      15.96      17         16.26      0          307.2      -378       -1791      0          35257.18  
2461       17.97      12.01      17.29      13.74      17.28      16         17.04      16.14      17.13      16.39      0          307.37     -378       -1774      0          35256.98  
2461.1     18.44      12.48      17.66      14.11      17.57      16.29      17.24      16.34      17.25      16.51      0          307.58     -378       -1765      0          35256.79  
2461.2     18.99      13.03      18.03      14.48      17.85      16.57      17.38      16.48      17.35      16.61      0          307.45     -378       -1773      0          35256.6   
2461.3     19.18      13.22      18.21      14.66      17.96      16.68      17.42      16.52      17.36      16.62      0          306.63     -378       -1785      0          35256.4   
2461.4     19.04      13.08      18.06      14.51      17.82      16.54      17.33      16.43      17.27      16.53      0          306.06     -378       -1791      0          35256.18  
2461.5     18.7       12.74      17.8       14.25      17.52      16.24      17.08      16.18      17.11      16.37      0          305.11     -378       -1791      0          35255.99  
2461.6     18.34      12.38      17.51      13.96      17.24      15.96      16.82      15.92      16.88      16.14      0          303.88     -378       -1791      0          35255.77  
2461.7     17.86      11.9       17.07      13.52      16.94      15.66      16.53      15.63      16.68      15.94      0          302.15     -378       -1792      0          35255.57  
2461.8     17.17      11.21      16.65      13.1       16.63      15.35      16.29      15.39      16.5       15.76      0          301.08     -378       -1792      0          35255.39  
2461.9     16.64      10.68      16.37      12.82      16.42      15.14      16.17      15.27      16.38      15.64      0          300.13     -378       -1793      0          35255.17  
2462       16.45      10.49      16.25      12.7       16.41      15.13      16.17      15.27      16.36      15.62      0          298.68     -378       -1794      0          35254.97  
2462.1     16.28      10.32      16.17      12.62      16.45      15.17      16.27      15.37      16.43      15.69      0          297.42     -378       -1794      0          35254.78  
2462.2     15.88      9.92       16.02      12.47      16.51      15.23      16.42      15.52      16.59      15.85      0          296.96     -378       -1796      0          35254.59  
2462.3     15.88      9.92       16.15      12.6       16.72      15.44      16.66      15.76      16.8       16.06      0          297.91     -378       -1797      0          35254.38  
2462.4     16.39      10.43      16.66      13.11      17.15      15.87      17.02      16.12      17.06      16.32      0          300.07     -378       -1799      0          35254.19  
2462.5     17.4       11.44      17.39      13.84      17.8       16.52      17.54      16.64      17.39      16.65      0          302.48     -378       -1801      0          35254     
2462.6     18.35      12.39      18.13      14.58      18.24      16.96      17.87      16.97      17.64      16.9       0          303.59     -378       -1804      0          35253.79  
2462.7     18.73      12.77      18.23      14.68      18.28      17         17.94      17.04      17.73      16.99      0          303.44     -378       -1807      0          35253.59  
2462.8     18.17      12.21      17.66      14.11      17.77      16.49      17.64      16.74      17.65      16.91      0          303.02     -378       -1795      0          35253.4   
2462.9     17.36      11.4       16.9       13.35      17.16      15.88      17.18      16.28      17.4       16.66      0          302.12     -378       -1776      0          35253.18  
2463       16.54      10.58      16.25      12.7       16.73      15.45      16.83      15.93      17.16      16.42      0          301.35     -378       -1762      0          35253     
2463.1     16.23      10.27      16.02      12.47      16.52      15.24      16.65      15.75      17         16.26      0          300.22     -378       -1769      0          35252.8   
2463.2     15.72      9.76       15.86      12.31      16.47      15.19      16.64      15.74      16.94      16.2       0          299.88     -378       -1779      0          35252.62  
2463.3     15.17      9.21       15.66      12.11      16.51      15.23      16.73      15.83      16.99      16.25      0          301.28     -378       -1787      0          35252.4   
2463.4     15.28      9.32       15.95      12.4       16.82      15.54      16.95      16.05      17.1       16.36      0          303.19     -378       -1786      0          35252.21  
2463.5     16.03      10.07      16.49      12.94      17.37      16.09      17.32      16.42      17.27      16.53      0          305.38     -378       -1786      0          35252.02  
