~Version
 VERS              .         2.0                           : CWLS LOG ASCII STANDARD - VERSION 2.0
 WRAP              .         NO                            : ONE LINE PER DEPTH STEP
 DLM               .         SPACE                         : DELIMITING CHARACTER(SPACE TAB OR COMMA)
~Well Information
#_______________________________________________________________________________
#
#PARAMETER_NAME    .UNIT     VALUE                         : DESCRIPTION
#_______________________________________________________________________________
STRT               .M        2647.6                        : First reference value
STOP               .M        2757.2                        : Last reference value
STEP               .M        0.1999997                     : Step increment
NULL               .         -9999                         : Missing value
COMP               .                                       : Company
WELL               .         616                           : Well name
FLD                .                                       : Field
LOC                .                                       : Location
CNTY               .                                       : County
STAT               .                                       : State
CTRY               .                                       : Country
SRVC               .                                       : Service Company
DATE               .                                       : Date
API                .                                       : API number
PROJECT_UPGRADE_TIME .         2021-03-18T21_24_50           : 
group              .         Good                          : 
~Parameter Information Block
#_______________________________________________________________________________
#
#PARAMETER_NAME    .UNIT     VALUE                         : DESCRIPTION
#_______________________________________________________________________________
SET                .         D7017_D                       : 
OTHER              .         Kedr.exe версия 2.1.2.32      : 
OTHER_10           .         TM.GRD = 0.00404*TM$.UE + 0.07: 
OTHER_11           .         MN.ATM = (6.33279e-006*TM.GRD + 0.02401)*(MN$.UE + 2.72*TM.GRD + -2018): 
OTHER_12           .         GK.MKR/H = GK$.UE / 43.5489 + 0: 
OTHER_13           .         RES.SM = 0.00476*CRES.UE - 1.51709: 
OTHER_14           .         PL.GSM3 = 0 + 0 * (PL.UE / 1) +  0 * (PL.UE / 1)^2: 
OTHER_15           .         Постоянная времени ГГП = 6 сек: 
OTHER_16           .         Постоянная времени ГК = 6 сек : 
OTHER_2            .         KedrData.dll версия 3.2.2.14  : 
OTHER_3            .         LasInf.dll версия 3.2.0.13    : 
OTHER_4            .         Драйвер версия 1.2.0.5        : 
OTHER_5            .         Прибор_ КСА-M1                : 
OTHER_6            .         Номер прибора_ 155+р204       : 
OTHER_7            .         Режим_ КСА-М1 + ГГП + Резистивиметр: 
OTHER_8            .         Форма_ 223\2                  : 
OTHER_9            .         Тарировки_                    : 
PROJECT_UPGRADE_TIME .         2021-03-18T21_24_50           : 
TLFamily_CRES      .                                       : 
TLFamily_DEPT      .         Measured Depth                : 
TLFamily_GK        .         Gamma Ray                     : 
TLFamily_GK$       .                                       : 
TLFamily_LM        .         Casing Collar locator         : 
TLFamily_METKA     .                                       : 
TLFamily_MN        .                                       : 
TLFamily_MN$       .                                       : 
TLFamily_PL        .                                       : 
TLFamily_PL_2      .                                       : 
TLFamily_RCOR      .                                       : 
TLFamily_RES       .         Mud Resistivity               : 
TLFamily_SPID      .         Spontaneous Potential         : 
TLFamily_STD       .                                       : 
TLFamily_TIME      .         Time                          : 
TLFamily_TM        .         Temperature                   : 
TLFamily_TM$       .         Temperature                   : 
TLFamily_VGD       .         Gas Volume                    : 
group              .         prim                          : 
~Curve Information
#_______________________________________________________________________________
#
#LOGNAME           .UNIT     LOG_ID                        : DESCRIPTION
#_______________________________________________________________________________
DEPT               .M                                      : 1 Глубина, м -    0.0 см 
CRES               .UE                                     : 9 Проводимость, усл.ед. -  222.0 см 
GK                 .MKR/H                                  : 16 Гамма-активность, мкр./ч -  106.0 см 
GK$                .UE                                     : 13 Гамма-активность, усл.ед. -  106.0 см 
LM                 .                                       : 11 Локатор муфт,  -   16.0 см 
METKA              .                                       : 3 Метки,  -    0.0 см 
MN                 .ATM                                    : 15 Давление, атм. -  160.0 см 
MN$                .UE                                     : 7 Давление, усл.ед. -  160.0 см 
PL                 .UE                                     : 10 Плотность, усл.ед. -  270.0 см 
PL_2               .GSM3                                   : 18 Плотность, г./см3 -  270.0 см 
RCOR               .CM/KM                                  : 5 Коррекция по ролику, см/км -    0.0 см 
RES                .SM                                     : 17 Проводимость,  -  222.0 см 
SPID               .M/H                                    : 2 Скорость, м/час -    0.0 см 
STD                .                                       : 12 Приток,  -  170.0 см 
TIME               .S                                      : 4 Время, сек -    0.0 см 
TM                 .GRD                                    : 14 Температура, °C -  180.0 см 
TM$                .UE                                     : 6 Температура, усл.ед. -  180.0 см 
VGD                .                                       : 8 Влагомер,  -  170.0 см 
~Ascii
# ...
2688.6     1222       9.74       419        59         0          247.33     12067      13         0          0          4.2996     -260       9176       8601.86    46.712     11545      6630      
2688.8     1222       9.7        433        153        0          247.336    12067      13         0          0          4.2996     -260       9174       8598.98    46.72      11547      6630      
2689       1222       9.3        423        475        0          247.36     12068      14         0          0          4.2996     -260       9175       8596.22    46.705     11543      6629      
2689.2     1223       9.07       395        147        0          247.408    12070      13         0          0          4.3044     -300       9171       8593.33    46.7       11542      6628      
2689.4     1223       9.53       413        127        0          247.38     12069      13         0          0          4.3044     -260       9167       8590.58    46.692     11540      6628      
2689.6     1222       9.67       416        119        0          247.412    12070      15         0          0          4.2997     -260       9164       8587.81    46.663     11533      6630      
2689.8     1221       10.01      423        147        0          247.435    12071      14         0          0          4.2949     -260       9162       8585.07    46.659     11532      6626      
2690       1222       10.4       457        124        1          247.449    12072      13         0          0          4.298      -260       9159       8582.04    46.65      11530      6627      
2690.2     1223       10.1       456        133        0          247.472    12073      15         0          0          4.3028     -260       9157       8577.51    46.635     11526      6627      
2690.4     1219       9.96       423        147        0          247.494    12074      14         0          0          4.2869     -260       9155       8574.7     46.626     11524      6626      
2690.6     1218       10.4       435        147        0          247.516    12075      14         0          0          4.2806     -260       9156       8571.94    46.611     11520      6627      
2690.8     1218       10.07      464        360        0          247.539    12076      14         0          0          4.2806     -260       9156       8569.17    46.591     11515      6626      
2691       1218       9.24       428        5449       0          247.545    12076      13         0          0          4.2806     -260       9150       8566.3     46.578     11512      6628      
2691.2     1218       9.69       408        776        0          247.569    12077      13         0          0          4.2822     -233       9148       8563.65    46.565     11509      6627      
2691.4     1219       9.47       420        114        0          247.584    12078      14         0          0          4.2838     -260       9144       8560.77    46.558     11507      6625      
2691.6     1221       9.45       397        110        0          247.63     12080      14         0          0          4.2925     -260       9144       8558       46.554     11506      6626      
2691.8     1219       10.15      440        124        0          247.641    12080      15         0          0          4.2853     -260       9139       8555.16    46.535     11501      6625      
2692       1220       10.14      456        144        0          247.651    12081      14         0          0          4.2901     -260       9134       8552.36    46.522     11498      6626      
2692.2     1220       9.51       430        134        0          247.7      12083      14         0          0          4.2917     -260       9133       8549.61    46.507     11494      6614      
2692.4     1218       9.29       393        114        0          247.698    12083      13         0          0          4.2806     -213       9132       8546.86    46.513     11496      6628      
2692.6     1216       10.01      401        146        0          247.719    12084      14         0          0          4.2711     -260       9128       8543.96    46.495     11491      6619      
2692.8     1219       10.48      453        126        0          247.735    12085      14         0          0          4.2854     -260       9125       8541.08    46.473     11486      6622      
2693       1217       10.37      459        117        0          247.766    12086      15         0          0          4.2758     -260       9124       8538.32    46.465     11484      6626      
2693.2     1217       10.46      452        107        0          247.765    12086      14         0          0          4.2758     -320       9124       8535.57    46.457     11482      6629      
2693.4     1217       10.64      463        121        0          247.789    12087      14         0          0          4.2758     -260       9126       8532.68    46.453     11481      6626      
2693.6     1216       10.59      472        114        0          247.811    12088      14         0          0          4.2726     -214       9121       8529.92    46.445     11479      6626      
2693.8     1216       10.16      449        111        0          247.816    12088      13         0          0          4.2711     -260       9119       8527.04    46.429     11475      6626      
2694       1216       10.12      433        118        0          247.855    12090      14         0          0          4.2711     -260       9116       8524.14    46.407     11470      6627      
2694.2     1216       10.5       440        118        0          247.871    12091      14         0          0          4.2711     -190       9116       8521.39    46.397     11467      6624      
2694.4     1217       10.82      463        67         0          247.878    12091      14         0          0          4.2758     -260       9117       8518.63    46.397     11467      6622      
2694.6     1216       10.8       474        51         0          247.9      12092      14         0          0          4.2711     -260       9112       8515.88    46.385     11464      6624      
2694.8     1218       10.61      464        57         0          247.922    12093      14         0          0          4.2805     -260       9110       8512.99    46.368     11460      6624      
2695       1217       10.5       460        59         0          247.953    12094      14         0          0          4.2742     -260       9108       8510.23    46.348     11455      6628      
2695.2     1212       10.24      464        64         0          247.967    12095      14         0          0          4.2504     -260       9108       8507.48    46.336     11452      6630      
2695.4     1214       9.81       418        138        0          247.983    12096      14         0          0          4.2631     -225       9107       8504.66    46.32      11448      6629      
2695.6     1216       10.36      425        275        0          247.992    12096      14         0          0          4.2711     -191       9109       8501.7     46.32      11448      6628      
2695.8     1217       10.9       474        125        0          248.016    12097      14         0          0          4.2775     -320       9109       8498.94    46.324     11449      6629      
2696       1218       10.84      476        104        0          248.065    12099      14         0          0          4.2806     -260       9104       8496.2     46.324     11449      6629      
2696.2     1218       10.98      470        131        0          248.065    12099      13         0          0          4.2806     -260       9103       8493.43    46.328     11450      6630      
2696.4     1217       11.17      485        120        0          248.081    12100      14         0          0          4.2758     -260       9100       8490.67    46.328     11450      6631      
2696.6     1216       11.25      495        97         0          248.095    12100      14         0          0          4.2711     -260       9100       8487.79    46.323     11449      6630      
