~Version
 VERS              .         2.0                           : CWLS LOG ASCII STANDARD - VERSION 2.0
 WRAP              .         NO                            : ONE LINE PER DEPTH STEP
 DLM               .         SPACE                         : DELIMITING CHARACTER(SPACE TAB OR COMMA)
~Well Information
#_______________________________________________________________________________
#
#PARAMETER_NAME    .UNIT     VALUE                         : DESCRIPTION
#_______________________________________________________________________________
STRT               .M        2718.8                        : First reference value
STOP               .M        2774.8                        : Last reference value
STEP               .M        0.2                           : Step increment
NULL               .         -9999                         : Missing value
COMP               .                                       : Company
WELL               .         616                           : Well name
FLD                .                                       : Field
LOC                .                                       : Location
CNTY               .                                       : County
STAT               .                                       : State
CTRY               .                                       : Country
SRVC               .                                       : Service Company
DATE               .                                       : Date
API                .                                       : API number
PROJECT_UPGRADE_TIME .         2021-03-18T21_24_50           : 
group              .         Good                          : 
~Parameter Information Block
#_______________________________________________________________________________
#
#PARAMETER_NAME    .UNIT     VALUE                         : DESCRIPTION
#_______________________________________________________________________________
SET                .         D1746_D                       : 
OTHER              .         Программное обеспечение станции MONITOR-386EX 25/12/99 15_08_10   BGF V52 22/08/01 16_56_30   3.1_SNGF___BGF_N_111239: 
OTHER_10           .         Тарировки_                    : 
OTHER_11           .         <_techsia_sc_> Постоянная времени фильтра ГК  3.0 сек, kf=0.016529: 
OTHER_12           .         <_techsia_sc_> Постоянная времени фильтра ННК  3.0 сек, kf=0.016529: 
OTHER_13           .         GK.MKR/H = GK$.IMP/476        : 
OTHER_14           .         WSAT.PERC = -12.5 + 78.0 * (NKT2$.IMP / NKT1$.IMP) * 1731/33716: 
OTHER_15           .         NKT2.PRIV = NKT2$.IMP/33716   : 
OTHER_16           .         NKT1.PRIV = NKT1$.IMP/1731    : 
OTHER_2            .         Kedr.exe версия 3.3.2.32      : 
OTHER_3            .         KedrData.dll версия 3.3.2.17  : 
OTHER_4            .         Драйвер версия 2.1.1.9        : 
OTHER_5            .         Мнемоники версия 3.2 S        : 
OTHER_6            .         Прибор_ СРК-73Ц-1N            : 
OTHER_7            .         Номер прибора_ 906            : 
OTHER_8            .         Режим_ с локатором            : 
OTHER_9            .         Форма_ 623-1                  : 
PROJECT_UPGRADE_TIME .         2021-03-18T21_24_49           : 
TLFamily_DEPT      .         Measured Depth                : 
TLFamily_GK        .         Gamma Ray                     : 
TLFamily_GK$       .                                       : 
TLFamily_LM        .         Casing Collar locator         : 
TLFamily_METKA     .                                       : 
TLFamily_NKT1      .         Neutron Far                   : 
TLFamily_NKT1$     .         Neutron Far                   : 
TLFamily_NKT2      .         Neutron Near                  : 
TLFamily_NKT2$     .         Neutron Near                  : 
TLFamily_RCOR      .                                       : 
TLFamily_SPID      .         Spontaneous Potential         : 
TLFamily_TENS      .         Cable Tension                 : 
TLFamily_TIME      .         Time                          : 
TLFamily_WSAT      .         Neutron Porosity              : 
group              .         prim                          : 
~Curve Information
#_______________________________________________________________________________
#
#LOGNAME           .UNIT     LOG_ID                        : DESCRIPTION
#_______________________________________________________________________________
DEPT               .M                                      : 1 Глубина, м -    0.0 см 
GK                 .MKR/H                                  : 11 Гамма-активность, мкр./ч -   97.0 см 
GK$                .IMP                                    : 9 Гамма-активность, имп/мин -   97.0 см 
LM                 .                                       : 10 Локатор муфт,  -   27.0 см 
METKA              .                                       : 3 Метки,  -    0.0 см 
NKT1               .PRIV                                   : 14 Большой зонд приведенный,  -  278.0 см 
NKT1$              .IMP                                    : 8 Большой зонд, имп/мин -  278.0 см 
NKT2               .PRIV                                   : 13 Малый зонд приведенный,  -  289.0 см 
NKT2$              .IMP                                    : 7 Малый зонд, имп/мин -  289.0 см 
RCOR               .CM/KM                                  : 5 Коррекция по ролику, см/км -    0.0 см 
SPID               .M/H                                    : 2 Скорость, м/час -    0.0 см 
TENS               .T                                      : 6 Натяжение кабеля, т -    0.0 см 
TIME               .S                                      : 4 Время, сек -    0.0 см 
WSAT               .PERC                                   : 12 Водонасыщенная пористость, % -  284.0 см 
~Ascii
# ...
2760.4     7.27       3462       26         0          1.64       2838.36    0.96       32476.05   -413       -380       0          12490.82   41.75     
2760.6     7.19       3422       62         0          1.57       2720.07    0.97       32728.34   -413       -380       0          12488.87   42.24     
2760.8     6.6        3143       28         0          1.68       2905.4     0.98       33020.1    -413       -322       0          12486.92   35.75     
2761       6.38       3036       61         0          1.7        2934.99    0.98       32915.62   -413       -380       0          12485.01   38.45     
2761.2     6.19       2948       63         0          1.63       2825.4     0.97       32754.85   -413       -379       0          12483.01   38.08     
2761.4     6.97       3317       8          0          1.67       2895.5     0.99       33431.95   -413       -365       0          12481.06   40.38     
2761.6     7.16       3408       46         0          1.8        3109.04    1          33703.96   -413       -321       0          12479.1    37.27     
2761.8     7.25       3452       44         0          1.7        2943.73    1          33758      -413       -339       0          12477.1    37.15     
2762       7.3        3474       46         0          1.74       3009.18    0.98       33102.72   -413       -380       0          12475.15   36.6      
2762.2     7.42       3531       67         0          1.84       3179.95    1          33821.91   -413       -380       0          12473.15   38.69     
2762.4     7.99       3805       69         0          1.86       3214.14    1.02       34250.09   -413       -377       0          12471.13   37.73     
2762.6     7.95       3785       46         0          1.82       3148.36    1          33734.1    -413       -380       0          12469.13   36.38     
2762.8     8.16       3884       74         0          1.86       3223.51    0.99       33518.77   -413       -376       0          12467.18   37.31     
2763       8.02       3818       44         0          1.97       3409.49    1.01       34181.66   -413       -349       0          12465.27   36.62     
2763.2     7.38       3511       90         0          1.95       3376.12    1.03       34654.66   -413       -377       0          12463.27   38.33     
2763.4     6.94       3303       52         0          2.05       3546.87    1.04       35114.75   -413       -327       0          12461.27   36.64     
2763.6     6.44       3064       55         0          2.19       3789.3     1.06       35617.39   -413       -328       0          12459.26   33.89     
2763.8     6.39       3040       52         0          2.29       3961.47    1.11       37527.78   -413       -379       0          12457.31   33.89     
2764       5.95       2830       54         0          2.46       4259.41    1.15       38939.64   -413       -373       0          12455.36   31.79     
2764.2     6.49       3087       62         0          2.49       4302.89    1.13       38054.16   -413       -321       0          12453.41   31.08     
2764.4     6.8        3236       79         0          2.38       4117.99    1.13       38033.95   -413       -325       0          12451.46   30.23     
2764.6     6.87       3272       66         0          2.25       3887.13    1.1        37179.99   -413       -321       0          12449.45   31.53     
2764.8     6.99       3328       62         0          1.9        3285.06    1.04       34996.75   -413       -329       0          12447.5    33.66     
2765       6.96       3315       92         0          1.81       3131.61    1.04       35025.36   -413       -322       0          12445.45   37.7      
2765.2     7.01       3335       80         0          1.86       3226.54    1.02       34524.97   -413       -337       0          12443.49   35.48     
2765.4     7.19       3421       91         0          1.97       3402.43    1.02       34243.76   -413       -380       0          12441.54   31.05     
2765.6     7.6        3618       70         0          1.88       3252.63    1.03       34569.17   -413       -334       0          12439.67   33.42     
2765.8     7.32       3485       66         0          1.84       3178.08    1.02       34496.26   -413       -380       0          12437.57   38.33     
2766       8.39       3992       78         0          1.94       3361.13    1.03       34571.6    -413       -337       0          12435.62   34.89     
2766.2     8.09       3851       55         0          1.92       3330.57    1.03       34704.37   -413       -377       0          12433.62   34.17     
2766.4     7.97       3793       59         0          1.9        3291.89    1.05       35260.39   -413       -359       0          12431.62   36.7      
2766.6     7.35       3499       59         0          2          3463.82    1.06       35744.23   -413       -323       0          12429.66   35.51     
2766.8     7.37       3507       65         0          2.13       3693.69    1.05       35292.7    -413       -380       0          12427.71   36.22     
2767       6.76       3217       100        0          2          3467.19    1.06       35747.53   -413       -380       0          12425.76   35.09     
2767.2     7.24       3448       67         0          2.09       3618.51    1.06       35846.45   -413       -380       0          12423.8    37.32     
2767.4     6.55       3119       44         0          2.05       3550.34    1.07       35972.53   -413       -327       0          12421.75   33.74     
2767.6     6.63       3157       167        0          2.11       3657.46    1.06       35878.49   -413       -380       0          12419.75   32.66     
2767.8     7.31       3482       204        0          2.07       3585.08    1.04       34984.68   -413       -380       0          12417.75   32.32     
2768       7.63       3631       243        0          1.92       3316.29    1.01       33972.11   -413       -321       0          12415.79   33.61     
2768.2     7.16       3409       116        0          1.95       3380.58    1.02       34397.71   -413       -380       0          12413.79   34.01     
2768.4     6.54       3111       2          0          1.9        3296.3     1.05       35525.58   -413       -380       0          12411.79   38.12     
2768.6     7.04       3351       3          0          1.86       3219.91    1.05       35290.47   -413       -380       0          12409.83   40.86     
2768.8     7.99       3802       4          0          1.94       3354.01    1.07       35935.84   -413       -380       0          12407.87   37.58     
2769       8.39       3995       5          0          1.76       3050.83    1.05       35237.52   -413       -339       0          12405.93   39.46     
2769.2     8          3807       3          0          1.84       3178.58    1.03       34770.31   -413       -378       0          12403.97   36.37     
2769.4     7.76       3692       3          0          1.88       3255.21    1.05       35408.74   -413       -343       0          12401.96   39.7      
2769.6     7.56       3600       4          0          1.92       3321.94    1.05       35423.36   -413       -324       0          12399.96   40.48     
2769.8     8.42       4010       3          1          1.86       3219.94    1.08       36539.91   -413       -380       0          12397.91   40.86     
2770       8.04       3829       3          0          1.88       3257.39    1.1        37035.21   -413       -380       0          12396      38.61     
2770.2     7.63       3633       3          0          1.91       3305.01    1.12       37796.38   -413       -357       0          12395.25   39.73     
2770.4     8.23       3917       3          0          2.02       3490.17    1.13       38125.42   -413       -323       0          12393.25   39.01     
2770.6     8.08       3846       3          0          2.09       3614.39    1.18       39869.5    -413       -374       0          12391.25   40.15     
