~Version
 VERS              .         2.0                           : CWLS LOG ASCII STANDARD - VERSION 2.0
 WRAP              .         NO                            : ONE LINE PER DEPTH STEP
 DLM               .         SPACE                         : DELIMITING CHARACTER(SPACE TAB OR COMMA)
~Well Information
#_______________________________________________________________________________
#
#PARAMETER_NAME    .UNIT     VALUE                         : DESCRIPTION
#_______________________________________________________________________________
STRT               .M        19.65                         : First reference value
STOP               .M        2766.85                       : Last reference value
STEP               .M        0.2                           : Step increment
NULL               .         -9999                         : Missing value
COMP               .                                       : Company
WELL               .         616                           : Well name
FLD                .                                       : Field
LOC                .                                       : Location
CNTY               .                                       : County
STAT               .                                       : State
CTRY               .                                       : Country
SRVC               .                                       : Service Company
DATE               .                                       : Date
API                .                                       : API number
PROJECT_UPGRADE_TIME .         2021-03-18T21_24_50           : 
group              .         Good                          : 
~Parameter Information Block
#_______________________________________________________________________________
#
#PARAMETER_NAME    .UNIT     VALUE                         : DESCRIPTION
#_______________________________________________________________________________
SET                .         D7016_D_2                     : 
NPR                .         155                           : Номер прибора
OTHER              .         Kedr.exe версия 2.1.2.32      : 
OTHER_10           .         TM.GRD = 0.00404*TM$.UE + 0.07: 
OTHER_11           .         MN.ATM = (6.33279e-006*TM.GRD + 0.02401)*(MN$.UE + 2.72*TM.GRD + -2018): 
OTHER_12           .         GK.MKR/H = GK$.UE / 43.5489 + 0: 
OTHER_13           .         RES.SM = 0.00476*CRES.UE - 1.51709: 
OTHER_14           .         PL.GSM3 = 0 + 0 * (PL.UE / 1) +  0 * (PL.UE / 1)^2: 
OTHER_15           .         Постоянная времени ГГП = 6 сек: 
OTHER_16           .         Постоянная времени ГК = 6 сек : 
OTHER_2            .         KedrData.dll версия 3.2.2.14  : 
OTHER_3            .         LasInf.dll версия 3.2.0.13    : 
OTHER_4            .         Драйвер версия 1.2.0.5        : 
OTHER_5            .         Прибор_ КСА-M1                : 
OTHER_6            .         Номер прибора_ 155+р204       : 
OTHER_7            .         Режим_ КСА-М1 + ГГП + Резистивиметр: 
OTHER_8            .         Форма_ 223\2                  : 
OTHER_9            .         Тарировки_                    : 
PR                 .         КСА-Т7 М1                     : Тип прибора
PROJECT_UPGRADE_TIME .         2021-03-18T21_24_50           : 
PRTY               .         ПП-223_2                      : Номер партии
SRV                .         ЦКРС                          : Заказчик
SRVC               .         Лузин  А.Б.                   : Начальник партии
TLFamily_DEPT      .         Measured Depth                : 
TLFamily_LM        .         Casing Collar locator         : 
TLFamily_MN        .                                       : 
TLFamily_SPID      .         Spontaneous Potential         : 
TLFamily_TM        .         Temperature                   : 
group              .         second                        : 
~Curve Information
#_______________________________________________________________________________
#
#LOGNAME           .UNIT     LOG_ID                        : DESCRIPTION
#_______________________________________________________________________________
DEPT               .M                                      : Depth curve 
LM                 .е.ацп                                  : Локация муфт 
MN                 .атм                                    : Манометрия, атм 
SPID               .м/ч                                    : Скорость записи,м/час 
TM                 .град.С                                 : Термометрия,град.С 
~Ascii
# ...
749.65     341.997    68.79      1660       31.41     
749.85     277.998    68.81      1660       31.41     
750.05     240        68.83      1660       31.41     
750.25     243.003    68.85      1660       31.41     
750.45     298.002    68.86      1660       31.43     
750.65     329        68.89      1660       31.43     
750.85     332.367    68.91      1659.997   31.43     
751.05     7315.858   68.92      1603.001   31.44     
751.25     4608.911   68.96      1614.005   31.45     
751.45     2925.944   68.96      1700.995   31.45     
751.65     1865.965   68.99      1600.003   31.45     
751.85     1203.98    68.99      1665.001   31.46     
752.05     816.992    69.01      1684.999   31.46     
752.25     656.002    69.03      1659.997   31.47     
752.45     699.99     69.06      1600.003   31.47     
752.65     516.002    69.08      1660       31.48     
752.85     545.005    69.09      1660       31.49     
753.05     635.002    69.09      1660       31.49     
753.25     665.997    69.12      1660       31.49     
753.45     600        69.13      1660       31.5      
753.65     598.998    69.15      1660       31.5      
753.85     563.995    69.16      1660       31.5      
754.05     470.997    69.18      1660       31.51     
754.25     409.001    69.21      1660.002   31.51     
754.45     432.999    69.23      1689       31.52     
754.65     417.999    69.25      1690.998   31.52     
754.85     396.998    69.26      1660       31.53     
755.05     368.004    69.28      1660.003   31.53     
755.25     444.997    69.31      1726       31.54     
755.45     387.999    69.31      1729.999   31.54     
755.65     364.998    69.33      1717.997   31.55     
755.85     325.999    69.36      1660       31.55     
756.05     308.001    69.4       1660       31.56     
756.25     319.997    69.38      1660       31.56     
756.45     256.002    69.38      1660.003   31.56     
756.65     297.997    69.4       1721.997   31.57     
756.85     236.003    69.43      1660.001   31.57     
757.05     302        69.46      1671.002   31.57     
757.25     297.004    69.48      1713.997   31.58     
757.45     373.002    69.48      1660       31.58     
757.65     405.999    69.49      1660       31.59     
757.85     395.005    69.52      1660       31.59     
758.05     489.997    69.53      1659.997   31.6      
758.25     424.995    69.55      1603.003   31.6      
758.45     333.999    69.56      1660       31.61     
758.65     315.003    69.58      1660       31.61     
758.85     379.008    69.6       1660       31.61     
759.05     527.002    69.61      1659.997   31.62     
759.25     561.993    69.63      1607       31.62     
759.45     425.992    69.65      1600       31.63     
759.65     269.998    69.68      1600.003   31.63     
759.85     229.004    69.68      1650.001   31.63     
760.05     304        69.69      1660       31.64     
760.25     298        69.73      1660       31.64     
760.45     288.998    69.74      1660       31.65     
760.65     254.003    69.77      1660       31.65     
760.85     302.002    69.78      1660       31.66     
761.05     338.012    69.8       1660       31.66     
761.25     564.003    69.8       1660.004   31.67     
761.45     614.995    69.82      1726       31.67     
761.65     524.998    69.88      1725.996   31.68     
761.85     491.42     69.88      1660       31.68     
762.05     8359.835   69.9       1660       31.68     
762.25     5266.896   69.91      1660.002   31.69     
762.45     3325.936   69.94      1703.001   31.69     
762.65     2131.959   69.95      1729.997   31.69     
762.85     1366.974   69.97      1668       31.7      
763.05     876.976    69.98      1660       31.71     
763.25     427.995    70         1660       31.71     
763.45     334.997    70.03      1660       31.72     
763.65     270.996    70.04      1659.998   31.72     
763.85     203        70.04      1618.002   31.72     
764.05     208.999    70.07      1650.001   31.73     
764.25     194        70.07      1660       31.74     
764.45     202        70.03      1660       31.74     
764.65     201.999    70.1       1660       31.74     
764.85     192.001    70.13      1659.998   31.74     
765.05     214.999    70.15      1623.001   31.75     
765.25     196        70.16      1646.001   31.76     
765.45     198.003    70.19      1660       31.76     
765.65     245.997    70.2       1660       31.76     
765.85     193        70.22      1660       31.77     
766.05     193.999    70.23      1660       31.77     
766.25     182.002    70.26      1660       31.78     
766.45     213.998    70.27      1660       31.78     
766.65     178.002    70.29      1660       31.79     
766.85     222.997    70.3       1660       31.79     
767.05     170        70.34      1660       31.79     
767.25     169        70.35      1660       31.8      
767.45     167.002    70.35      1660.002   31.8      
767.65     199        70.38      1696.997   31.81     
767.85     193.004    70.4       1640.998   31.81     
768.05     263.999    70.41      1600.003   31.82     
768.25     241.997    70.42      1660       31.82     
768.45     194.999    70.44      1660       31.82     
768.65     180.998    70.45      1660       31.83     
768.85     150        70.46      1660       31.83     
769.05     157.998    70.51      1660       31.83     
769.25     124.001    70.52      1660       31.84     
769.45     137        70.52      1660       31.85     
769.65     141.001    70.54      1660       31.85     
769.85     154.999    70.57      1660       31.86     
770.05     136.001    70.57      1659.997   31.86     
770.25     159.002    70.59      1607.003   31.86     
770.45     190.999    70.61      1660       31.87     
770.65     180.001    70.63      1659.998   31.87     
770.85     200.002    70.64      1625.999   31.88     
771.05     236.998    70.67      1600.006   31.88     
771.25     195.004    70.69      1714.997   31.89     
771.45     275        70.71      1660       31.89     
771.65     281.004    70.74      1660       31.89     
771.85     350.003    70.74      1660       31.9      
772.05     411.001    70.75      1660       31.9      
772.25     425        70.78      1659.998   31.91     
772.45     431.005    70.79      1613.999   31.91     
772.65     521.273    70.81      1600.003   31.91     
772.85     5552.986   70.84      1660       31.91     
773.05     5299.895   70.84      1659.999   31.92     
773.25     3360.934   70.85      1635       31.93     
773.45     2135.958   70.87      1635.001   31.93     
773.65     1358.975   70.89      1659.997   31.93     
773.85     892.976    70.91      1607.003   31.94     
774.05     456.995    70.93      1660       31.94     
774.25     364.997    70.96      1660.001   31.95     
774.45     303.998    70.97      1681.003   31.95     
774.65     270.998    70.99      1730       31.96     
774.85     234        71         1729.995   31.96     
775.05     242.003    71.01      1635.998   31.97     
775.25     294.001    71.03      1600.007   31.97     
775.45     318.001    71.06      1729.996   31.97     
775.65     334.003    71.06      1660       31.98     
775.85     388.999    71.09      1660       31.99     
776.05     364        71.1       1660       31.99     
776.25     357.998    71.12      1660       31.99     
776.45     315.999    71.14      1660       32        
776.65     299.002    71.14      1660       32.01     
776.85     329.002    71.18      1660       32.01     
777.05     365.996    71.19      1660       32.02     
777.25     294.997    71.19      1660       32.02     
777.45     240.998    71.22      1659.998   32.03     
777.65     202.999    71.25      1622.999   32.03     
777.85     184.999    71.26      1600.003   32.04     
778.05     165        71.28      1653.004   32.04     
778.25     168.999    71.29      1729.998   32.05     
778.45     154        71.31      1696.996   32.05     
778.65     154.001    71.34      1627.002   32.06     
