~Version
 VERS              .         2.0                           : CWLS LOG ASCII STANDARD - VERSION 2.0
 WRAP              .         NO                            : ONE LINE PER DEPTH STEP
 DLM               .         SPACE                         : DELIMITING CHARACTER(SPACE TAB OR COMMA)
~Well Information
#_______________________________________________________________________________
#
#PARAMETER_NAME    .UNIT     VALUE                         : DESCRIPTION
#_______________________________________________________________________________
STRT               .M        2714.4                        : First reference value
STOP               .M        2769                          : Last reference value
STEP               .M        0.2000004                     : Step increment
NULL               .         -9999                         : Missing value
COMP               .                                       : Company
WELL               .         616                           : Well name
FLD                .                                       : Field
LOC                .                                       : Location
CNTY               .                                       : County
STAT               .                                       : State
CTRY               .                                       : Country
SRVC               .                                       : Service Company
DATE               .                                       : Date
API                .                                       : API number
PROJECT_UPGRADE_TIME .         2021-03-18T21_24_50           : 
group              .         Good                          : 
~Parameter Information Block
#_______________________________________________________________________________
#
#PARAMETER_NAME    .UNIT     VALUE                         : DESCRIPTION
#_______________________________________________________________________________
SET                .         D1163_D                       : 
OTHER              .         Программное обеспечение станции MONITOR-386EX 25/12/99 15_08_10   BGF V52 22/08/01 16_56_30   3.2_BGF_N_3070031: 
OTHER_10           .         Тарировки_                    : 
OTHER_11           .         TM.GRD = 0.00403*TM$.UE + -1.19: 
OTHER_12           .         MN.ATM = (7.1e-006*TM.GRD + 0.02017)*(MN$.UE + -3.03*TM.GRD + -1833): 
OTHER_13           .         Id error                      : 
OTHER_2            .         Kedr.exe версия 3.4.2.51      : 
OTHER_3            .         KedrData.dll версия 3.4.2.24  : 
OTHER_4            .         Драйвер версия 2.1.1.8        : 
OTHER_5            .         Мнемоники версия 3.3 S        : 
OTHER_6            .         Прибор_ КСА-М1                : 
OTHER_7            .         Номер прибора_ 265            : 
OTHER_8            .         Режим_ КСА-М1                 : 
OTHER_9            .         Форма_ ТЕРМОМЕТР              : 
PROJECT_UPGRADE_TIME .         2021-03-18T21_24_49           : 
TLFamily_DEPT      .         Measured Depth                : 
TLFamily_GK        .         Gamma Ray                     : 
TLFamily_GK$       .                                       : 
TLFamily_LM        .         Casing Collar locator         : 
TLFamily_METKA     .                                       : 
TLFamily_MN        .                                       : 
TLFamily_MN$       .                                       : 
TLFamily_RCOR      .                                       : 
TLFamily_SPID      .         Spontaneous Potential         : 
TLFamily_STD       .                                       : 
TLFamily_TENS      .         Cable Tension                 : 
TLFamily_TIME      .         Time                          : 
TLFamily_TM        .         Temperature                   : 
TLFamily_TM$       .         Temperature                   : 
TLFamily_VGD       .         Gas Volume                    : 
group              .         prim                          : 
~Curve Information
#_______________________________________________________________________________
#
#LOGNAME           .UNIT     LOG_ID                        : DESCRIPTION
#_______________________________________________________________________________
DEPT               .M                                      : 1 Глубина, м -    0.0 см 
GK                 .MKR/H                                  : 15 Гамма-активность, мкр./ч -  110.0 см 
GK$                .UE                                     : 12 Гамма-активность, усл.ед. -  110.0 см 
LM                 .                                       : 10 Локатор муфт,  -   20.0 см 
METKA              .                                       : 3 Метки,  -    0.0 см 
MN                 .ATM                                    : 14 Давление, атм. -  160.0 см 
MN$                .UE                                     : 8 Давление, усл.ед. -  160.0 см 
RCOR               .CM/KM                                  : 5 Коррекция по ролику, см/км -    0.0 см 
SPID               .M/H                                    : 2 Скорость, м/час -    0.0 см 
STD                .                                       : 11 Приток,  -  170.0 см 
TENS               .T                                      : 6 Натяжение кабеля, т -    0.0 см 
TIME               .S                                      : 4 Время, сек -    0.0 см 
TM                 .GRD                                    : 13 Температура, °C -  180.0 см 
TM$                .UE                                     : 7 Температура, усл.ед. -  180.0 см 
VGD                .                                       : 9 Влагомер,  -  170.0 см 
~Ascii
# ...
2763.4     7.27       319        1          0          256.46     14429      -1400      -313       32373      0          18116.09   90.98      22871      6479      
2763.6     7.1        302        1          0          256.481    14430      -1400      -308       32373      0          18113.79   90.988     22873      6480      
2763.8     7.29       303        1          0          256.501    14431      -1400      -313       32373      0          18111.38   90.991     22874      6481      
2764       7.68       323        1          0          256.522    14432      -1400      -308       32372      0          18109.19   90.993     22874      6481      
2764.2     8.07       343        1          0          256.543    14433      -1400      -299       32373      0          18106.92   91         22876      6481      
2764.4     8.17       355        1          0          256.564    14434      -1400      -300       32373      0          18104.69   91.004     22877      6481      
2764.6     7.68       329        1          0          256.585    14435      -1400      -306       32373      0          18102.29   91.008     22878      6480      
2764.8     7.57       325        1          0          256.622    14437      -1400      -301       32373      0          18099.91   91.012     22879      6480      
2765       7.25       311        1          0          256.627    14437      -1400      -300       32373      0          18097.68   91.016     22880      6481      
2765.2     7.1        302        1          0          256.648    14438      -1400      -308       32373      0          18095.16   91.016     22880      6481      
2765.4     7.41       307        1          0          256.69     14440      -1400      -300       32373      0          18092.97   91.024     22882      6481      
2765.6     7.51       322        1          0          256.71     14441      -1400      -301       32373      0          18090.55   91.026     22883      6481      
2765.8     7.51       320        1          0          256.731    14442      -1400      -292       32374      0          18088.26   91.026     22882      6480      
2766       7.33       326        1          0          256.752    14443      -1400      -306       32373      0          18085.95   91.028     22883      6480      
2766.2     6.88       302        1          0          256.773    14444      -1400      -302       32373      0          18083.76   91.036     22885      6483      
2766.4     6.67       278        1          0          256.795    14445      -1400      -289       32374      0          18081.57   91.049     22888      6477      
2766.6     7.1        302        1          0          256.81     14446      -1400      -278       32373      0          18079.3    91.061     22891      6473      
2766.8     7.13       308        1          0          256.836    14447      -1400      -240       32372      0          18076.96   91.053     22889      6472      
2767       6.92       295        1          0          256.867    14449      -1400      -184       32372      0          18074.77   91.037     22885      6495      
2767.2     6.99       301        1          0          256.856    14448      -1400      -89        32373      0          18072.59   91.037     22885      6507      
2767.4     6.78       291        1          0          256.856    14448      -9999      -9999      32372      -9999      -9999      91.037     22885      6510      
2767.6     6.6        281        1          -9999      256.867    14448      -9999      -9999      32372      -9999      -9999      91.037     22885      6509      
2767.8     6.78       285        -9999      -9999      256.888    14449      -9999      -9999      32373      -9999      -9999      91.041     22886      6509      
2768       6.65       294        -9999      -9999      256.888    14450      -9999      -9999      32372      -9999      -9999      91.045     22887      6509      
2768.2     6.6        275        -9999      -9999      256.877    14449      -9999      -9999      32372      -9999      -9999      91.045     22887      6509      
2768.4     6.82       287        -9999      -9999      256.877    14449      -9999      -9999      32372      -9999      -9999      91.045     22887      6508      
2768.6     -9999      -9999      -9999      -9999      256.857    14448      -9999      -9999      32373      -9999      -9999      91.045     22887      6508      
2768.8     -9999      -9999      -9999      -9999      256.857    14448      -9999      -9999      32372      -9999      -9999      91.049     22888      6507      
2769       -9999      -9999      -9999      -9999      -9999      -9999      -9999      -9999      32373      -9999      -9999      91.053     22889      6507      
