~Version
 VERS              .         2.0                           : CWLS LOG ASCII STANDARD - VERSION 2.0
 WRAP              .         NO                            : ONE LINE PER DEPTH STEP
 DLM               .         SPACE                         : DELIMITING CHARACTER(SPACE TAB OR COMMA)
~Well Information
#_______________________________________________________________________________
#
#PARAMETER_NAME    .UNIT     VALUE                         : DESCRIPTION
#_______________________________________________________________________________
STRT               .M        2664                          : First reference value
STOP               .M        2769.2                        : Last reference value
STEP               .M        0.1999999                     : Step increment
NULL               .         -9999                         : Missing value
COMP               .                                       : Company
WELL               .         616                           : Well name
FLD                .                                       : Field
LOC                .                                       : Location
CNTY               .                                       : County
STAT               .                                       : State
CTRY               .                                       : Country
SRVC               .                                       : Service Company
DATE               .                                       : Date
API                .                                       : API number
PROJECT_UPGRADE_TIME .         2021-03-18T21_24_50           : 
group              .         Good                          : 
~Parameter Information Block
#_______________________________________________________________________________
#
#PARAMETER_NAME    .UNIT     VALUE                         : DESCRIPTION
#_______________________________________________________________________________
SET                .         D1161_D                       : 
OTHER              .         Программное обеспечение станции MONITOR-386EX 25/12/99 15_08_10   BGF V52 22/08/01 16_56_30   3.2_BGF_N_3070031: 
OTHER_10           .         Тарировки_                    : 
OTHER_11           .         TM.GRD = 0.00403*TM$.UE + -1.19: 
OTHER_12           .         MN.ATM = (7.1e-006*TM.GRD + 0.02017)*(MN$.UE + -3.03*TM.GRD + -1833): 
OTHER_13           .         Id error                      : 
OTHER_2            .         Kedr.exe версия 3.4.2.51      : 
OTHER_3            .         KedrData.dll версия 3.4.2.24  : 
OTHER_4            .         Драйвер версия 2.1.1.8        : 
OTHER_5            .         Мнемоники версия 3.3 S        : 
OTHER_6            .         Прибор_ КСА-М1                : 
OTHER_7            .         Номер прибора_ 265            : 
OTHER_8            .         Режим_ КСА-М1                 : 
OTHER_9            .         Форма_ ТЕРМОМЕТР              : 
PROJECT_UPGRADE_TIME .         2021-03-18T21_24_49           : 
TLFamily_DEPT      .         Measured Depth                : 
TLFamily_GK        .         Gamma Ray                     : 
TLFamily_GK$       .                                       : 
TLFamily_LM        .         Casing Collar locator         : 
TLFamily_METKA     .                                       : 
TLFamily_MN        .                                       : 
TLFamily_MN$       .                                       : 
TLFamily_RCOR      .                                       : 
TLFamily_SPID      .         Spontaneous Potential         : 
TLFamily_STD       .                                       : 
TLFamily_TENS      .         Cable Tension                 : 
TLFamily_TIME      .         Time                          : 
TLFamily_TM        .         Temperature                   : 
TLFamily_TM$       .         Temperature                   : 
TLFamily_VGD       .         Gas Volume                    : 
group              .         prim                          : 
~Curve Information
#_______________________________________________________________________________
#
#LOGNAME           .UNIT     LOG_ID                        : DESCRIPTION
#_______________________________________________________________________________
DEPT               .M                                      : 1 Глубина, м -    0.0 см 
GK                 .MKR/H                                  : 15 Гамма-активность, мкр./ч -  110.0 см 
GK$                .UE                                     : 12 Гамма-активность, усл.ед. -  110.0 см 
LM                 .                                       : 10 Локатор муфт,  -   20.0 см 
METKA              .                                       : 3 Метки,  -    0.0 см 
MN                 .ATM                                    : 14 Давление, атм. -  160.0 см 
MN$                .UE                                     : 8 Давление, усл.ед. -  160.0 см 
RCOR               .CM/KM                                  : 5 Коррекция по ролику, см/км -    0.0 см 
SPID               .M/H                                    : 2 Скорость, м/час -    0.0 см 
STD                .                                       : 11 Приток,  -  170.0 см 
TENS               .T                                      : 6 Натяжение кабеля, т -    0.0 см 
TIME               .S                                      : 4 Время, сек -    0.0 см 
TM                 .GRD                                    : 13 Температура, °C -  180.0 см 
TM$                .UE                                     : 7 Температура, усл.ед. -  180.0 см 
VGD                .                                       : 9 Влагомер,  -  170.0 см 
~Ascii
# ...
2742.4     9.57       415        1          0          255.042    14362      -1400      -297       32373      0          16419.38   89.799     22578      6449      
2742.6     9.06       389        1          0          255.058    14363      -1400      -295       32373      0          16416.99   89.803     22579      6448      
2742.8     8.89       375        1          0          255.078    14364      -1400      -301       32372      0          16414.58   89.807     22580      6448      
2743       9.65       418        1          0          255.099    14365      -1400      -286       32373      0          16412.19   89.807     22580      6448      
2743.2     9          388        1          0          255.125    14366      -1400      -298       32373      0          16409.68   89.811     22581      6447      
2743.4     8.55       366        1          0          255.141    14367      -1400      -301       32372      0          16407.39   89.815     22582      6446      
2743.6     8.46       363        1          0          255.169    14368      -1400      -295       32373      0          16405      89.819     22583      6444      
2743.8     8.18       350        1          0          255.183    14369      -1400      -299       32373      0          16402.6    89.824     22584      6445      
2744       8.53       366        1          0          255.214    14371      -1400      -299       32373      0          16400.09   89.828     22585      6443      
2744.2     8.26       357        1          0          255.245    14372      -1400      -303       32374      0          16397.7    89.832     22586      6442      
2744.4     7.81       342        1          0          255.266    14373      -1400      -299       32373      0          16395.34   89.832     22586      6441      
2744.6     7.86       335        1          0          255.287    14374      -1400      -300       32373      0          16392.87   89.84      22588      6440      
2744.8     7.82       335        1          0          255.308    14375      -1400      -300       32373      0          16390.54   89.84      22588      6440      
2745       8.15       331        1          0          255.329    14376      -1400      -288       32373      0          16388.21   89.844     22589      6440      
2745.2     8.24       358        1          0          255.35     14377      -1400      -293       32373      0          16385.82   89.844     22589      6438      
2745.4     7.74       352        1          0          255.371    14378      -1400      -302       32373      0          16383.32   89.848     22590      6439      
2745.6     7.09       320        1          0          255.392    14379      -1400      -303       32373      0          16380.96   89.856     22592      6438      
2745.8     6.54       289        1          0          255.413    14380      -1400      -297       32373      0          16378.63   89.86      22593      6438      
2746       6.49       264        1          0          255.434    14381      -1400      -304       32373      0          16376.13   89.864     22594      6436      
2746.2     7.1        300        1          0          255.454    14382      -1400      -300       32373      0          16373.73   89.868     22595      6437      
2746.4     6.9        312        1          0          255.475    14383      -1400      -295       32373      0          16371.44   89.868     22595      6435      
2746.6     6.3        262        1          0          255.496    14384      -1400      -291       32372      0          16369.05   89.872     22596      6435      
2746.8     7.06       283        1912       0          255.517    14385      -1400      -296       32373      0          16366.53   89.876     22597      6436      
2747       8.7        364        2638       0          255.559    14387      -1400      -297       32373      0          16364.13   89.88      22598      6443      
2747.2     9.18       395        1          0          255.573    14388      -1400      -300       32373      0          16361.85   89.885     22599      6445      
2747.4     8.91       388        1          0          255.58     14388      -1400      -305       32372      0          16359.34   89.888     22600      6444      
2747.6     8.12       354        1          0          255.601    14389      -1400      -305       32373      0          16357.05   89.892     22601      6444      
2747.8     7.55       321        1          0          255.622    14390      -1400      -306       32373      0          16354.66   89.895     22602      6442      
2748       7.79       328        1          0          255.642    14391      -1400      -303       32373      0          16352.26   89.9       22603      6442      
2748.2     8.44       362        1          0          255.663    14392      -1400      -308       32374      0          16349.75   89.9       22603      6442      
2748.4     8.24       353        1          0          255.663    14392      -1400      -306       32374      0          16347.47   89.908     22605      6441      
2748.6     8.15       343        1          0          255.684    14393      -1400      -302       32373      0          16345.07   89.912     22606      6441      
2748.8     9.01       384        1          0          255.705    14394      -1400      -304       32373      0          16342.6    89.916     22607      6439      
2749       9.23       395        1          0          255.747    14396      -1400      -301       32373      0          16340.28   89.916     22607      6439      
2749.2     8.57       387        1          0          255.758    14397      -1400      -296       32373      0          16337.88   89.924     22609      6438      
2749.4     7.4        326        1          0          255.768    14397      -1400      -294       32372      0          16335.48   89.93      22611      6438      
2749.6     7.12       309        1          0          255.789    14398      -1400      -297       32373      0          16333.09   89.936     22612      6438      
2749.8     7.56       298        1          0          255.81     14399      -1400      -294       32373      0          16330.69   89.938     22613      6436      
2750       8.09       339        1          2          255.831    14400      -1400      -300       32373      0          16328.22   89.944     22614      6435      
2750.2     8          355        1          0          255.852    14401      -1400      -306       32374      0          16325.68   89.948     22615      6436      
2750.4     7.73       334        1          0          255.873    14402      -1400      -300       32372      0          16323.39   89.952     22616      6435      
2750.6     7.89       324        1          0          255.894    14403      -1400      -296       32373      0          16320.99   89.959     22618      6434      
2750.8     8.45       357        1          0          255.925    14405      -1400      -296       32373      0          16318.63   89.965     22619      6433      
2751       8.51       372        1          0          255.956    14406      -1400      -308       32373      0          16316.16   89.969     22620      6432      
2751.2     7.94       355        1          0          255.977    14407      -1400      -305       32373      0          16313.8    89.973     22621      6432      
2751.4     7.29       312        1          0          255.998    14408      -1400      -301       32373      0          16311.51   89.981     22623      6431      
2751.6     7.47       306        1          0          256.012    14409      -1400      -302       32373      0          16309.01   89.981     22623      6429      
2751.8     8.08       342        1          0          256.04     14410      -1400      -298       32373      0          16306.61   89.985     22624      6430      
2752       8.44       351        1          0          256.061    14411      -1400      -298       32373      0          16304.25   89.991     22626      6429      
