~Version
 VERS              .         2.0                           : CWLS LOG ASCII STANDARD - VERSION 2.0
 WRAP              .         NO                            : ONE LINE PER DEPTH STEP
 DLM               .         SPACE                         : DELIMITING CHARACTER(SPACE TAB OR COMMA)
~Well Information
#_______________________________________________________________________________
#
#PARAMETER_NAME    .UNIT     VALUE                         : DESCRIPTION
#_______________________________________________________________________________
STRT               .M        209.2                         : First reference value
STOP               .M        612.6                         : Last reference value
STEP               .M        0.2                           : Step increment
NULL               .         -9999                         : Missing value
COMP               .                                       : Company
WELL               .         616                           : Well name
FLD                .                                       : Field
LOC                .                                       : Location
CNTY               .                                       : County
STAT               .                                       : State
CTRY               .                                       : Country
SRVC               .                                       : Service Company
DATE               .                                       : Date
API                .                                       : API number
PROJECT_UPGRADE_TIME .         2021-03-18T21_24_50           : 
group              .         Good                          : 
~Parameter Information Block
#_______________________________________________________________________________
#
#PARAMETER_NAME    .UNIT     VALUE                         : DESCRIPTION
#_______________________________________________________________________________
SET                .         616_3                         : 
CONF               .         00                            : 
END                .         0                             : 
ERR                .         0                             : 
GS00               .M        0610.64                       : 
GS01               .M        0206.79                       : 
MM00               .M        0060.00                       : 
NOKG               .         1                             : 
NPR                .         980119                        : 
PART               .         Палагутин                     : 
PROJECT_UPGRADE_TIME .         2021-03-18T21_24_49           : 
PRZK               .         Шакиров                       : 
TLFamily_AZIMUTH   .         True Dip Azimuth              : 
TLFamily_DEPTH     .         Measured Depth                : 
TLFamily_METKA     .                                       : 
TLFamily_ROLL      .                                       : 
TLFamily_SPEED     .         Spontaneous Potential         : 
TLFamily_ZENIT     .                                       : 
VPRG               .         310                           : 
WAY                .         UP                            : 
group              .         prim                          : 
~Curve Information
#_______________________________________________________________________________
#
#LOGNAME           .UNIT     LOG_ID                        : DESCRIPTION
#_______________________________________________________________________________
DEPTH              .M                                      :  
AZIMUTH            .DEG                                    :  
METKA              .                                       :  
ROLL               .DEG                                    :  
SPEED              .M/H                                    :  
ZENIT              .DEG                                    :  
~Ascii
# ...
380        265.91     0          145.57     684        24.16     
380.2      264.04     0          154.5      648        24        
380.4      262.39     0          169.67     648        23.44     
380.6      266.65     0          186.12     684        23.94     
380.8      266.65     0          198.46     684        23.76     
381        265.29     0          204.62     720        23.58     
381.2      266.79     0          208.78     648        23.86     
381.4      266.1      0          212.47     684        23.6      
381.6      266.19     0          215.65     648        23.66     
381.8      265.82     0          218.74     684        23.67     
382        268.34     1          221.98     720        24.05     
382.2      267.34     0          223.02     684        24.09     
382.4      266.31     0          223.16     648        23.92     
382.6      265.78     0          223.74     720        23.75     
382.8      267.01     0          224.31     684        23.95     
383        266.83     0          224.83     684        23.9      
383.2      266.22     0          224.99     648        23.81     
383.4      266.73     0          225.43     648        23.9      
383.6      266.78     0          227.01     684        23.9      
383.8      267.1      0          228.5      684        23.97     
384        266.73     0          229.48     684        23.91     
384.2      266.71     0          229.79     684        23.84     
384.4      266.99     0          229.17     648        23.96     
384.6      267        0          228.45     648        24        
384.8      266.74     0          228.53     720        23.87     
385        266.8      0          229.08     684        23.9      
385.2      267.28     0          229.04     720        23.94     
385.4      266.9      0          229.17     648        23.91     
385.6      266.71     0          229.18     648        23.94     
385.8      267.48     0          228.28     684        24.16     
386        266.51     0          227.03     684        23.9      
386.2      267.18     0          226.34     684        24.03     
386.4      266.8      0          226.48     684        23.94     
386.6      266.01     0          227.28     684        23.82     
386.8      268.21     0          228.47     648        24.09     
387        268.19     0          228.7      720        24.17     
387.2      266.59     0          228.19     648        23.96     
387.4      267.33     0          228.05     684        24.09     
387.6      266.91     0          227.85     720        24.02     
387.8      266.11     0          227.4      684        23.84     
388        267.44     0          227.08     648        24.15     
388.2      267.32     0          227.21     684        24.12     
388.4      265.25     0          228.35     684        23.79     
388.6      268.7      0          229.84     684        24.23     
388.8      267.26     0          230.9      684        24.08     
389        267.47     0          230.94     648        24.04     
389.2      268.81     0          230.44     684        24.28     
389.4      269.03     0          230        648        23.98     
389.6      273.15     0          229.83     684        24.02     
389.8      287.86     0          229.93     684        24.16     
390        332.56     0          229.97     720        23.99     
390.2      73.63      0          230.06     684        24.14     
390.4      141.7      0          230.23     648        24.15     
390.6      290.4      0          230.13     684        23.96     
390.8      297.34     0          229.88     684        24.16     
391        276.01     0          229.67     684        24.31     
391.2      268.32     0          229.43     684        23.8      
391.4      267.27     0          229.26     648        24.08     
391.6      267.08     0          229.77     684        24.03     
391.8      265.89     0          231.28     684        23.7      
392        266.99     1          231.58     720        23.65     
392.2      267.28     0          231.57     648        23.68     
392.4      267.15     0          231.33     684        23.64     
392.6      267.71     0          230.97     720        23.79     
392.8      266.88     0          230.3      684        23.64     
393        266.2      0          229.73     684        23.52     
393.2      266.7      0          229.76     684        23.66     
393.4      267.25     0          230.51     612        23.7      
393.6      266.81     0          231.54     684        23.6      
393.8      266.66     0          232.03     684        23.68     
394        268.5      0          232.36     684        24.1      
394.2      267.1      0          232.24     684        23.86     
394.4      267.68     0          232.02     648        24.04     
394.6      266.71     0          231.7      648        23.83     
394.8      267.47     0          231.76     720        23.97     
395        267.43     0          231.76     684        24.16     
395.2      265.57     0          231.32     684        23.77     
395.4      266.03     0          231.31     684        23.7      
395.6      266.37     0          233.93     648        23.85     
395.8      264.71     0          242.87     684        23.57     
396        267.12     0          248.81     720        23.83     
396.2      267.23     0          251.2      612        23.89     
396.4      265.04     0          252.47     684        23.41     
396.6      267.53     0          253.04     684        23.95     
396.8      265.78     0          254.13     684        23.69     
397        265.1      0          256.6      684        23.57     
397.2      268.05     0          260.16     684        24.14     
397.4      265.96     0          263.38     684        23.64     
397.6      265.94     0          265.47     684        23.66     
397.8      268.29     0          266.19     720        24.23     
398        265.14     0          266.76     648        23.51     
398.2      267.37     0          268.05     684        23.96     
398.4      266.95     0          270.88     684        24.05     
398.6      264.69     0          275.38     684        23.66     
398.8      266.48     0          281.11     684        23.97     
399        266.95     0          286.29     648        23.98     
399.2      266.43     0          289        684        23.77     
399.4      266.68     0          290.24     648        23.83     
399.6      267.43     0          290.65     684        23.88     
399.8      267.36     0          290.55     720        23.79     
400        266.78     0          290.72     684        23.75     
400.2      266.7      0          291.36     648        23.8      
400.4      267.3      0          292.04     684        23.86     
400.6      265.49     0          294.69     648        23.85     
400.8      266.95     0          297.52     720        23.96     
401        267.37     0          298.89     684        23.92     
401.2      266.57     0          300.39     684        23.89     
401.4      269.49     0          302.62     684        24.3      
401.6      268.38     0          304.75     684        23.72     
401.8      271.91     0          306.2      684        23.89     
402        284.9      1          308.39     720        24.29     
402.2      312.04     0          311.72     648        24.25     
402.4      269.25     0          316.4      684        24.3      
402.6      198.07     0          322.19     684        24.39     
402.8      294.87     0          328.04     720        24.35     
403        291.82     0          332.98     684        24.2      
403.2      276.04     0          338.51     684        24.32     
403.4      270.64     0          346.79     612        24.11     
403.6      267.96     0          356.1      684        23.69     
403.8      269.6      0          5          684        24.05     
404        268.07     0          13.54      684        23.84     
404.2      267.59     0          21.34      648        23.71     
