~Version
 VERS              .         2.0                           : CWLS LOG ASCII STANDARD - VERSION 2.0
 WRAP              .         NO                            : ONE LINE PER DEPTH STEP
 DLM               .         SPACE                         : DELIMITING CHARACTER(SPACE TAB OR COMMA)
~Well Information
#_______________________________________________________________________________
#
#PARAMETER_NAME    .UNIT     VALUE                         : DESCRIPTION
#_______________________________________________________________________________
STRT               .M        11                            : First reference value
STOP               .M        2775.8                        : Last reference value
STEP               .M        0.2                           : Step increment
NULL               .         -9999                         : Missing value
COMP               .                                       : Company
WELL               .         616                           : Well name
FLD                .                                       : Field
LOC                .                                       : Location
CNTY               .                                       : County
STAT               .                                       : State
CTRY               .                                       : Country
SRVC               .                                       : Service Company
DATE               .                                       : Date
API                .                                       : API number
PROJECT_UPGRADE_TIME .         2021-03-18T21_24_50           : 
group              .         Good                          : 
~Parameter Information Block
#_______________________________________________________________________________
#
#PARAMETER_NAME    .UNIT     VALUE                         : DESCRIPTION
#_______________________________________________________________________________
SET                .         D1813_D                       : 
OTHER              .         Программное обеспечение станции MONITOR-386EX 25/12/99 15_08_10   BGF V52 22/08/01 16_56_30   3.1_SNGF___BGF_N_092049: 
OTHER_10           .         Тарировки_                    : 
OTHER_11           .         TM.GRD = 0.00403*TM$.UE + -1.07: 
OTHER_12           .         MN.ATM = (9.34907e-006*TM.GRD + 0.02171)*(MN$.UE + -7.93*TM.GRD + -1787): 
OTHER_13           .         GK.MKR/H = LM. / 42.4676      : 
OTHER_14           .         GK.FLT = 0.1*GK.MKR/H[-1] + (1-0.1)*GK.MKR/H[0]: 
OTHER_2            .         Kedr.exe версия 3.4.2.51      : 
OTHER_3            .         KedrData.dll версия 3.4.2.24  : 
OTHER_4            .         Драйвер версия 2.1.1.3        : 
OTHER_5            .         Мнемоники версия 3.3 S        : 
OTHER_6            .         Прибор_ КСА-Т4                : 
OTHER_7            .         Номер прибора_ 03             : 
OTHER_8            .         Режим_ КСА-Т4                 : 
OTHER_9            .         Форма_ КВА.                   : 
PROJECT_UPGRADE_TIME .         2021-03-18T21_24_49           : 
TLFamily_DEPT      .         Measured Depth                : 
TLFamily_GK        .         Gamma Ray                     : 
TLFamily_GK$       .                                       : 
TLFamily_GK_2      .         Gamma Ray                     : 
TLFamily_LM        .         Casing Collar locator         : 
TLFamily_METKA     .                                       : 
TLFamily_MN        .                                       : 
TLFamily_MN$       .                                       : 
TLFamily_RCOR      .                                       : 
TLFamily_SPID      .         Spontaneous Potential         : 
TLFamily_TENS      .         Cable Tension                 : 
TLFamily_TIME      .         Time                          : 
TLFamily_TM        .         Temperature                   : 
TLFamily_TM$       .         Temperature                   : 
group              .         prim                          : 
~Curve Information
#_______________________________________________________________________________
#
#LOGNAME           .UNIT     LOG_ID                        : DESCRIPTION
#_______________________________________________________________________________
DEPT               .M                                      : 1 Глубина, м -    0.0 см 
GK                 .MKR/H                                  : 13 Гамма-активность, мкр./ч -  110.0 см 
GK$                .UE                                     : 10 Гамма-активность, усл.ед. -  110.0 см 
GK_2               .FLT                                    : 14 Гамма-активность фильтрованная, мкр./ч -  110.0 см 
LM                 .                                       : 9 Локатор муфт,  -   20.0 см 
METKA              .                                       : 3 Метки,  -    0.0 см 
MN                 .ATM                                    : 12 Давление, атм. -  160.0 см 
MN$                .UE                                     : 8 Давление, усл.ед. -  160.0 см 
RCOR               .CM/KM                                  : 5 Коррекция по ролику, см/км -    0.0 см 
SPID               .M/H                                    : 2 Скорость, м/час -    0.0 см 
TENS               .T                                      : 6 Натяжение кабеля, т -    0.0 см 
TIME               .S                                      : 4 Время, сек -    0.0 см 
TM                 .GRD                                    : 11 Температура, °C -  170.0 см 
TM$                .UE                                     : 7 Температура, усл.ед. -  170.0 см 
~Ascii
11.0       -9999      -9999      -9999      -9999      -9999      -9999      -9999      -9999      -9999      -9999      -9999      -9999      -9999     
11.2       -9999      -9999      -9999      -9999      0          -9999      -9999      -1255      -600       -0.09      12454.99   -9999      -9999     
11.4       -9999      -9999      -9999      96         0          -9999      -9999      -1255      -665       -0.09      12453.51   -9999      -9999     
11.6       -9999      -9999      -9999      125        0          -9999      -9999      -1255      -703       -0.09      12452.17   -9999      -9999     
11.8       -9999      -9999      -9999      150        0          -9999      -9999      -1255      -712       -0.09      12451.1    -9999      -9999     
12         -9999      -9999      -9999      139        0          -9999      -9999      -1255      -723       -0.09      12449.99   -9999      -9999     
12.2       1.18       50         1.18       156        0          -9999      -9999      -1255      -723       -0.09      12449.02   -9999      -9999     
12.4       1.13       48         1.13       161        0          -9999      -9999      -1255      -716       -0.09      12448.04   -9999      -9999     
12.6       1.13       48         1.13       143        0          -9999      -9999      -1255      -710       -0.09      12447.07   -9999      -9999     
12.8       1.08       46         1.08       92         0          1.446      1984       -1255      -721       -0.09      12446.02   16.533     4368      
13         1.08       46         1.09       90         1          1.462      1985       -1255      -719       -0.09      12445.03   16.535     4368      
13.2       1.11       47         1.12       90         0          1.483      1986       -1255      -719       -0.09      12444.07   16.541     4370      
13.4       1.13       48         1.14       111        1          1.493      1986       -1255      -714       -0.09      12443.07   16.544     4371      
13.6       1.13       48         1.23       101        0          1.525      1988       -1255      -719       -0.09      12442.05   16.548     4372      
13.8       1.74       74         1.74       87         1          1.547      1989       -1255      -717       -0.09      12441.07   16.553     4373      
14         1.74       74         1.74       92         0          1.568      1990       -1255      -715       -0.09      12440.08   16.557     4374      
14.2       1.72       73         1.71       90         0          1.589      1991       -1255      -716       -0.09      12439.11   16.558     4374      
14.4       1.7        72         1.69       97         0          1.61       1992       -1255      -718       -0.09      12438.04   16.561     4375      
14.6       1.7        72         1.63       97         1          1.632      1993       -1255      -721       -0.09      12437.08   16.565     4376      
14.8       1.2        51         1.2        94         0          1.653      1994       -1255      -719       -0.09      12436.05   16.568     4377      
15         1.2        51         1.21       93         0          1.675      1995       -1255      -726       -0.09      12435.09   16.569     4377      
15.2       1.27       54         1.31       108        1          1.697      1996       -1255      -719       -0.09      12434.07   16.569     4377      
15.4       1.37       58         1.37       111        0          1.718      1997       -1255      -725       -0.09      12433.09   16.569     4377      
15.6       1.37       58         1.4        136        0          1.74       1998       -1255      -724       -0.09      12432.08   16.573     4378      
15.8       1.58       67         1.58       129        1          1.756      1999       -1255      -732       -0.09      12431.1    16.573     4378      
16         1.58       67         1.58       113        0          1.777      2000       -1255      -743       -0.09      12430.09   16.577     4379      
16.2       1.59       67         1.59       110        0          1.804      2001       -1255      -743       -0.09      12429.08   16.578     4379      
16.4       1.6        68         1.6        120        0          1.81       2001       -1255      -747       -0.09      12428.1    16.581     4380      
16.6       1.6        68         1.57       174        1          1.848      2003       -1255      -763       -0.09      12427.13   16.581     4380      
16.8       1.39       59         1.39       151        0          1.848      2003       -1255      -776       -0.09      12426.16   16.581     4380      
17         1.39       59         1.38       151        0          1.881      2005       -1255      -793       -0.09      12425.14   16.582     4380      
17.2       1.3        55         1.25       289        0          1.891      2005       -1255      -791       -0.09      12424.2    16.585     4381      
17.4       1.15       49         1.15       545        1          1.915      2006       -1255      -794       -0.09      12423.31   16.585     4381      
17.6       1.15       49         1.16       1808       0          1.934      2007       -1255      -800       -0.09      12422.36   16.589     4382      
17.8       1.22       52         1.22       4246       1          1.956      2008       -1255      -798       -0.09      12421.5    16.589     4382      
18         1.22       52         1.23       712        1          1.977      2009       -1255      -797       -0.09      12420.66   16.59      4382      
18.2       1.23       52         1.24       106        0          1.999      2010       -1255      -801       -0.09      12419.72   16.593     4383      
18.4       1.25       53         1.25       120        1          2.019      2011       -1255      -792       -0.09      12418.83   16.598     4384      
18.6       1.25       53         1.25       105        0          2.041      2012       -1255      -795       -0.09      12417.94   16.602     4385      
18.8       1.27       54         1.27       99         0          2.062      2013       -1255      -799       -0.09      12417.04   16.603     4385      
19         1.27       54         1.27       103        0          2.084      2014       -1255      -805       -0.09      12416.1    16.606     4386      
19.2       1.27       54         1.27       113        0          2.105      2015       -1255      -804       -0.09      12415.21   16.61      4387      
19.4       1.3        55         1.3        117        2          2.127      2016       -1255      -803       -0.09      12414.32   16.61      4387      
19.6       1.3        55         1.3        132        0          2.148      2017       -1255      -802       -0.09      12413.46   16.611     4387      
19.8       1.3        55         1.31       147        0          2.148      2017       -1255      -801       -0.09      12412.53   16.614     4388      
20         1.39       59         1.39       114        2          2.18       2019       -1232      -805       -0.09      12410.64   16.615     4388      
20.2       1.39       59         1.39       100        0          2.191      2019       -1232      -804       -0.09      12409.76   16.618     4389      
20.4       1.39       59         1.4        117        0          2.224      2021       -1232      -811       -0.09      12408.86   16.619     4389      
20.6       1.41       60         1.41       100        0          2.238      2021       -1232      -806       -0.09      12407.94   16.622     4390      
20.8       1.41       60         1.42       116        1          2.256      2022       -1232      -801       -0.09      12407.09   16.622     4390      
21         1.48       63         1.5        120        0          2.281      2023       -1232      -797       -0.09      12406.2    16.622     4390      
21.2       1.55       66         1.6        116        0          2.309      2024       -1232      -805       -0.09      12405.28   16.626     4391      
