~Version
 VERS              .         2.0                           : CWLS LOG ASCII STANDARD - VERSION 2.0
 WRAP              .         NO                            : ONE LINE PER DEPTH STEP
 DLM               .         SPACE                         : DELIMITING CHARACTER(SPACE TAB OR COMMA)
~Well Information
#_______________________________________________________________________________
#
#PARAMETER_NAME    .UNIT     VALUE                         : DESCRIPTION
#_______________________________________________________________________________
STRT               .M        12                            : First reference value
STOP               .M        2758.6                        : Last reference value
STEP               .M        0.2                           : Step increment
NULL               .         -9999                         : Missing value
COMP               .                                       : Company
WELL               .         616                           : Well name
FLD                .                                       : Field
LOC                .                                       : Location
CNTY               .                                       : County
STAT               .                                       : State
CTRY               .                                       : Country
SRVC               .                                       : Service Company
DATE               .                                       : Date
API                .                                       : API number
PROJECT_UPGRADE_TIME .         2021-03-18T21_24_50           : 
group              .         Good                          : 
~Parameter Information Block
#_______________________________________________________________________________
#
#PARAMETER_NAME    .UNIT     VALUE                         : DESCRIPTION
#_______________________________________________________________________________
SET                .         616ULN                        : 
PROJECT_UPGRADE_TIME .         2021-03-18T21_24_49           : 
TLFamily_AK4       .                                       : 
TLFamily_ALFAK     .                                       : 
TLFamily_AMPL      .                                       : 
TLFamily_DEPTH     .         Measured Depth                : 
TLFamily_DK1       .                                       : 
TLFamily_DK2       .                                       : 
TLFamily_DTK       .         Compressional Slowness        : 
TLFamily_QCBL      .                                       : 
TLFamily_T1        .         Travel Time 1                 : 
TLFamily_T2        .         Travel Time 2                 : 
group              .         prim                          : 
~Curve Information
#_______________________________________________________________________________
#
#LOGNAME           .UNIT     LOG_ID                        : DESCRIPTION
#_______________________________________________________________________________
DEPTH              .M                                      : 0 Depth curve 
AK4                .                                       : 2 Амплитуда - Волна по колонне - Канал1 
ALFAK              .дБ/м                                   : 1 Затухание - Волна по колонне 
AMPL               .                                       : 8 Коэффициент усиления ВС 
DK1                .дБ                                     : 3 Кривая ослабления - Волна по колонне - Канал1 
DK2                .дБ                                     : 4 Кривая ослабления - Волна по колонне - Канал2 
DTK                .мкс/м                                  : 5 ДельтаТ - Волна по породе 
QCBL               .                                       : 9 Контакт цемент-колонна 
T1                 .мкс                                    : 6 Время пробега - Волна по породе - Канал1 
T2                 .мкс                                    : 7 Время пробега - Волна по породе - Канал2 
~Ascii
# ...
1647.2     1398.16    18.844     1          18.983     28.134     175.325    2          303.881    391.545   
1647.4     1696.864   20.047     1          17.254     27.511     173.916    2          304.417    391.376   
1647.6     1953.285   21.214     1          15.709     26.385     173.025    2          304.811    391.325   
1647.8     2158.067   20.751     1          14.386     24.83      173.243    2          304.929    391.552   
1648       2201.87    17.897     1          14.002     23.02      175.099    2          304.784    392.335   
1648.2     2076.472   14.444     1          14.612     21.634     178.106    2          304.323    393.377   
1648.4     1820.92    11.35      1          16.017     20.929     181.441    2          303.733    394.455   
1648.6     1561.927   8.616      1          17.579     21.289     183.546    2          303.137    394.911   
1648.8     1328.011   7.84       1          19.102     22.424     184.57     2          302.57     394.857   
1649       1204.487   9.266      1          19.934     23.969     184.456    2          302.123    394.353   
1649.2     1209.024   11.339     1          19.91      25.251     183.511    2          301.835    393.592   
1649.4     1333.617   13.587     1          19.182     25.976     182.024    2          301.929    392.942   
1649.6     1549.441   15.915     1          17.977     25.935     180.983    2          302.197    392.69    
1649.8     1836.544   17.582     1          16.508     25.299     180.432    2          302.693    392.911   
1650       2153.165   18.274     1          15.05      24.187     180.357    2          303.214    393.394   
1650.2     2471.449   18.343     1          13.75      22.921     180.273    2          303.873    394.011   
1650.4     2731.044   17.331     1          12.802     21.467     180.135    2          304.477    394.546   
1650.6     2932.385   15.767     1          12.122     20.005     179.671    2          305.101    394.938   
1650.8     3072.732   13.94      1          11.68      18.65      179.014    2          305.704    395.212   
1651       3160.213   12.576     1          11.422     17.71      178.636    2          306.267    395.587   
1651.2     3185.455   11.68      1          11.3       17.14      178.594    2          306.664    395.963   
1651.4     3192.627   11.278     1          11.281     16.919     179.042    2          306.798    396.321   
1651.6     3175.868   11.085     1          11.329     16.872     179.407    2          306.89     396.594   
1651.8     3094.22    10.741     1          11.571     16.941     179.761    2          306.86     396.742   
1652       2940.967   10.108     1          12.054     17.108     179.899    2          306.716    396.667   
1652.2     2725.41    8.983      1          12.95      17.441     179.754    2          306.443    396.322   
1652.4     2461.891   7.969      1          14.013     17.997     179.112    2          306.307    395.865   
1652.6     2168.551   7.056      1          15.278     18.805     178.384    2          306.286    395.479   
1652.8     1877.039   6.908      1          16.579     20.033     178.814    2          306.5      395.215   
1653       1577.614   6.78       1          18.059     21.67      179.796    2          306.969    395.483   
1653.2     1302.524   7.244      1          19.582     23.646     180.759    2          307.587    395.889   
1653.4     1046.391   7.574      1          21.297     25.747     180.67     2          308.229    396.486   
1653.6     837.109    8.301      1          23.014     27.827     180.264    2          308.731    396.785   
1653.8     678.97     8.982      1          24.556     29.746     178.145    2          309.282    396.969   
1654       605.505    10.775     1          25.504     31.405     175.222    2          309.459    396.379   
1654.2     594.939    12.573     1          25.798     32.743     171.54     2          309.51     395.282   
1654.4     620.481    14.461     1          25.667     33.79      170.046    2          309.082    394.107   
1654.6     636.785    15.481     1          25.442     34.53      168.619    2          308.53     392.841   
1654.8     636.49     15.988     1          25.277     34.87      167.891    2          307.472    391.419   
1655       628.185    15.463     1          25.195     34.691     166.448    2          306.607    389.832   
1655.2     628.145    15.147     1          25.23      34.203     165.947    2          305.897    388.872   
1655.4     684.51     15.748     1          24.694     33.512     165.445    2          305.723    388.447   
1655.6     834.242    17.548     1          23.397     32.659     166.356    2          305.668    388.848   
1655.8     1137.416   19.758     1          21.331     31.41      168.486    2          305.732    389.977   
1656       1592.898   22.193     1          18.788     29.884     171.76     2          305.744    391.626   
1656.2     2149.723   24.188     1          15.958     28.051     174.856    2          305.725    393.154   
1656.4     2667.865   24.602     1          13.536     25.837     176.831    2          305.705    394.122   
1656.6     3084.107   23.124     1          11.776     23.338     178.138    2          305.596    394.666   
1656.8     3344.926   20.177     1          10.845     20.933     178.72     2          305.477    394.839   
1657       3342.643   16.489     1          10.811     19.055     179.291    2          305.237    394.884   
1657.2     3108.567   12.582     1          11.552     17.842     179.72     2          304.948    394.809   
1657.4     2749.8     9.382      1          12.908     17.599     180.166    2          304.511    394.596   
1657.6     2338.857   7.507      1          14.58      18.333     180.157    2          304.196    394.276   
1657.8     1886.775   6.954      1          16.542     20.019     179.18     2          303.931    393.523   
1658       1511.938   7.373      1          18.417     22.103     177.348    2          303.909    392.584   
1658.2     1237.463   8.61       1          19.954     24.259     175.446    2          303.888    391.612   
1658.4     1089.929   10.435     1          20.857     26.074     173.753    2          304.01     390.888   
1658.6     1028.133   12.325     1          21.262     27.425     172.394    2          304.024    390.222   
1658.8     1018.786   13.824     1          21.305     28.217     171.227    2          304.15     389.765   
1659       1014.448   14.752     1          21.347     28.722     170.197    2          304.148    389.248   
1659.2     985.674    15.127     1          21.642     29.205     169.678    2          304.208    389.049   
1659.4     903.14     14.882     1          22.564     30.005     169.223    2          304.259    388.872   
1659.6     785.671    14.198     1          23.926     31.025     168.383    2          304.526    388.719   
1659.8     663.192    13.932     1          25.247     32.132     167.132    2          304.752    388.32    
1660       572.204    14.14      1          26.384     33.373     166.111    2          304.895    387.952   
1660.2     522.723    15.2       1          27.024     34.542     165.087    2          304.903    387.448   
1660.4     514.118    16.898     1          27.107     35.474     164.058    2          304.777    386.808   
1660.6     536.605    18.829     1          26.734     36.067     163.164    2          304.608    386.192   
1660.8     587.979    20.409     1          26.146     36.35      162.817    2          304.561    385.97    
1661       654.42     21.666     1          25.239     36.072     162.543    2          304.729    386.002   
1661.2     729.547    21.756     1          24.325     35.203     162.55     2          304.881    386.158   
1661.4     818.794    21.178     1          23.338     33.926     163.292    2          304.828    386.476   
1661.6     914.173    20.581     1          22.348     32.638     164.489    2          304.563    386.808   
