~Version
 VERS              .         2.0                           : CWLS LOG ASCII STANDARD - VERSION 2.0
 WRAP              .         NO                            : ONE LINE PER DEPTH STEP
 DLM               .         SPACE                         : DELIMITING CHARACTER(SPACE TAB OR COMMA)
~Well Information
#_______________________________________________________________________________
#
#PARAMETER_NAME    .UNIT     VALUE                         : DESCRIPTION
#_______________________________________________________________________________
STRT               .M        2654.8                        : First reference value
STOP               .M        2754.99995                    : Last reference value
STEP               .M        0.1999999                     : Step increment
NULL               .         -9999                         : Missing value
COMP               .                                       : Company
WELL               .         616                           : Well name
FLD                .                                       : Field
LOC                .                                       : Location
CNTY               .                                       : County
STAT               .                                       : State
CTRY               .                                       : Country
SRVC               .                                       : Service Company
DATE               .                                       : Date
API                .                                       : API number
PROJECT_UPGRADE_TIME .         2021-03-18T21_24_50           : 
group              .         Good                          : 
~Parameter Information Block
#_______________________________________________________________________________
#
#PARAMETER_NAME    .UNIT     VALUE                         : DESCRIPTION
#_______________________________________________________________________________
SET                .         D4404_D_2                     : 
COMM               .                                       : 
OTHER              .         Запись производится в присутствии: 
OTHER_10           .         Максимальная температура      : 
OTHER_11           .         Тип промывочной жидкости      : 
OTHER_12           .         Сопротивление ПЖ (Ом*м) при 20°C: 
OTHER_13           .         Плотность ПЖ(г/см3)           : 
OTHER_14           .         Вязкость ПЖ(с)                : 
OTHER_15           .         Водоотдача ПЖ(см3/30мин)      : 
OTHER_16           .         Уровень ПЖ                    : 
OTHER_17           .         Нефть ПЖ (%)                  : 
OTHER_18           .         Барит ПЖ (%)                  : 
OTHER_19           .         Гематит ПЖ (%)                : 
OTHER_2            .         Заказчик ННСН  ЦДНГ-1         : 
OTHER_20           .         КМЦ ПЖ (%)                    : 
OTHER_21           .         Разгазирование ПЖ (да,нет)    : 
OTHER_22           .         Подъемник                     : 
OTHER_23           .         Лаборатория                   : 
OTHER_24           .         Тип кабеля                    : 
OTHER_25           .         Длина кабеля (м)              : 
OTHER_26           .         Цена последней метки          : 
OTHER_27           .         Цена контрольной метки        : 
OTHER_28           .         Диаметр долота (мм)           : 
OTHER_29           .         Глубина бурения (м)           : 
OTHER_3            .         Площадь                       : 
OTHER_30           .         Искусственный забой (м)       : 
OTHER_31           .         Диаметр колонны (мм)          : 
OTHER_32           .         Толщина колонны (мм)          : 
OTHER_33           .         Башмак колонны (м)            : 
OTHER_34           .         Диаметр НКТ (мм)              : 
OTHER_35           .         Толщина НКТ (мм)              : 
OTHER_36           .         Воронка НКТ (м)               : 
OTHER_37           .         Дата цементожа                : 
OTHER_38           .         Тип, количество(т) и плотность цемента: 
OTHER_39           .         Интервалы перфорации (м)      : 
OTHER_4            .         Категория                     : 
OTHER_40           .         Направление, диаметр (мм)     : 
OTHER_41           .         Направление, глубина (м)      : 
OTHER_42           .         Кондуктор, диаметр (мм)       : 
OTHER_43           .         Кондуктор, глубина (м)        : 
OTHER_44           .         Техническая колонна, диаметр (мм): 
OTHER_45           .         Техническая колонна, глубина (м): 
OTHER_46           .         Эксплуатационная колонна, диаметр (мм): 
OTHER_47           .         Эксплуатационная колонна, глубина (м): 
OTHER_48           .         Программа Кедр-02 версия 3.4  : 
OTHER_49           .         Операционная система Windows NT 5.1 build 2600 Service Pack 2: 
OTHER_5            .         Назначение исследований       : 
OTHER_50           .         Программное обеспечение станции MONITOR-386EX 25/12/99 15_08_10   BGF V54 20/09/05 15_32_17   3.3__BGF_9030071: 
OTHER_51           .         Kedr.exe версия 3.4.2.74      : 
OTHER_52           .         KedrData.dll версия 3.4.2.29  : 
OTHER_53           .         Мнемоники версия 3.18 S       : 
OTHER_54           .         Драйвер версия 2.1.1.4        : 
OTHER_55           .         LasInf.dll 4.3.0.35           : 
OTHER_56           .         Прибор_ КСА-Т4                : 
OTHER_57           .         Номер прибора_ 160            : 
OTHER_58           .         Режим_ КСА-Т4                 : 
OTHER_59           .         Форма_ С.А.Б.                 : 
OTHER_6            .         Альтитуда стола ротора        : 
OTHER_60           .         Тарировки_                    : 
OTHER_61           .         <_techsia_sc_> Дата тарировки температуры 25.05.2010: 
OTHER_62           .         Ручной ввод коэффициентов     : 
OTHER_63           .         TM.DEGC = 0.00402*RTM.E.ACP + -0.994: 
OTHER_64           .         <_techsia_sc_> Дата тарировки давления 25.05.2010: 
OTHER_65           .         Ручной ввод коэффициентов     : 
OTHER_66           .         MN.ATM = (2.27521e-006*TM.DEGC + 0.02078)*(RMN.E.ACP + 6.2*TM.DEGC + -1688): 
OTHER_67           .         <_techsia_sc_> Дата тарировки ГК 25.05.2010: 
OTHER_68           .         Ручной ввод коэффициентов     : 
OTHER_69           .         GR.UR/H = RGR.IMP/MIN / 45.5144: 
OTHER_7            .         Вид исследований 3  6         : 
OTHER_70           .         GK.FLT = 0.1*GR.UR/H[-1] + (1-0.1)*GR.UR/H[0]: 
OTHER_8            .         Начало бурения интервала каротажа: 
OTHER_9            .         Окончание бурения интервала каротажа: 
PROJECT_UPGRADE_TIME .         2021-03-18T21_24_50           : 
PRTY               .         ПП-601-1                      : N партии
SRVC               .         Барковский                    : Начальник партии
TLFamily_DEPT      .         Measured Depth                : 
TLFamily_LM        .         Casing Collar locator         : 
TLFamily_MN        .                                       : 
TLFamily_TM        .         Temperature                   : 
group              .         second                        : 
~Curve Information
#_______________________________________________________________________________
#
#LOGNAME           .UNIT     LOG_ID                        : DESCRIPTION
#_______________________________________________________________________________
DEPT               .M                                      : Depth curve 
LM                 .е.ацп                                  : Локатор муфт,е.ацп 
MN                 .атм                                    : 12 Давление, атм. -  160.0 см 
TM                 .град.C                                 : Термограмма по стволу скважины,град.C 
~Ascii
# ...
2690.599982 105.012    241.427    57.931    
2690.799982 152.991    241.442    57.886    
2690.999982 115.267    241.456    57.815    
2691.199982 1195.874   241.476    57.73     
2691.399982 685.877    241.482    57.638    
2691.599982 187.966    241.494    57.538    
2691.799982 49.995     241.508    57.433    
2691.999981 30         241.527    57.376    
2692.199981 28.003     241.539    57.311    
2692.399981 41         241.568    57.248    
2692.599981 39.001     241.575    57.175    
2692.799981 42.002     241.578    57.053    
2692.999981 48.994     241.591    56.944    
2693.199981 26.009     241.606    56.866    
2693.399981 60.994     241.624    56.79     
2693.599981 37.001     241.644    56.718    
2693.799981 41.004     241.671    56.689    
2693.99998 58.996     241.675    56.613    
2694.19998 43.997     241.682    56.497    
2694.39998 31         241.703    56.377    
2694.59998 30.001     241.713    56.286    
2694.79998 33.002     241.73     56.223    
2694.99998 43.001     241.753    56.146    
2695.19998 47.995     241.761    56.078    
2695.39998 29         241.777    55.989    
2695.59998 31.002     241.795    55.917    
2695.79998 38.002     241.813    55.87     
2695.999979 45.006     241.826    55.776    
2696.199979 68.009     241.84     55.676    
2696.399979 104.988    241.849    55.563    
2696.599979 57.011     241.854    55.464    
2696.799979 101.008    241.863    55.382    
2696.999979 131.989    241.892    55.303    
2697.199979 87.996     241.906    55.215    
2697.399979 71.998     241.918    55.121    
2697.599979 65.005     241.935    55.038    
2697.799979 83.998     241.961    54.95     
2697.999978 74.997     241.964    54.844    
2698.199978 64.005     241.994    54.733    
2698.399978 85.996     242.002    54.661    
2698.599978 67.999     242.008    54.582    
2698.799978 63.99      242.013    54.477    
2698.999978 25.005     242.039    54.368    
2699.199978 44.008     242.047    54.285    
2699.399978 75.996     242.082    54.217    
2699.599978 59.003     242.098    54.186    
2699.799978 69.995     242.117    54.105    
2699.999977 51.007     242.101    53.976    
2700.199977 79.004     242.136    53.867    
2700.399977 95.011     242.15     53.762    
2700.599977 137.986    242.15     53.624    
2700.799977 80.995     242.153    53.507    
2700.999977 61.005     242.184    53.413    
2701.199977 83.006     242.202    53.357    
2701.399977 108.993    242.226    53.293    
2701.599977 79.01      242.242    53.219    
2701.799977 120.03     242.279    53.212    
2701.999976 4278.418   242.28     53.147    
2702.199976 1926.663   242.295    53.07     
2702.399976 567.908    242.317    52.952    
2702.599976 196.984    242.335    52.838    
2702.799976 133.989    242.349    52.734    
2702.999976 91.001     242.36     52.661    
2703.199976 94.999     242.385    52.597    
2703.399976 88.998     242.406    52.547    
2703.599976 81.005     242.414    52.496    
2703.799976 101.999    242.444    52.396    
2703.999975 99.002     242.454    52.327    
2704.199975 108.01     242.485    52.26     
2704.399975 150.017    242.494    52.202    
2704.599975 219.976    242.503    52.094    
2704.799975 124.992    242.541    52.018    
2704.999975 91.012     242.562    51.961    
2705.199975 138.995    242.582    51.908    
2705.399975 117.99     242.6      51.859    
2705.599975 77.004     242.621    51.793    
2705.799975 91.997     242.636    51.722    
2705.999974 77.995     242.663    51.656    
2706.199974 58.001     242.696    51.597    
2706.399974 64.002     242.705    51.547    
2706.599974 73.01      242.722    51.513    
2706.799974 112.998    242.758    51.469    
2706.999974 105.991    242.765    51.399    
2707.199974 69.003     242.77     51.289    
2707.399974 82.001     242.8      51.199    
2707.599974 87         242.81     51.129    
2707.799974 84.999     242.844    51.067    
2707.999973 80.01      242.86     51.025    
2708.199973 118.989    242.896    50.993    
2708.399973 76.003     242.922    50.958    
2708.599973 89.996     242.928    50.918    
2708.799973 72.997     242.961    50.877    
2708.999973 60.009     242.974    50.826    
2709.199973 97.001     243.012    50.797    
2709.399973 102.002    243.041    50.772    
2709.599973 108.995    243.064    50.753    
2709.799972 87.002     243.09     50.722    
2709.999972 94.995     243.119    50.687    
2710.199972 74.993     243.132    50.639    
2710.399972 48.006     243.161    50.593    
2710.599972 73.011     243.187    50.572    
2710.799972 118.986    243.228    50.549    
2710.999972 60.997     243.241    50.525    
2711.199972 47.006     243.27     50.486    
2711.399972 70.006     243.293    50.453    
2711.599972 93.996     243.323    50.422    
2711.799972 78.994     243.347    50.396    
2711.999971 54.013     243.374    50.367    
2712.199971 106.015    243.401    50.346    
2712.399971 165.987    243.431    50.325    
2712.599971 112.996    243.461    50.316    
2712.799971 97.997     243.483    50.293    
2712.999971 84.716     243.511    50.269    
2713.199971 2965.77    243.541    50.253    
2713.399971 2038.59    243.564    50.229    
2713.599971 390.94     243.588    50.199    
2713.799971 150.988    243.616    50.178    
2713.99997 102.993    243.644    50.155    
2714.19997 74.997     243.675    50.144    
2714.39997 63.996     243.7      50.136    
2714.59997 47.999     243.729    50.116    
2714.79997 45.003     243.757    50.104    
2714.99997 58.005     243.779    50.082    
2715.19997 77.01      243.818    50.063    
2715.39997 116.012    243.824    50.049    
2715.59997 165.991    243.851    50.028    
2715.79997 129.991    243.895    50.018    
2715.999969 92.004     243.902    50.001    
2716.199969 106.994    243.927    49.984    
2716.399969 82.005     243.951    49.972    
2716.599969 103.997    243.988    49.968    
2716.799969 90.997     244.01     49.955    
2716.999969 78.006     244.037    49.94     
2717.199969 104.001    244.062    49.927    
2717.399969 108.997    244.089    49.918    
2717.599969 96.996     244.117    49.911    
2717.799968 81.011     244.149    49.903    
2717.999968 126.984    244.168    49.898    
2718.199968 61.001     244.208    49.88     
2718.399968 67.003     244.226    49.867    
2718.599968 79.998     244.246    49.854    
2718.799968 70.001     244.287    49.847    
2718.999968 75.002     244.306    49.839    
2719.199968 85.01      244.325    49.83     
2719.399968 125.984    244.366    49.823    
2719.599968 63.005     244.385    49.811    
2719.799968 85.005     244.405    49.803    
2719.999967 107.003    244.428    49.795    
2720.199967 118.992    244.465    49.787    
2720.399967 84.995     244.485    49.783    
2720.599967 63.998     244.509    49.777    
2720.799967 57.014     244.536    49.771    
2720.999967 111.998    244.566    49.766    
2721.199967 104.988    244.589    49.758    
2721.399967 58         244.616    49.75     
2721.599967 59.003     244.646    49.742    
2721.799967 71.995     244.666    49.737    
2721.999966 52.012     244.687    49.73     
2722.199966 101.998    244.723    49.726    
2722.399966 92.004     244.748    49.726    
2722.599966 106.993    244.776    49.726    
2722.799966 79.998     244.797    49.706    
2722.999966 73.015     244.801    49.671    
2723.199966 132.027    244.84     49.651    
2723.399966 241.047    244.859    49.638    
2723.599966 430.992    244.88     49.63     
2723.799966 400.619    244.922    49.63     
2723.999965 2883.657   244.942    49.626    
2724.199965 1507.744   244.963    49.626    
2724.399965 481.01     244.984    49.626    
2724.599965 520.942    245.005    49.63     
2724.799965 289.051    245.047    49.629    
2724.999965 492.913    245.067    49.626    
2725.199965 143.002    245.088    49.626    
2725.399965 151.989    245.109    49.626    
2725.599965 106.994    245.134    49.626    
2725.799964 82.998     245.16     49.63     
2725.999964 75.02      245.194    49.63     
2726.199964 157.027    245.215    49.635    
