~Version
 VERS              .         2.0                           : CWLS LOG ASCII STANDARD - VERSION 2.0
 WRAP              .         NO                            : ONE LINE PER DEPTH STEP
 DLM               .         SPACE                         : DELIMITING CHARACTER(SPACE TAB OR COMMA)
~Well Information
#_______________________________________________________________________________
#
#PARAMETER_NAME    .UNIT     VALUE                         : DESCRIPTION
#_______________________________________________________________________________
STRT               .M        2667.8                        : First reference value
STOP               .M        2773.4                        : Last reference value
STEP               .M        0.1999997                     : Step increment
NULL               .         -9999                         : Missing value
COMP               .                                       : Company
WELL               .         616                           : Well name
FLD                .                                       : Field
LOC                .                                       : Location
CNTY               .                                       : County
STAT               .                                       : State
CTRY               .                                       : Country
SRVC               .                                       : Service Company
DATE               .                                       : Date
API                .                                       : API number
PROJECT_UPGRADE_TIME .         2021-03-18T21_24_50           : 
group              .         Good                          : 
~Parameter Information Block
#_______________________________________________________________________________
#
#PARAMETER_NAME    .UNIT     VALUE                         : DESCRIPTION
#_______________________________________________________________________________
SET                .         D0401_D                       : 
OTHER              .         Kedr.exe версия 2.1.2.32      : 
OTHER_10           .         TM.GRD = 0.00379*TM$.UE + 7.11: 
OTHER_11           .         MN.ATM = (8e-006*TM.GRD + 0.02)*(MN$.UE + -8*TM.GRD + -1800): 
OTHER_12           .         GK.MKR/H = GK$.UE / 57.17 + 0 : 
OTHER_2            .         KedrData.dll версия 3.2.2.14  : 
OTHER_3            .         LasInf.dll версия 3.2.0.13    : 
OTHER_4            .         Драйвер версия 1.2.0.4        : 
OTHER_5            .         Прибор_ АКП4_90               : 
OTHER_6            .         Номер прибора_ 56             : 
OTHER_7            .         Режим_ АКП4_90 - все каналы   : 
OTHER_8            .         Форма_ Г-1                    : 
OTHER_9            .         Тарировки_                    : 
PROJECT_UPGRADE_TIME .         2021-03-18T21_24_49           : 
TLFamily_DEPT      .         Measured Depth                : 
TLFamily_GK        .         Gamma Ray                     : 
TLFamily_GK$       .                                       : 
TLFamily_LM        .         Casing Collar locator         : 
TLFamily_METKA     .                                       : 
TLFamily_METKA_1   .                                       : 
TLFamily_MN        .                                       : 
TLFamily_MN$       .                                       : 
TLFamily_RCOR      .                                       : 
TLFamily_SPID      .         Spontaneous Potential         : 
TLFamily_TIME      .         Time                          : 
TLFamily_TM        .         Temperature                   : 
TLFamily_TM$       .         Temperature                   : 
group              .         second                        : 
~Curve Information
#_______________________________________________________________________________
#
#LOGNAME           .UNIT     LOG_ID                        : DESCRIPTION
#_______________________________________________________________________________
DEPT               .M                                      : 1 Глубина, м -    0.0 см 
GK                 .MKR/H                                  : 12 Гамма-активность, мкр./ч -   65.0 см 
GK$                .UE                                     : 9 Гамма-активность, усл.ед. -   65.0 см 
LM                 .                                       : 8 Локатор муфт,  -   30.0 см 
METKA              .                                       : 3 Метки,  -    0.0 см 
METKA_1            .                                       : 13 Маркеры - 65 см 
MN                 .ATM                                    : 11 Давление, атм. -  140.0 см 
MN$                .UE                                     : 7 Давление, усл.ед. -  140.0 см 
RCOR               .CM/KM                                  : 5 Коррекция по ролику, см/км -    0.0 см 
SPID               .M/H                                    : 2 Скорость, м/час -    0.0 см 
TIME               .S                                      : 4 Время, сек -    0.0 см 
TM                 .GRD                                    : 10 Температура, °C -  145.0 см 
TM$                .UE                                     : 6 Температура, усл.ед. -  145.0 см 
~Ascii
# ...
2690.2     9.72       535        504        0          0          260.835    15088      0          -260       6307.11    83.425     20136     
2690.4     9.97       564        469        0          0          260.844    15089      0          -260       6304.28    83.439     20140     
2690.6     9.9        593        490        0          0          260.867    15090      0          -260       6301.57    83.452     20143     
2690.8     8.96       609        433        0          0          260.873    15090      0          -260       6298.62    83.467     20147     
2691       7.71       550        438        0          0          260.907    15092      0          -260       6295.85    83.485     20152     
2691.2     6.93       457        400        0          0          260.934    15093      0          -260       6293.08    83.492     20154     
2691.4     6.34       384        511        0          0          260.954    15094      0          -260       6290.25    83.497     20155     
2691.6     5.95       350        410        0          0          260.974    15095      0          -260       6287.41    83.511     20159     
2691.8     5.88       317        585        0          0          261.015    15097      0          -260       6284.59    83.516     20160     
2692       6.22       325        378        0          0          261.008    15097      0          -260       6281.76    83.524     20162     
2692.2     6.55       366        394        0          0          261.056    15099      0          -260       6278.92    83.528     20163     
2692.4     6.56       385        393        0          0          261.045    15098      0          -260       6276.22    83.532     20164     
2692.6     6.35       385        386        0          0          261.075    15100      0          -260       6273.4     83.539     20166     
2692.8     5.88       372        366        0          0          261.096    15101      0          -320       6270.56    83.547     20168     
2693       5.65       313        412        0          0          261.13     15103      0          -260       6267.73    83.552     20169     
2693.2     6.03       332        554        0          0          261.157    15104      0          -260       6264.91    83.554     20170     
2693.4     6.24       351        438        0          0          261.156    15104      0          -260       6262.19    83.566     20173     
2693.6     6.37       348        415        0          0          261.177    15105      0          -260       6259.37    83.569     20174     
2693.8     6.61       363        381        0          0          261.204    15106      0          -320       6256.54    83.577     20176     
2694       6.82       373        354        0          0          261.224    15107      0          -260       6253.72    83.581     20177     
2694.2     7.1        379        389        0          0          261.238    15108      0          -260       6250.88    83.588     20179     
2694.4     7.28       404        440        0          0          261.285    15110      0          -260       6248.18    83.598     20181     
2694.6     7.23       413        418        0          0          261.292    15111      0          -260       6245.34    83.604     20183     
2694.8     7.31       410        412        0          0          261.312    15112      0          -260       6242.52    83.611     20185     
2695       7.43       427        403        0          0          261.339    15113      0          -260       6239.69    83.615     20186     
2695.2     7.37       430        595        0          0          261.353    15114      0          -260       6236.87    83.623     20188     
2695.4     7.22       425        371        0          0          261.38     15115      0          -260       6234.15    83.626     20189     
2695.6     7.12       411        390        0          0          261.38     15115      0          -260       6231.33    83.626     20189     
2695.8     7.02       413        389        0          0          261.442    15118      0          -260       6228.51    83.634     20191     
2696       6.94       403        465        0          0          261.441    15118      0          -260       6225.66    83.64      20193     
2696.2     7.1        385        448        0          0          261.475    15120      0          -320       6222.71    83.649     20195     
2696.4     7.51       399        1082       0          0          261.482    15120      0          -260       6219.86    83.657     20197     
2696.6     7.96       450        6821       0          0          261.522    15122      0          -190       6217.06    83.664     20199     
2696.8     8.01       461        446        0          0          261.536    15123      0          -320       6214.18    83.665     20199     
2697       8.01       454        423        0          0          261.535    15123      0          -260       6211.48    83.679     20203     
2697.2     7.91       475        437        0          0          261.582    15125      0          -260       6208.64    83.691     20206     
2697.4     7.66       457        476        0          0          261.582    15125      0          -260       6205.81    83.691     20206     
2697.6     7.4        443        405        0          0          261.623    15127      0          -260       6202.99    83.702     20209     
2697.8     7.17       395        444        0          0          261.623    15127      0          -260       6200.15    83.71      20211     
2698       7.49       393        436        0          0          261.674    15129      0          -260       6197.45    83.713     20212     
2698.2     7.98       436        461        0          0          261.684    15130      0          -260       6194.63    83.725     20215     
2698.4     8.15       486        438        0          0          261.704    15131      0          -260       6191.8     83.729     20216     
2698.6     7.73       487        499        1          0          261.717    15132      0          -260       6189.08    83.732     20217     
2698.8     7.33       430        468        0          0          261.738    15133      0          -260       6186.14    83.74      20219     
2699       7.42       406        422        0          0          261.765    15134      0          -260       6183.31    83.744     20220     
2699.2     7.44       431        411        0          0          261.772    15134      0          -260       6180.6     83.744     20220     
2699.4     7.38       420        478        0          0          261.827    15137      0          -260       6177.77    83.748     20221     
2699.6     7.48       417        444        0          0          261.812    15136      0          -260       6174.94    83.767     20226     
2699.8     7.67       428        454        1          0          261.866    15139      0          -260       6172.11    83.778     20229     
2700       7.76       452        755        0          0          261.886    15140      0          -260       6168.5     83.785     20231     
2700.2     7.76       422        886        0          0          261.886    15140      0          -260       6165.68    83.796     20234     
2700.4     8.07       437        499        0          0          261.927    15142      0          -320       6162.85    83.801     20235     
2700.6     8.17       476        515        0          0          261.927    15142      0          -320       6160.13    83.808     20237     
2700.8     8.27       456        517        0          0          261.967    15144      0          -260       6157.25    83.814     20238     
2701       8.48       484        442        0          0          261.974    15144      0          -260       6154.36    83.82      20240     
2701.2     8.43       498        468        0          0          262.008    15146      0          -260       6151.65    83.82      20240     
