~Version
 VERS              .         2.0                           : CWLS LOG ASCII STANDARD - VERSION 2.0
 WRAP              .         NO                            : ONE LINE PER DEPTH STEP
 DLM               .         SPACE                         : DELIMITING CHARACTER(SPACE TAB OR COMMA)
~Well Information
#_______________________________________________________________________________
#
#PARAMETER_NAME    .UNIT     VALUE                         : DESCRIPTION
#_______________________________________________________________________________
STRT               .M        199                           : First reference value
STOP               .M        270.2                         : Last reference value
STEP               .M        0.2                           : Step increment
NULL               .         -9999                         : Missing value
COMP               .                                       : Company
WELL               .         616                           : Well name
FLD                .                                       : Field
LOC                .                                       : Location
CNTY               .                                       : County
STAT               .                                       : State
CTRY               .                                       : Country
SRVC               .                                       : Service Company
DATE               .                                       : Date
API                .                                       : API number
PROJECT_UPGRADE_TIME .         2021-03-18T21_24_50           : 
group              .         Good                          : 
~Parameter Information Block
#_______________________________________________________________________________
#
#PARAMETER_NAME    .UNIT     VALUE                         : DESCRIPTION
#_______________________________________________________________________________
SET                .         616_2_1                       : 
CONF               .         00                            : 
END                .         0                             : 
ERR                .         0                             : 
GS00               .M        0268.25                       : 
GS01               .M        0196.64                       : 
MM00               .M        0060.00                       : 
NOKG               .         0                             : 
NPR                .         980402                        : 
PART               .         Палагутин                     : 
PROJECT_UPGRADE_TIME .         2021-03-18T21_24_49           : 
PRZK               .         Шакиров                       : 
TLFamily_AZIMUTH   .         True Dip Azimuth              : 
TLFamily_DEPTH     .         Measured Depth                : 
TLFamily_METKA     .                                       : 
TLFamily_ROLL      .                                       : 
TLFamily_SPEED     .         Spontaneous Potential         : 
TLFamily_ZENIT     .                                       : 
VPRG               .         310                           : 
WAY                .         UP                            : 
group              .         prim                          : 
~Curve Information
#_______________________________________________________________________________
#
#LOGNAME           .UNIT     LOG_ID                        : DESCRIPTION
#_______________________________________________________________________________
DEPTH              .M                                      :  
AZIMUTH            .DEG                                    :  
METKA              .                                       :  
ROLL               .DEG                                    :  
SPEED              .M/H                                    :  
ZENIT              .DEG                                    :  
~Ascii
# ...
247.8      258.39     0          237.73     576        25.58     
248        254.83     0          235.81     504        25.61     
248.2      256.51     0          236.64     504        25.89     
248.4      255.26     0          237.37     504        25.49     
248.6      253.95     0          237.7      504        25.44     
248.8      257.16     0          238.15     504        25.61     
249        256.61     0          237.58     540        25.59     
249.2      256.16     0          237.11     504        25.61     
249.4      257.03     0          238.11     468        25.52     
249.6      255.64     0          236.65     504        25.49     
249.8      255.52     0          235.81     504        25.51     
250        256.78     2          236.54     504        25.64     
250.2      256.88     0          237.58     468        25.78     
250.4      255.91     0          237.04     504        25.57     
250.6      254.86     0          237.47     432        25.62     
250.8      257.94     0          237.13     504        26.02     
251        256.22     0          238.38     540        25.64     
251.2      257.41     0          239.42     504        25.8      
251.4      256.81     0          239.11     468        25.69     
251.6      255.27     0          236.77     504        25.62     
251.8      256.13     0          236.45     504        25.73     
252        256.39     0          236.65     504        25.93     
252.2      257.61     1          236.7      288        25.64     
252.4      256.32     0          236.45     468        25.46     
252.6      256.87     0          237.58     504        25.79     
252.8      256.49     0          236.66     504        25.92     
253        257.46     0          235.34     504        25.88     
253.2      258.59     0          235.15     504        26        
253.4      258.13     0          237.13     504        25.83     
253.6      256.49     0          237.6      504        25.6      
253.8      257.95     0          238.12     468        25.74     
254        258.09     0          238.17     504        25.8      
254.2      257.97     0          237.42     504        25.75     
254.4      258.18     0          239.38     504        25.91     
254.6      257.92     0          240.08     504        25.75     
254.8      258.43     0          240.09     504        26.05     
255        260.18     0          241.32     504        26.42     
255.2      259.7      0          243.78     504        25.93     
255.4      265.92     0          244.46     504        26.36     
255.6      278.25     0          242.15     540        26.02     
255.8      321.3      0          242.85     504        25.97     
256        191.48     0          242.56     468        26.53     
256.2      218.2      0          240.92     468        26.45     
256.4      346.45     0          240.96     504        26.2      
256.6      282.64     0          240.18     468        26.49     
256.8      263.81     0          239.96     504        26.14     
257        261.52     0          239.78     504        26.37     
257.2      260.3      0          240.33     468        26.62     
257.4      259.32     0          240.33     468        26.13     
257.6      258.35     0          241.04     504        26.16     
257.8      259.36     0          240.95     504        26.28     
258        259.21     0          241.2      504        26.01     
258.2      258.84     0          241.17     468        26.18     
258.4      259.29     0          240.69     504        26.22     
258.6      257.16     0          239.54     504        26.11     
258.8      258.41     0          238.46     504        26.13     
259        260.85     0          239.15     540        26.38     
259.2      258.95     0          239.88     504        25.95     
259.4      259.47     0          240.58     468        26.17     
259.6      260.67     0          240.68     504        26.43     
259.8      261.59     0          238.56     504        26.39     
260        260.34     0          235.84     504        26.62     
260.2      261.74     0          235.42     468        26.57     
260.4      260.82     0          235.5      468        26.45     
260.6      260.85     0          236.06     504        26.29     
260.8      261.74     0          235.18     504        26.57     
261        260.07     0          235.63     504        26.48     
261.2      260.28     0          235.58     504        26.57     
261.4      261.14     0          235.02     504        26.38     
261.6      260.33     0          236.45     432        26.46     
261.8      262.4      0          238.41     504        26.72     
262        259.97     0          238.45     504        26.47     
262.2      262.63     1          239.02     828        26.74     
262.4      259.14     0          238.74     504        26.38     
262.6      260.85     0          238.58     468        26.44     
262.8      262.48     0          239.35     504        26.91     
263        261.82     0          240.18     540        26.65     
263.2      261.01     0          241.09     468        26.55     
263.4      262.9      0          241.44     504        26.71     
263.6      263.26     0          240.4      504        26.65     
263.8      262.88     0          238.82     468        26.68     
264        262.09     0          236.95     504        26.52     
264.2      263.06     2          233.7      468        26.73     
264.4      264.22     0          235.21     144        26.74     
264.6      263.66     0          235.17     144        26.8      
264.8      264.49     0          234.15     144        26.8      
265        264.65     0          233.14     108        26.83     
265.2      265.59     0          234.15     144        26.76     
265.4      265.88     0          234.56     144        26.72     
265.6      266.72     0          234.61     144        26.75     
265.8      268.25     0          235.79     144        26.9      
266        269.22     0          235.57     144        26.88     
266.2      270.59     0          236.14     144        26.85     
266.4      272.87     0          234.94     144        26.81     
266.6      275.37     0          235.49     144        26.89     
266.8      279.09     0          236.58     180        26.96     
267        282.95     0          235.19     144        26.85     
267.2      289.7      0          235.52     144        26.89     
267.4      299.85     0          234.91     144        26.89     
267.6      314.51     0          235.14     144        27.1      
267.8      330.57     0          234.91     180        27.21     
268        346.09     0          236.45     144        27.13     
268.2      356.83     0          235.38     144        27.17     
268.4      148.92     0          238.38     144        27.39     
268.6      174.39     0          236.92     144        27.55     
268.8      193.74     0          238.93     36         27.91     
269        59.21      0          237.62     504        27.95     
269.2      169.56     0          236.16     504        27.89     
269.4      73.46      0          230.43     432        28.2      
269.6      35.39      0          218.09     504        28.45     
269.8      343.77     0          199.54     540        28.32     
270        14.1       0          178.77     504        27.62     
270.2      7.29       0          162.3      540        26.93     
