~Version
 VERS              .         2.0                           : CWLS LOG ASCII STANDARD - VERSION 2.0
 WRAP              .         NO                            : ONE LINE PER DEPTH STEP
 DLM               .         SPACE                         : DELIMITING CHARACTER(SPACE TAB OR COMMA)
~Well Information
#_______________________________________________________________________________
#
#PARAMETER_NAME    .UNIT     VALUE                         : DESCRIPTION
#_______________________________________________________________________________
STRT               .M        46                            : First reference value
STOP               .M        2756.6                        : Last reference value
STEP               .M        0.2                           : Step increment
NULL               .         -9999                         : Missing value
COMP               .                                       : Company
WELL               .         616                           : Well name
FLD                .                                       : Field
LOC                .                                       : Location
CNTY               .                                       : County
STAT               .                                       : State
CTRY               .                                       : Country
SRVC               .                                       : Service Company
DATE               .                                       : Date
API                .                                       : API number
PROJECT_UPGRADE_TIME .         2021-03-18T21_24_50           : 
group              .         Good                          : 
~Parameter Information Block
#_______________________________________________________________________________
#
#PARAMETER_NAME    .UNIT     VALUE                         : DESCRIPTION
#_______________________________________________________________________________
SET                .         D4390_D                       : 
OTHER              .         Запись производится в присутствии: 
OTHER_10           .         Максимальная температура      : 
OTHER_100          .         GK.FLT = 0.1*GR.UR/H[-1] + (1-0.1)*GR.UR/H[0]: 
OTHER_11           .         Тип промывочной жидкости      : 
OTHER_12           .         Сопротивление ПЖ (Ом*м) при 20°C: 
OTHER_13           .         Плотность ПЖ(г/см3)           : 
OTHER_14           .         Вязкость ПЖ(с)                : 
OTHER_15           .         Водоотдача ПЖ(см3/30мин)      : 
OTHER_16           .         Уровень ПЖ                    : 
OTHER_17           .         Нефть ПЖ (%)                  : 
OTHER_18           .         Барит ПЖ (%)                  : 
OTHER_19           .         Гематит ПЖ (%)                : 
OTHER_2            .         Заказчик ННСН  ЦДНГ-1         : 
OTHER_20           .         КМЦ ПЖ (%)                    : 
OTHER_21           .         Разгазирование ПЖ (да,нет)    : 
OTHER_22           .         Подъемник                     : 
OTHER_23           .         Лаборатория                   : 
OTHER_24           .         Тип кабеля                    : 
OTHER_25           .         Длина кабеля (м)              : 
OTHER_26           .         Цена последней метки          : 
OTHER_27           .         Цена контрольной метки        : 
OTHER_28           .         Диаметр долота (мм)           : 
OTHER_29           .         Глубина бурения (м)           : 
OTHER_3            .         Площадь                       : 
OTHER_30           .         Искусственный забой (м)       : 
OTHER_31           .         Диаметр колонны (мм)          : 
OTHER_32           .         Толщина колонны (мм)          : 
OTHER_33           .         Башмак колонны (м)            : 
OTHER_34           .         Диаметр НКТ (мм)              : 
OTHER_35           .         Толщина НКТ (мм)              : 
OTHER_36           .         Воронка НКТ (м)               : 
OTHER_37           .         Дата цементожа                : 
OTHER_38           .         Тип, количество(т) и плотность цемента: 
OTHER_39           .         Интервалы перфорации (м)      : 
OTHER_4            .         Категория                     : 
OTHER_40           .         Направление, диаметр (мм)     : 
OTHER_41           .         Направление, глубина (м)      : 
OTHER_42           .         Кондуктор, диаметр (мм)       : 
OTHER_43           .         Кондуктор, глубина (м)        : 
OTHER_44           .         Техническая колонна, диаметр (мм): 
OTHER_45           .         Техническая колонна, глубина (м): 
OTHER_46           .         Эксплуатационная колонна, диаметр (мм): 
OTHER_47           .         Эксплуатационная колонна, глубина (м): 
OTHER_48           .         Программа Кедр-02 версия 3.4  : 
OTHER_49           .         Операционная система Windows NT 5.1 build 2600 Service Pack 2: 
OTHER_5            .         Назначение исследований       : 
OTHER_50           .         Программное обеспечение станции MONITOR-386EX 25/12/99 15_08_10   BGF V54 20/09/05 15_32_17   3.3__BGF_9030071: 
OTHER_51           .         Kedr.exe версия 3.4.2.74      : 
OTHER_52           .         KedrData.dll версия 3.4.2.29  : 
OTHER_53           .         Мнемоники версия 3.18 S       : 
OTHER_54           .         Драйвер версия 2.1.1.4        : 
OTHER_55           .         LasInf.dll 4.3.0.35           : 
OTHER_56           .         Прибор_ КСА-Т4                : 
OTHER_57           .         Номер прибора_ 160            : 
OTHER_58           .         Режим_ КСА-Т4                 : 
OTHER_59           .         Форма_ С.А.Б.                 : 
OTHER_6            .         Альтитуда стола ротора        : 
OTHER_60           .         Тарировки_                    : 
OTHER_61           .         <_techsia_sc_> Дата тарировки температуры 25.05.2010: 
OTHER_62           .         Ручной ввод коэффициентов     : 
OTHER_63           .         TM.DEGC = 0.00402*RTM.E.ACP + -0.994: 
OTHER_64           .         <_techsia_sc_> Дата тарировки давления 25.05.2010: 
OTHER_65           .         Ручной ввод коэффициентов     : 
OTHER_66           .         MN.ATM = (2.27521e-006*TM.DEGC + 0.02078)*(RMN.E.ACP + 6.2*TM.DEGC + -1688): 
OTHER_67           .         <_techsia_sc_> Дата тарировки ГК 25.05.2010: 
OTHER_68           .         Ручной ввод коэффициентов     : 
OTHER_69           .         GR.UR/H = RGR.IMP/MIN / 45.5144: 
OTHER_7            .         Вид исследований 3  6         : 
OTHER_70           .         GK.FLT = 0.1*GR.UR/H[-1] + (1-0.1)*GR.UR/H[0]: 
OTHER_71           .         <_techsia_sc_> Дата тарировки температуры 25.05.2010: 
OTHER_72           .         Ручной ввод коэффициентов     : 
OTHER_73           .         TM.DEGC = 0.00402*RTM.E.ACP + -0.994: 
OTHER_74           .         <_techsia_sc_> Дата тарировки давления 25.05.2010: 
OTHER_75           .         Ручной ввод коэффициентов     : 
OTHER_76           .         MN.ATM = (2.27521e-006*TM.DEGC + 0.02078)*(RMN.E.ACP + 6.2*TM.DEGC + -1688): 
OTHER_77           .         <_techsia_sc_> Дата тарировки ГК 25.05.2010: 
OTHER_78           .         Ручной ввод коэффициентов     : 
OTHER_79           .         GR.UR/H = RGR.IMP/MIN / 45.5144: 
OTHER_8            .         Начало бурения интервала каротажа: 
OTHER_80           .         GK.FLT = 0.1*GR.UR/H[-1] + (1-0.1)*GR.UR/H[0]: 
OTHER_81           .         <_techsia_sc_> Дата тарировки температуры 25.05.2010: 
OTHER_82           .         Ручной ввод коэффициентов     : 
OTHER_83           .         TM.DEGC = 0.00402*RTM.E.ACP + -0.994: 
OTHER_84           .         <_techsia_sc_> Дата тарировки давления 25.05.2010: 
OTHER_85           .         Ручной ввод коэффициентов     : 
OTHER_86           .         MN.ATM = (2.27521e-006*TM.DEGC + 0.02078)*(RMN.E.ACP + 6.2*TM.DEGC + -1688): 
OTHER_87           .         <_techsia_sc_> Дата тарировки ГК 25.05.2010: 
OTHER_88           .         Ручной ввод коэффициентов     : 
OTHER_89           .         GR.UR/H = RGR.IMP/MIN / 45.5144: 
OTHER_9            .         Окончание бурения интервала каротажа: 
OTHER_90           .         GK.FLT = 0.1*GR.UR/H[-1] + (1-0.1)*GR.UR/H[0]: 
OTHER_91           .         <_techsia_sc_> Дата тарировки температуры 25.05.2010: 
OTHER_92           .         Ручной ввод коэффициентов     : 
OTHER_93           .         TM.DEGC = 0.00402*RTM.E.ACP + -0.994: 
OTHER_94           .         <_techsia_sc_> Дата тарировки давления 25.05.2010: 
OTHER_95           .         Ручной ввод коэффициентов     : 
OTHER_96           .         MN.ATM = (2.27521e-006*TM.DEGC + 0.02078)*(RMN.E.ACP + 6.2*TM.DEGC + -1688): 
OTHER_97           .         <_techsia_sc_> Дата тарировки ГК 25.05.2010: 
OTHER_98           .         Ручной ввод коэффициентов     : 
OTHER_99           .         GR.UR/H = RGR.IMP/MIN / 45.5144: 
PROJECT_UPGRADE_TIME .         2021-03-18T21_24_50           : 
TLFamily_CCLC      .                                       : 
TLFamily_DEPT      .         Measured Depth                : 
TLFamily_GK        .         Gamma Ray                     : 
TLFamily_GR        .         Gamma Ray                     : 
TLFamily_METKA     .                                       : 
TLFamily_MN        .                                       : 
TLFamily_RCOR      .                                       : 
TLFamily_RGR       .                                       : 
TLFamily_RMN       .                                       : 
TLFamily_RTEN      .                                       : 
TLFamily_RTM       .                                       : 
TLFamily_SPEE      .         Cable Speed                   : 
TLFamily_TIME      .         Time                          : 
TLFamily_TM        .         Temperature                   : 
group              .         prim                          : 
~Curve Information
#_______________________________________________________________________________
#
#LOGNAME           .UNIT     LOG_ID                        : DESCRIPTION
#_______________________________________________________________________________
DEPT               .M                                      : 1 Глубина, м -    0.0 см 
CCLC               .E.ACP                                  : 9 Локатор муфт,  -   20.0 см 
GK                 .FLT                                    : 14 Гамма-активность фильтрованная, мкр./ч -  110.0 см 
GR                 .UR/H                                   : 13 Гамма-активность, мкр./ч -  110.0 см 
METKA              .CU                                     : 3 Метки,  -    0.0 см 
MN                 .ATM                                    : 12 Давление, атм. -  160.0 см 
RCOR               .CM/KM                                  : 5 Коррекция по ролику, см/км -    0.0 см 
RGR                .IMP/MIN                                : 10 Гамма-активность, усл.ед. -  110.0 см 
RMN                .E.ACP                                  : 8 Давление, усл.ед. -  160.0 см 
RTEN               .T                                      : 6 Натяжение кабеля, т -    0.0 см 
RTM                .E.ACP                                  : 7 Температура, усл.ед. -  170.0 см 
SPEE               .M/H                                    : 2 Скорость, м/час -    0.0 см 
TIME               .S                                      : 4 Время, сек -    0.0 см 
TM                 .DEGC                                   : 11 Температура, °C -  170.0 см 
~Ascii
# ...
586.8      1573       3.87       3.87       0          56.633     -340       176        4297       0.04       4696       1679       1185.51    17.882    
587        1085       3.87       3.87       0          56.659     -340       176        4298       0.04       4698       1679       1185.93    17.89     
587.2      761        3.78       3.78       0          56.685     -340       172        4300       0.04       4700       1680       1186.35    17.9      
587.4      610        3.78       3.78       0          56.696     -340       172        4300       0.04       4701       1681       1186.78    17.905    
587.6      706        3.78       3.78       0          56.715     -340       172        4301       0.04       4703       1681       1187.19    17.913    
587.8      808        3.78       3.78       0          56.745     -340       172        4302       0.04       4706       1682       1187.65    17.926    
588        776        3.78       3.78       0          56.78      -340       172        4304       0.04       4708       1680       1188.09    17.934    
588.2      782        3.78       3.78       0          56.786     -340       172        4304       0.04       4710       1675       1188.54    17.94     
588.4      727        3.78       3.78       0          56.805     -340       172        4305       0.04       4712       1671       1188.98    17.947    
588.6      637        3.78       3.78       0          56.817     -340       172        4306       0.05       4713       1665       1189.41    17.952    
588.8      601        3.78       3.78       0          56.842     -340       172        4307       0.05       4714       1661       1189.83    17.957    
589        559        3.78       3.78       0          56.867     -340       172        4308       0.05       4715       1661       1190.26    17.961    
589.2      615        3.76       3.76       0          56.872     -340       171        4308       0.05       4716       1661       1190.7     17.966    
589.4      587        3.63       3.63       0          56.898     -340       165        4309       0.05       4718       1662       1191.12    17.971    
589.6      640        3.63       3.63       0          56.914     -340       165        4310       0.05       4719       1667       1191.54    17.976    
589.8      608        3.63       3.63       0          56.93      -340       165        4311       0.05       4721       1671       1191.96    17.985    
590        635        3.63       3.63       0          56.937     -340       165        4311       0.05       4723       1670       1192.39    17.991    
590.2      695        3.63       3.63       0          56.962     -340       165        4312       0.05       4725       1669       1192.84    17.999    
590.4      561        3.7        3.7        0          56.987     -340       169        4313       0.05       4727       1671       1193.24    18.007    
590.6      563        3.84       3.84       0          57.002     -340       175        4314       0.05       4728       1673       1193.7     18.012    
590.8      523        3.84       3.84       0          57.019     -340       175        4315       0.05       4731       1672       1194.14    18.025    
591        468        3.84       3.84       0          57.025     -340       175        4315       0.05       4733       1672       1194.57    18.031    
591.2      425        3.84       3.84       0          57.049     -340       175        4316       0.05       4735       1674       1194.99    18.039    
591.4      572        3.84       3.84       0          57.075     -340       175        4317       0.05       4736       1673       1195.43    18.046    
591.6      570        3.88       3.88       0          57.1       -340       176        4318       0.05       4738       1672       1195.85    18.052    
591.8      597        3.91       3.91       0          57.112     -340       178        4319       0.05       4739       1674       1196.28    18.057    
592        549        3.91       3.91       0          57.129     -340       178        4320       0.05       4740       1675       1196.7     18.061    
592.2      517        3.91       3.91       0          57.136     -340       178        4320       0.05       4740       1675       1197.12    18.063    
592.4      1113       3.91       3.91       0          57.161     -340       178        4321       0.05       4741       1674       1197.56    18.065    
592.6      1033       3.91       3.91       0          57.175     -340       178        4322       0.05       4741       1676       1197.99    18.065    
592.8      842        3.69       3.69       0          57.204     -340       168        4323       0.05       4741       1677       1198.42    18.064    
593        919        3.6        3.6        0          57.216     -340       164        4324       0.05       4740       1678       1198.85    18.061    
593.2      858        3.6        3.6        0          57.218     -340       164        4324       0.05       4739       1679       1199.27    18.059    
593.4      896        3.6        3.6        0          57.248     -340       164        4326       0.05       4739       1680       1199.7     18.057    
593.6      950        3.6        3.6        0          57.268     -340       164        4327       0.05       4739       1678       1200.14    18.057    
593.8      878        3.6        3.6        0          57.271     -340       164        4327       0.05       4739       1677       1200.58    18.057    
594        973        3.95       3.95       0          57.298     -340       180        4328       0.05       4741       1678       1201.01    18.063    
594.2      1169       4.02       4.02       0          57.323     -340       183        4329       0.05       4743       1679       1201.41    18.075    
594.4      1002       4.02       4.02       0          57.33      -340       183        4329       0.05       4747       1680       1201.82    18.089    
594.6      894        4.02       4.02       0          57.356     -340       183        4330       0.05       4750       1681       1202.25    18.103    
594.8      1121       4.02       4.02       0          57.369     -340       183        4331       0.05       4753       1682       1202.67    18.113    
595        1036       4.02       4.02       0          57.386     -340       183        4332       0.05       4754       1682       1203.09    18.118    
595.2      1260       4.33       4.33       0          57.411     -340       197        4333       0.05       4755       1683       1203.53    18.121    
595.4      1121       4.33       4.33       0          57.417     -340       197        4333       0.05       4756       1682       1203.97    18.124    
595.6      898        4.33       4.33       0          57.441     -340       197        4334       0.05       4756       1680       1204.4     18.125    
595.8      845        4.33       4.33       0          57.465     -340       197        4336       0.05       4756       1680       1204.82    18.125    
596        6282       4.33       4.33       2          57.476     -343       197        4336       0.05       4757       1681       1205.31    18.13     
596.2      4142       4.33       4.33       0          57.494     -350       197        4337       0.05       4759       1682       1205.89    18.139    
596.4      1923       3.84       3.84       0          57.499     -350       175        4337       0.05       4761       1683       1206.32    18.147    
596.6      1411       3.84       3.84       0          57.524     -350       175        4338       0.05       4763       1683       1206.76    18.154    
596.8      1173       3.84       3.84       0          57.543     -350       175        4339       0.05       4766       1682       1207.2     18.163    
597        1169       3.84       3.84       0          57.569     -350       175        4340       0.05       4768       1680       1207.63    18.173    
