~Version
 VERS              .         2.0                           : CWLS LOG ASCII STANDARD - VERSION 2.0
 WRAP              .         NO                            : ONE LINE PER DEPTH STEP
 DLM               .         SPACE                         : DELIMITING CHARACTER(SPACE TAB OR COMMA)
~Well Information
#_______________________________________________________________________________
#
#PARAMETER_NAME    .UNIT     VALUE                         : DESCRIPTION
#_______________________________________________________________________________
STRT               .M        44.8                          : First reference value
STOP               .M        2755.2                        : Last reference value
STEP               .M        0.2                           : Step increment
NULL               .         -9999                         : Missing value
COMP               .                                       : Company
WELL               .         616                           : Well name
FLD                .                                       : Field
LOC                .                                       : Location
CNTY               .                                       : County
STAT               .                                       : State
CTRY               .                                       : Country
SRVC               .                                       : Service Company
DATE               .                                       : Date
API                .                                       : API number
PROJECT_UPGRADE_TIME .         2021-03-18T21_24_50           : 
group              .         Good                          : 
~Parameter Information Block
#_______________________________________________________________________________
#
#PARAMETER_NAME    .UNIT     VALUE                         : DESCRIPTION
#_______________________________________________________________________________
SET                .         D4390_D_2                     : 
COMM               .                                       : 
OTHER              .         Запись производится в присутствии: 
OTHER_10           .         Максимальная температура      : 
OTHER_100          .         GK.FLT = 0.1*GR.UR/H[-1] + (1-0.1)*GR.UR/H[0]: 
OTHER_11           .         Тип промывочной жидкости      : 
OTHER_12           .         Сопротивление ПЖ (Ом*м) при 20°C: 
OTHER_13           .         Плотность ПЖ(г/см3)           : 
OTHER_14           .         Вязкость ПЖ(с)                : 
OTHER_15           .         Водоотдача ПЖ(см3/30мин)      : 
OTHER_16           .         Уровень ПЖ                    : 
OTHER_17           .         Нефть ПЖ (%)                  : 
OTHER_18           .         Барит ПЖ (%)                  : 
OTHER_19           .         Гематит ПЖ (%)                : 
OTHER_2            .         Заказчик ННСН  ЦДНГ-1         : 
OTHER_20           .         КМЦ ПЖ (%)                    : 
OTHER_21           .         Разгазирование ПЖ (да,нет)    : 
OTHER_22           .         Подъемник                     : 
OTHER_23           .         Лаборатория                   : 
OTHER_24           .         Тип кабеля                    : 
OTHER_25           .         Длина кабеля (м)              : 
OTHER_26           .         Цена последней метки          : 
OTHER_27           .         Цена контрольной метки        : 
OTHER_28           .         Диаметр долота (мм)           : 
OTHER_29           .         Глубина бурения (м)           : 
OTHER_3            .         Площадь                       : 
OTHER_30           .         Искусственный забой (м)       : 
OTHER_31           .         Диаметр колонны (мм)          : 
OTHER_32           .         Толщина колонны (мм)          : 
OTHER_33           .         Башмак колонны (м)            : 
OTHER_34           .         Диаметр НКТ (мм)              : 
OTHER_35           .         Толщина НКТ (мм)              : 
OTHER_36           .         Воронка НКТ (м)               : 
OTHER_37           .         Дата цементожа                : 
OTHER_38           .         Тип, количество(т) и плотность цемента: 
OTHER_39           .         Интервалы перфорации (м)      : 
OTHER_4            .         Категория                     : 
OTHER_40           .         Направление, диаметр (мм)     : 
OTHER_41           .         Направление, глубина (м)      : 
OTHER_42           .         Кондуктор, диаметр (мм)       : 
OTHER_43           .         Кондуктор, глубина (м)        : 
OTHER_44           .         Техническая колонна, диаметр (мм): 
OTHER_45           .         Техническая колонна, глубина (м): 
OTHER_46           .         Эксплуатационная колонна, диаметр (мм): 
OTHER_47           .         Эксплуатационная колонна, глубина (м): 
OTHER_48           .         Программа Кедр-02 версия 3.4  : 
OTHER_49           .         Операционная система Windows NT 5.1 build 2600 Service Pack 2: 
OTHER_5            .         Назначение исследований       : 
OTHER_50           .         Программное обеспечение станции MONITOR-386EX 25/12/99 15_08_10   BGF V54 20/09/05 15_32_17   3.3__BGF_9030071: 
OTHER_51           .         Kedr.exe версия 3.4.2.74      : 
OTHER_52           .         KedrData.dll версия 3.4.2.29  : 
OTHER_53           .         Мнемоники версия 3.18 S       : 
OTHER_54           .         Драйвер версия 2.1.1.4        : 
OTHER_55           .         LasInf.dll 4.3.0.35           : 
OTHER_56           .         Прибор_ КСА-Т4                : 
OTHER_57           .         Номер прибора_ 160            : 
OTHER_58           .         Режим_ КСА-Т4                 : 
OTHER_59           .         Форма_ С.А.Б.                 : 
OTHER_6            .         Альтитуда стола ротора        : 
OTHER_60           .         Тарировки_                    : 
OTHER_61           .         <_techsia_sc_> Дата тарировки температуры 25.05.2010: 
OTHER_62           .         Ручной ввод коэффициентов     : 
OTHER_63           .         TM.DEGC = 0.00402*RTM.E.ACP + -0.994: 
OTHER_64           .         <_techsia_sc_> Дата тарировки давления 25.05.2010: 
OTHER_65           .         Ручной ввод коэффициентов     : 
OTHER_66           .         MN.ATM = (2.27521e-006*TM.DEGC + 0.02078)*(RMN.E.ACP + 6.2*TM.DEGC + -1688): 
OTHER_67           .         <_techsia_sc_> Дата тарировки ГК 25.05.2010: 
OTHER_68           .         Ручной ввод коэффициентов     : 
OTHER_69           .         GR.UR/H = RGR.IMP/MIN / 45.5144: 
OTHER_7            .         Вид исследований 3  6         : 
OTHER_70           .         GK.FLT = 0.1*GR.UR/H[-1] + (1-0.1)*GR.UR/H[0]: 
OTHER_71           .         <_techsia_sc_> Дата тарировки температуры 25.05.2010: 
OTHER_72           .         Ручной ввод коэффициентов     : 
OTHER_73           .         TM.DEGC = 0.00402*RTM.E.ACP + -0.994: 
OTHER_74           .         <_techsia_sc_> Дата тарировки давления 25.05.2010: 
OTHER_75           .         Ручной ввод коэффициентов     : 
OTHER_76           .         MN.ATM = (2.27521e-006*TM.DEGC + 0.02078)*(RMN.E.ACP + 6.2*TM.DEGC + -1688): 
OTHER_77           .         <_techsia_sc_> Дата тарировки ГК 25.05.2010: 
OTHER_78           .         Ручной ввод коэффициентов     : 
OTHER_79           .         GR.UR/H = RGR.IMP/MIN / 45.5144: 
OTHER_8            .         Начало бурения интервала каротажа: 
OTHER_80           .         GK.FLT = 0.1*GR.UR/H[-1] + (1-0.1)*GR.UR/H[0]: 
OTHER_81           .         <_techsia_sc_> Дата тарировки температуры 25.05.2010: 
OTHER_82           .         Ручной ввод коэффициентов     : 
OTHER_83           .         TM.DEGC = 0.00402*RTM.E.ACP + -0.994: 
OTHER_84           .         <_techsia_sc_> Дата тарировки давления 25.05.2010: 
OTHER_85           .         Ручной ввод коэффициентов     : 
OTHER_86           .         MN.ATM = (2.27521e-006*TM.DEGC + 0.02078)*(RMN.E.ACP + 6.2*TM.DEGC + -1688): 
OTHER_87           .         <_techsia_sc_> Дата тарировки ГК 25.05.2010: 
OTHER_88           .         Ручной ввод коэффициентов     : 
OTHER_89           .         GR.UR/H = RGR.IMP/MIN / 45.5144: 
OTHER_9            .         Окончание бурения интервала каротажа: 
OTHER_90           .         GK.FLT = 0.1*GR.UR/H[-1] + (1-0.1)*GR.UR/H[0]: 
OTHER_91           .         <_techsia_sc_> Дата тарировки температуры 25.05.2010: 
OTHER_92           .         Ручной ввод коэффициентов     : 
OTHER_93           .         TM.DEGC = 0.00402*RTM.E.ACP + -0.994: 
OTHER_94           .         <_techsia_sc_> Дата тарировки давления 25.05.2010: 
OTHER_95           .         Ручной ввод коэффициентов     : 
OTHER_96           .         MN.ATM = (2.27521e-006*TM.DEGC + 0.02078)*(RMN.E.ACP + 6.2*TM.DEGC + -1688): 
OTHER_97           .         <_techsia_sc_> Дата тарировки ГК 25.05.2010: 
OTHER_98           .         Ручной ввод коэффициентов     : 
OTHER_99           .         GR.UR/H = RGR.IMP/MIN / 45.5144: 
PROJECT_UPGRADE_TIME .         2021-03-18T21_24_50           : 
PRTY               .         ПП-601-1                      : N партии
SRVC               .         Барковский                    : Начальник партии
TLFamily_DEPT      .         Measured Depth                : 
TLFamily_LM        .         Casing Collar locator         : 
TLFamily_METKA     .                                       : 
TLFamily_MN        .                                       : 
TLFamily_TM        .         Temperature                   : 
group              .         second                        : 
~Curve Information
#_______________________________________________________________________________
#
#LOGNAME           .UNIT     LOG_ID                        : DESCRIPTION
#_______________________________________________________________________________
DEPT               .M                                      : Depth curve 
LM                 .е.ацп                                  : Локатор муфт,е.ацп 
METKA              .е.ацп                                  : Магнитные метки,е.ацп 
MN                 .атм                                    : 12 Давление, атм. -  160.0 см 
TM                 .град.C                                 : Термограмма по стволу скважины,град.C 
~Ascii
# ...
220        598        0          23.965     6.23      
220.2      568.999    0          23.973     6.233     
220.4      491        0          23.998     6.234     
220.6      488.001    0          24.022     6.238     
220.8      549        0          24.051     6.238     
221        561        0          24.068     6.238     
221.2      519        0          24.078     6.238     
221.4      513        0          24.115     6.238     
221.6      519        0          24.08      6.238     
221.8      526.001    0          24.157     6.24      
222        648.999    0          24.146     6.242     
222.2      531.001    0          24.154     6.242     
222.4      602.999    0          24.198     6.242     
222.6      542        0          24.199     6.243     
222.8      562        0          24.24      6.246     
223        541        0          24.241     6.249     
223.2      578.999    0          24.261     6.254     
223.4      511.001    0          24.27      6.258     
223.6      565.999    0          24.3       6.26      
223.8      505.999    0          24.329     6.266     
224        427        0          24.348     6.269     
224.2      447.001    0          24.36      6.278     
224.4      507        0          24.385     6.283     
224.6      513        0          24.413     6.288     
224.8      471.001    0          24.4       6.293     
225        535        2          24.449     6.297     
225.2      547        0          24.477     6.302     
225.4      548        0          24.477     6.307     
225.6      568.001    0          24.481     6.31      
225.8      625.999    0          24.535     6.31      
226        539        0          24.528     6.314     
226.2      515        0          24.541     6.314     
226.4      506        0          24.577     6.319     
226.6      509        0          24.612     6.325     
226.8      469.04     0          24.638     6.326     
227        4550.985   0          24.663     6.331     
227.2      3034.984   0          24.689     6.336     
227.4      1393.996   0          24.694     6.338     
227.6      981.999    0          24.728     6.342     
227.8      863.998    0          24.728     6.347     
228        650.999    0          24.748     6.351     
228.2      538        0          24.797     6.352     
228.4      490        0          24.807     6.357     
228.6      495.999    0          24.804     6.365     
228.8      437.001    0          24.853     6.371     
229        507        0          24.861     6.38      
229.2      553.999    0          24.862     6.385     
229.4      500        0          24.885     6.39      
229.6      509.001    0          24.915     6.398     
229.8      614.001    0          24.935     6.403     
230        679.999    0          24.948     6.408     
230.2      592.999    0          24.987     6.411     
230.4      497        0          24.984     6.414     
230.6      471.999    0          25.034     6.419     
230.8      405.001    0          25.054     6.423     
231        527.999    0          25.073     6.427     
231.2      471.999    0          25.076     6.429     
231.4      336.001    0          25.091     6.437     
231.6      435        0          25.119     6.439     
231.8      442.999    0          25.12      6.447     
232        384        0          25.183     6.452     
232.2      368.001    0          25.174     6.46      
232.4      478        0          25.219     6.466     
232.6      495        0          25.218     6.475     
232.8      482        0          25.243     6.48      
233        468        0          25.268     6.484     
233.2      484        0          25.271     6.491     
233.4      522        0          25.296     6.498     
233.6      487        0          25.315     6.505     
233.8      455.999    0          25.326     6.511     
234        362.001    0          25.354     6.516     
234.2      452.001    0          25.379     6.525     
234.4      507        0          25.367     6.53      
234.6      516        0          25.402     6.535     
234.8      477.001    2          25.427     6.539     
235        540        0          25.462     6.548     
235.2      501        0          25.446     6.555     
235.4      470.999    0          25.505     6.562     
235.6      406        0          25.499     6.567     
235.8      387        0          25.51      6.572     
236        428        0          25.566     6.577     
236.2      465        0          25.555     6.582     
236.4      428        0          25.575     6.586     
236.6      429.006    0          25.602     6.594     
236.8      963.042    0          25.639     6.599     
237        5009.982   0          25.651     6.604     
237.2      3335.989   0          25.661     6.612     
237.4      2248.988   0          25.701     6.618     
237.6      1144.996   0          25.696     6.628     
237.8      775.999    0          25.748     6.638     
238        679.999    0          25.727     6.644     
238.2      555.999    0          25.771     6.653     
238.4      472.999    0          25.792     6.657     
238.6      377        0          25.813     6.662     
238.8      355        0          25.822     6.664     
239        400.001    0          25.848     6.672     
239.2      502.999    0          25.856     6.673     
239.4      394.001    0          25.878     6.679     
239.6      481        0          25.921     6.687     
239.8      486        0          25.921     6.688     
240        443        0          25.936     6.693     
240.2      426.999    0          25.98      6.697     
240.4      317        0          25.984     6.704     
240.6      354        0          25.979     6.711     
240.8      315        0          26.02      6.716     
241        326        0          26.029     6.72      
241.2      368        0          26.071     6.722     
241.4      376.999    0          26.071     6.724     
241.6      313.001    0          26.082     6.728     
241.8      364.001    0          26.108     6.737     
242        500        0          26.134     6.743     
242.2      487.999    0          26.14      6.752     
242.4      393        0          26.173     6.765     
242.6      363        0          26.186     6.773     
242.8      354        0          26.204     6.782     
243        321.001    0          26.205     6.79      
243.2      376        0          26.263     6.798     
243.4      417        0          26.26      6.808     
243.6      399.001    0          26.286     6.813     
243.8      478        0          26.311     6.818     
244        470        0          26.298     6.823     
244.2      514.999    0          26.334     6.828     
244.4      468        0          26.364     6.833     
244.6      483.002    0          26.397     6.838     
244.8      622.999    2          26.399     6.843     
245        547        0          26.399     6.848     
245.2      557.999    0          26.439     6.849     
245.4      491.001    0          26.445     6.853     
245.6      566.999    0          26.482     6.855     
245.8      510        0          26.474     6.86      
246        512        0          26.505     6.865     
246.2      494        0          26.521     6.866     
246.4      493.999    0          26.547     6.871     
246.6      394.002    0          26.543     6.877     
246.8      578.032    0          26.587     6.882     
247        3467.988   0          26.609     6.887     
247.2      2358.992   0          26.609     6.895     
247.4      1630.995   0          26.648     6.901     
247.6      1170.994   0          26.676     6.912     
247.8      637.999    0          26.68      6.925     
248        530.999    0          26.696     6.935     
248.2      456        0          26.737     6.945     
248.4      451        0          26.747     6.955     
248.6      442        0          26.75      6.963     
248.8      453.001    0          26.775     6.971     
249        500.999    0          26.791     6.977     
