~Version
 VERS              .         2.0                           : CWLS LOG ASCII STANDARD - VERSION 2.0
 WRAP              .         NO                            : ONE LINE PER DEPTH STEP
 DLM               .         SPACE                         : DELIMITING CHARACTER(SPACE TAB OR COMMA)
~Well Information
#_______________________________________________________________________________
#
#PARAMETER_NAME    .UNIT     VALUE                         : DESCRIPTION
#_______________________________________________________________________________
STRT               .M        2669.6                        : First reference value
STOP               .M        2776.19984                    : Last reference value
STEP               .M        0.1999997                     : Step increment
NULL               .         -9999                         : Missing value
COMP               .                                       : Company
WELL               .         616                           : Well name
FLD                .                                       : Field
LOC                .                                       : Location
CNTY               .                                       : County
STAT               .                                       : State
CTRY               .                                       : Country
SRVC               .                                       : Service Company
DATE               .                                       : Date
API                .                                       : API number
PROJECT_UPGRADE_TIME .         2021-03-18T21_24_50           : 
group              .         Good                          : 
~Parameter Information Block
#_______________________________________________________________________________
#
#PARAMETER_NAME    .UNIT     VALUE                         : DESCRIPTION
#_______________________________________________________________________________
SET                .         D1805_D                       : 
OTHER              .         Программное обеспечение станции MONITOR-386EX 25/12/99 15_08_10   BGF V52 22/08/01 16_56_30   3.1_SNGF___BGF_N_092049: 
OTHER_10           .         Тарировки_                    : 
OTHER_11           .         TM.GRD = 0.00403*TM$.UE + -1.07: 
OTHER_12           .         MN.ATM = (9.34907e-006*TM.GRD + 0.02171)*(MN$.UE + -7.93*TM.GRD + -1787): 
OTHER_13           .         GK.MKR/H = LM. / 42.4676      : 
OTHER_14           .         GK.FLT = 0.1*GK.MKR/H[-1] + (1-0.1)*GK.MKR/H[0]: 
OTHER_2            .         Kedr.exe версия 3.4.2.51      : 
OTHER_3            .         KedrData.dll версия 3.4.2.24  : 
OTHER_4            .         Драйвер версия 2.1.1.3        : 
OTHER_5            .         Мнемоники версия 3.3 S        : 
OTHER_6            .         Прибор_ КСА-Т4                : 
OTHER_7            .         Номер прибора_ 03             : 
OTHER_8            .         Режим_ КСА-Т4                 : 
OTHER_9            .         Форма_ КВА.                   : 
PROJECT_UPGRADE_TIME .         2021-03-18T21_24_49           : 
TLFamily_DEPT      .         Measured Depth                : 
TLFamily_GK        .         Gamma Ray                     : 
TLFamily_GK$       .                                       : 
TLFamily_GK_2      .         Gamma Ray                     : 
TLFamily_LM        .         Casing Collar locator         : 
TLFamily_METKA     .                                       : 
TLFamily_MN        .                                       : 
TLFamily_MN$       .                                       : 
TLFamily_RCOR      .                                       : 
TLFamily_SPID      .         Spontaneous Potential         : 
TLFamily_TENS      .         Cable Tension                 : 
TLFamily_TIME      .         Time                          : 
TLFamily_TM        .         Temperature                   : 
TLFamily_TM$       .         Temperature                   : 
group              .         prim                          : 
~Curve Information
#_______________________________________________________________________________
#
#LOGNAME           .UNIT     LOG_ID                        : DESCRIPTION
#_______________________________________________________________________________
DEPT               .M                                      : 1 Глубина, м -    0.0 см 
GK                 .MKR/H                                  : 13 Гамма-активность, мкр./ч -  110.0 см 
GK$                .UE                                     : 10 Гамма-активность, усл.ед. -  110.0 см 
GK_2               .FLT                                    : 14 Гамма-активность фильтрованная, мкр./ч -  110.0 см 
LM                 .                                       : 9 Локатор муфт,  -   20.0 см 
METKA              .                                       : 3 Метки,  -    0.0 см 
MN                 .ATM                                    : 12 Давление, атм. -  160.0 см 
MN$                .UE                                     : 8 Давление, усл.ед. -  160.0 см 
RCOR               .CM/KM                                  : 5 Коррекция по ролику, см/км -    0.0 см 
SPID               .M/H                                    : 2 Скорость, м/час -    0.0 см 
TENS               .T                                      : 6 Натяжение кабеля, т -    0.0 см 
TIME               .S                                      : 4 Время, сек -    0.0 см 
TM                 .GRD                                    : 11 Температура, °C -  170.0 см 
TM$                .UE                                     : 7 Температура, усл.ед. -  170.0 см 
~Ascii
# ...
2752.799875 11.16      474        11.51      203        0          335.954    17334      -676       544        -0.01      3779.55    50.961     12911     
2752.999875 11.16      474        11.17      204        0          335.537    17315      -676       544        0.01       3780.91    51.112     12948     
2753.199875 10.67      453        10.85      246        0          333.311    17215      -676       531        -0.01      3782.28    51.254     12984     
2753.399874 10.67      453        10.67      206        0          336.431    17356      -676       541        0.01       3783.61    51.368     13012     
2753.599874 10.34      439        10.39      202        0          334.687    17277      -676       540        -0.01      3784.94    51.49      13042     
2753.799874 10.34      439        10.34      198        0          335.243    17303      -676       546        0.01       3786.27    51.639     13079     
2753.999873 10.15      431        10.18      201        0          336.197    17346      -676       551        0.01       3787.55    51.796     13118     
2754.199873 10.15      431        10.15      215        0          335.64     17321      -676       543        -0.01      3788.88    51.967     13161     
2754.399873 11.04      469        11         193        0          336.83     17375      -676       539        -0.01      3790.2     52.109     13196     
2754.599872 11.04      469        11.04      220        0          334.391    17265      -676       535        0.01       3791.58    52.268     13235     
2754.799872 11.09      471        11.09      206        0          334.964    17291      -676       534        0.01       3792.94    52.404     13269     
2754.999872 11.01      468        11.04      215        0          335.995    17338      -676       531        0.01       3794.27    52.601     13318     
2755.199872 10.86      461        10.86      183        0          336.011    17339      -676       540        -0.01      3795.59    52.771     13360     
2755.399871 10.9       463        10.88      178        0          335.846    17332      -676       546        0.01       3796.91    52.955     13406     
2755.599871 11.09      471        11.09      189        0          333.962    17247      -676       543        0.01       3798.2     53.085     13438     
2755.799871 11.2       476        11.16      183        0          336.399    17357      -676       546        0.01       3799.53    53.195     13465     
2755.99987 11.42      485        11.41      179        0          335.297    17308      -676       540        0.01       3800.86    53.449     13528     
2756.19987 11.42      485        11.42      165        0          336.032    17341      -676       530        0.01       3802.24    53.697     13590     
2756.39987 11.42      485        11.42      159        0          335.531    17319      -676       527        0.01       3803.6     53.895     13639     
2756.599869 11.23      477        11.29      149        0          334.843    17288      -676       539        0.01       3804.86    54.077     13684     
2756.799869 11.23      477        11.23      197        0          337.215    17396      -676       537        0.01       3806.19    54.269     13732     
2756.999869 10.24      435        10.35      175        0          334.954    17294      -676       540        0.01       3807.53    54.5       13789     
2757.199869 10.24      435        10.25      230        0          335.988    17341      -676       543        0.01       3808.8     54.693     13837     
2757.399868 9.49       403        9.57       203        0          336.251    17353      -676       539        0.01       3810.15    54.896     13887     
2757.599868 9.49       403        9.49       173        0          335.266    17309      -676       549        0.01       3811.53    55.068     13930     
2757.799868 8.71       370        8.74       151        0          336.023    17343      -676       536        0.01       3812.87    55.257     13977     
2757.999867 8.71       370        8.71       190        0          335.041    17300      -676       543        0.01       3814.2     55.489     14034     
2758.199867 8.83       375        8.83       202        0          335.633    17326      -676       540        0.01       3815.49    55.657     14076     
2758.399867 8.93       379        8.89       266        0          336.478    17365      -676       537        0.03       3816.82    55.873     14130     
2758.599866 8.97       381        8.97       265        0          335.628    17327      -676       543        0.01       3818.17    56.098     14186     
2758.799866 8.26       351        8.52       217        0          335.614    17327      -676       542        0.01       3819.45    56.364     14252     
2758.999866 7.91       336        7.93       225        0          334.538    17279      -676       547        0.01       3820.81    56.544     14296     
2759.199866 7.67       326        7.76       6124       0          335.918    17341      -676       535        0.01       3822.15    56.735     14344     
2759.399865 7.56       321        7.57       2872       0          335.538    17324      -676       539        0.01       3823.49    56.953     14398     
2759.599865 7.49       318        7.51       751        0          336.371    17362      -676       541        0.01       3824.81    57.105     14435     
2759.799865 7.49       318        7.49       282        0          335.894    17341      -676       539        0.01       3826.11    57.29      14481     
2759.999864 8.88       377        8.47       206        2          335.291    17314      -676       547        0.01       3827.45    57.482     14529     
2760.199864 8.88       377        8.87       192        0          335.842    17339      -682       553        -0.01      3829.17    57.756     14597     
2760.399864 9.8        416        9.71       192        0          335.22     17312      -682       551        0.01       3830.48    58.062     14673     
2760.599864 9.8        416        9.79       180        0          336.035    17349      -682       538        0.01       3831.86    58.228     14714     
2760.799863 8.88       377        8.98       180        0          336.334    17362      -682       536        0.01       3833.2     58.457     14771     
2760.999863 8.88       377        8.88       192        0          335.857    17341      -682       541        0.01       3834.55    58.677     14826     
2761.199863 9.11       387        9.11       185        0          336.217    17358      -682       540        -0         3835.82    58.866     14872     
2761.399862 8.94       380        9          176        0          334.923    17300      -682       540        0.01       3837.15    59.081     14926     
2761.599862 8.85       376        8.86       160        0          335.373    17321      -682       534        0.01       3838.51    59.234     14964     
2761.799862 8.45       359        8.54       182        0          335.104    17309      -682       543        0.01       3839.78    59.563     15045     
2761.999861 8.45       359        8.46       169        0          336.208    17359      -682       535        0.01       3841.19    59.739     15089     
2762.199861 8.38       356        8.4        200        0          337.134    17401      -682       536        0.01       3842.53    59.879     15124     
2762.399861 8.38       356        8.38       182        0          336.117    17355      -682       543        0.01       3843.8     60.002     15154     
2762.59986 8.41       357        8.4        186        0          335.976    17349      -682       542        0.01       3845.15    60.155     15192     
2762.79986 8.41       357        8.41       176        0          335.454    17326      -682       547        0.01       3846.49    60.311     15231     
2762.99986 9.02       383        8.96       173        0          336.418    17369      -682       551        0.02       3847.77    60.4       15253     
