~Version
 VERS              .         2.0                           : CWLS LOG ASCII STANDARD - VERSION 2.0
 WRAP              .         NO                            : ONE LINE PER DEPTH STEP
 DLM               .         SPACE                         : DELIMITING CHARACTER(SPACE TAB OR COMMA)
~Well Information
#_______________________________________________________________________________
#
#PARAMETER_NAME    .UNIT     VALUE                         : DESCRIPTION
#_______________________________________________________________________________
STRT               .M        827.6                         : First reference value
STOP               .M        1707.2                        : Last reference value
STEP               .M        0.2                           : Step increment
NULL               .         -9999                         : Missing value
COMP               .                                       : Company
WELL               .         616                           : Well name
FLD                .                                       : Field
LOC                .                                       : Location
CNTY               .                                       : County
STAT               .                                       : State
CTRY               .                                       : Country
SRVC               .                                       : Service Company
DATE               .                                       : Date
API                .                                       : API number
PROJECT_UPGRADE_TIME .         2021-03-18T21_24_50           : 
group              .         Good                          : 
~Parameter Information Block
#_______________________________________________________________________________
#
#PARAMETER_NAME    .UNIT     VALUE                         : DESCRIPTION
#_______________________________________________________________________________
SET                .         616_8                         : 
CONF               .         00                            : 
END                .         0                             : 
ERR                .         0                             : 
GS00               .M        1705.33                       : 
GS01               .M        0825.11                       : 
MM00               .M        0210.00                       : 
NOKG               .         0                             : 
NPR                .         980615                        : 
PART               .         Бутенко                       : 
PROJECT_UPGRADE_TIME .         2021-03-18T21_24_49           : 
PRZK               .         Шакиров                       : 
TLFamily_AZIMUTH   .         True Dip Azimuth              : 
TLFamily_DEPTH     .         Measured Depth                : 
TLFamily_METKA     .                                       : 
TLFamily_ROLL      .                                       : 
TLFamily_SPEED     .         Spontaneous Potential         : 
TLFamily_ZENIT     .                                       : 
VPRG               .         310                           : 
WAY                .         UP                            : 
group              .         prim                          : 
~Curve Information
#_______________________________________________________________________________
#
#LOGNAME           .UNIT     LOG_ID                        : DESCRIPTION
#_______________________________________________________________________________
DEPTH              .M                                      :  
AZIMUTH            .DEG                                    :  
METKA              .                                       :  
ROLL               .DEG                                    :  
SPEED              .M/H                                    :  
ZENIT              .DEG                                    :  
~Ascii
# ...
1462       357.45     0          161.3      612        33.8      
1462.2     2.31       1          161.64     612        33.25     
1462.4     15.3       0          161.56     648        33.74     
1462.6     355.4      0          160.64     612        33.19     
1462.8     2.86       0          159.79     612        33.42     
1463       31.22      0          158.93     648        33.63     
1463.2     38.87      0          157.73     612        33.41     
1463.4     29.88      0          156.64     576        33.33     
1463.6     28.96      0          155.39     648        33.4      
1463.8     356.34     0          154.88     612        34.13     
1464       355.59     0          155.44     612        33.67     
1464.2     350.4      0          155.98     612        33.8      
1464.4     354.18     0          156.57     612        33.93     
1464.6     356.21     0          157.06     612        33.88     
1464.8     8.58       0          157.61     612        34.11     
1465       7.52       0          158.57     648        33.32     
1465.2     359.77     0          159.23     612        33.49     
1465.4     357.79     0          159.16     612        33.23     
1465.6     309.65     0          158.88     612        33.07     
1465.8     352.77     0          158.42     612        32.82     
1466       14.1       0          157.64     612        32.83     
1466.2     17.84      0          156.81     612        32.98     
1466.4     56.63      0          156.2      612        32.58     
1466.6     7.78       0          154.97     612        32.52     
1466.8     359.89     0          153.16     648        31.88     
1467       16.54      0          152.98     612        32.83     
1467.2     31.46      0          156.34     612        31.2      
1467.4     43.99      0          158.36     612        33.54     
1467.6     31.8       0          158.51     648        33.33     
1467.8     48.04      0          158.64     576        33.11     
1468       31.53      0          158.58     612        33.43     
1468.2     69.27      0          158.33     648        33.21     
1468.4     51.16      0          157.83     612        33.92     
1468.6     38.48      0          157.92     612        33.05     
1468.8     44.4       0          158.21     612        33.46     
1469       45.37      0          157.84     612        33.25     
1469.2     44.92      0          157.27     612        33.17     
1469.4     30.08      0          157.08     612        33.15     
1469.6     18.38      0          157.61     648        32.76     
1469.8     21.48      0          157.69     612        33.55     
1470       15.81      0          157.27     576        32.71     
1470.2     16.88      0          157.26     648        33.28     
1470.4     11.58      0          157.17     612        33.02     
1470.6     14.1       0          157.34     612        33.09     
1470.8     15.06      0          158.1      612        33.26     
1471       9.97       0          159.09     612        32.92     
1471.2     22.38      0          159.66     612        33.7      
1471.4     14.13      0          159.97     612        33.07     
1471.6     7.03       0          159.91     648        33.41     
1471.8     13.68      0          159.57     612        32.99     
1472       7.96       0          159        612        33.24     
1472.2     10.77      1          158.04     576        33.27     
1472.4     4.29       0          157.05     648        33.05     
1472.6     12.51      0          156.82     612        33.49     
1472.8     26.48      0          156.8      612        33.11     
1473       7.17       0          156.63     612        33.51     
1473.2     32.42      0          156.83     612        32.86     
1473.4     14.67      0          157.32     648        33.34     
1473.6     7.02       0          157.65     612        33.2      
1473.8     14.11      0          158.17     612        33.3      
1474       19.88      0          158.62     612        33.2      
1474.2     28.82      0          158.9      612        32.93     
1474.4     41.97      0          158.74     612        33.68     
1474.6     70.89      0          158.45     612        33.13     
1474.8     46.19      0          158.53     612        33.47     
1475       80.35      0          158.55     612        33.2      
1475.2     97.36      0          158.81     612        33.22     
1475.4     99.15      0          159.07     648        32.83     
1475.6     101.51     0          158.07     612        33.87     
1475.8     109.96     0          156.93     612        33.47     
1476       34.22      0          157.87     612        32.93     
1476.2     1.52       0          159.43     612        33.65     
1476.4     357.45     0          160.06     612        33.39     
1476.6     3.1        0          159.58     648        33.73     
1476.8     355.15     0          160.47     612        33.31     
1477       350.37     0          160.45     648        33.47     
1477.2     5.45       0          159.86     612        33.51     
1477.4     12.73      0          159.58     612        32.89     
1477.6     2.81       0          160.19     612        33.36     
1477.8     14.9       0          161.24     612        32.72     
1478       343.97     0          162.61     648        33.14     
1478.2     3.94       0          163.83     612        32.39     
1478.4     347.75     0          163.38     576        32.48     
1478.6     355.56     0          162.25     648        32.8      
1478.8     356.81     0          161.73     612        32.42     
1479       354.24     0          161.34     576        32.39     
1479.2     346.66     0          161.57     612        32.45     
1479.4     2.42       0          161.19     612        32.93     
1479.6     12.93      0          159.96     612        32.75     
1479.8     358.77     0          159.78     648        32.92     
1480       354.53     0          160.23     612        32.87     
1480.2     354.62     0          160.44     612        33.08     
1480.4     348.04     0          160.17     612        33.43     
1480.6     325.93     0          159.76     612        32.73     
1480.8     346.75     0          159.26     612        33.23     
1481       19.22      0          159.03     612        32.73     
1481.2     9.62       0          159.03     576        33.25     
1481.4     0.33       0          159.17     648        32.8      
1481.6     0.88       0          159.64     648        33.23     
1481.8     357.87     0          160.35     612        33.19     
1482       25.77      0          160.97     612        32.8      
1482.2     357.49     1          161.07     612        33.02     
1482.4     351.15     0          160.79     648        32.84     
1482.6     354.59     0          160.58     612        33.24     
1482.8     350        0          160.5      612        32.67     
1483       2.06       0          160.17     648        33.07     
1483.2     353.77     0          160.18     612        33.16     
1483.4     358.71     0          160.28     612        33.01     
1483.6     359        0          159.88     612        33.11     
1483.8     3.16       0          159.54     612        32.71     
1484       20.89      0          159.45     612        33.28     
1484.2     6.2        0          159.84     612        32.99     
1484.4     24.01      0          159.58     612        33.26     
1484.6     13.49      0          159.23     612        33.17     
1484.8     25.15      0          159.63     612        33.11     
1485       15.92      0          160.21     612        33.31     
1485.2     12.71      0          160.49     612        32.49     
1485.4     18.62      0          160.59     612        33.57     
1485.6     6.32       0          160.48     576        32.99     
1485.8     359.64     0          160.58     648        33.39     
1486       346.33     0          160.55     612        32.82     
1486.2     354.44     0          159.98     612        33.16     
