~Version
 VERS              .         2.0                           : CWLS LOG ASCII STANDARD - VERSION 2.0
 WRAP              .         NO                            : ONE LINE PER DEPTH STEP
 DLM               .         SPACE                         : DELIMITING CHARACTER(SPACE TAB OR COMMA)
~Well Information
#_______________________________________________________________________________
#
#PARAMETER_NAME    .UNIT     VALUE                         : DESCRIPTION
#_______________________________________________________________________________
STRT               .M        11                            : First reference value
STOP               .M        2775.8                        : Last reference value
STEP               .M        0.2                           : Step increment
NULL               .         -9999                         : Missing value
COMP               .                                       : Company
WELL               .         616                           : Well name
FLD                .                                       : Field
LOC                .                                       : Location
CNTY               .                                       : County
STAT               .                                       : State
CTRY               .                                       : Country
SRVC               .                                       : Service Company
DATE               .                                       : Date
API                .                                       : API number
PROJECT_UPGRADE_TIME .         2021-03-18T21_24_50           : 
group              .         Good                          : 
~Parameter Information Block
#_______________________________________________________________________________
#
#PARAMETER_NAME    .UNIT     VALUE                         : DESCRIPTION
#_______________________________________________________________________________
SET                .         D1813_D                       : 
OTHER              .         Программное обеспечение станции MONITOR-386EX 25/12/99 15_08_10   BGF V52 22/08/01 16_56_30   3.1_SNGF___BGF_N_092049: 
OTHER_10           .         Тарировки_                    : 
OTHER_11           .         TM.GRD = 0.00403*TM$.UE + -1.07: 
OTHER_12           .         MN.ATM = (9.34907e-006*TM.GRD + 0.02171)*(MN$.UE + -7.93*TM.GRD + -1787): 
OTHER_13           .         GK.MKR/H = LM. / 42.4676      : 
OTHER_14           .         GK.FLT = 0.1*GK.MKR/H[-1] + (1-0.1)*GK.MKR/H[0]: 
OTHER_2            .         Kedr.exe версия 3.4.2.51      : 
OTHER_3            .         KedrData.dll версия 3.4.2.24  : 
OTHER_4            .         Драйвер версия 2.1.1.3        : 
OTHER_5            .         Мнемоники версия 3.3 S        : 
OTHER_6            .         Прибор_ КСА-Т4                : 
OTHER_7            .         Номер прибора_ 03             : 
OTHER_8            .         Режим_ КСА-Т4                 : 
OTHER_9            .         Форма_ КВА.                   : 
PROJECT_UPGRADE_TIME .         2021-03-18T21_24_49           : 
TLFamily_DEPT      .         Measured Depth                : 
TLFamily_GK        .         Gamma Ray                     : 
TLFamily_GK$       .                                       : 
TLFamily_GK_2      .         Gamma Ray                     : 
TLFamily_LM        .         Casing Collar locator         : 
TLFamily_METKA     .                                       : 
TLFamily_MN        .                                       : 
TLFamily_MN$       .                                       : 
TLFamily_RCOR      .                                       : 
TLFamily_SPID      .         Spontaneous Potential         : 
TLFamily_TENS      .         Cable Tension                 : 
TLFamily_TIME      .         Time                          : 
TLFamily_TM        .         Temperature                   : 
TLFamily_TM$       .         Temperature                   : 
group              .         prim                          : 
~Curve Information
#_______________________________________________________________________________
#
#LOGNAME           .UNIT     LOG_ID                        : DESCRIPTION
#_______________________________________________________________________________
DEPT               .M                                      : 1 Глубина, м -    0.0 см 
GK                 .MKR/H                                  : 13 Гамма-активность, мкр./ч -  110.0 см 
GK$                .UE                                     : 10 Гамма-активность, усл.ед. -  110.0 см 
GK_2               .FLT                                    : 14 Гамма-активность фильтрованная, мкр./ч -  110.0 см 
LM                 .                                       : 9 Локатор муфт,  -   20.0 см 
METKA              .                                       : 3 Метки,  -    0.0 см 
MN                 .ATM                                    : 12 Давление, атм. -  160.0 см 
MN$                .UE                                     : 8 Давление, усл.ед. -  160.0 см 
RCOR               .CM/KM                                  : 5 Коррекция по ролику, см/км -    0.0 см 
SPID               .M/H                                    : 2 Скорость, м/час -    0.0 см 
TENS               .T                                      : 6 Натяжение кабеля, т -    0.0 см 
TIME               .S                                      : 4 Время, сек -    0.0 см 
TM                 .GRD                                    : 11 Температура, °C -  170.0 см 
TM$                .UE                                     : 7 Температура, усл.ед. -  170.0 см 
~Ascii
# ...
749.4      2.68       114        2.68       590        0          69.889     5205       -1271      -1876      -0.05      11015.15   30.231     7767      
749.6      2.68       114        2.68       585        0          69.898     5205       -1271      -1877      -0.05      11014.76   30.235     7768      
749.8      2.68       114        2.68       601        0          69.912     5206       -1271      -1873      -0.05      11014.39   30.24      7769      
750        2.68       114        2.68       625        2          69.935     5207       -1271      -1867      -0.04      11013.99   30.244     7770      
750.2      2.68       114        2.68       568        0          69.94      5207       -1272      -1863      -0.05      11013.63   30.248     7771      
750.4      2.68       114        2.68       523        0          69.958     5208       -1272      -1863      -0.05      11013.23   30.253     7772      
750.6      2.67       113        2.67       526        0          69.98      5209       -1272      -1867      -0.05      11012.84   30.257     7773      
750.8      2.66       113        2.66       550        0          70.005     5210       -1272      -1869      -0.05      11012.45   30.261     7774      
751        2.66       113        2.66       565        0          70.026     5211       -1272      -1863      -0.05      11012.07   30.265     7776      
751.2      2.66       113        2.66       560        0          70.047     5212       -1272      -1865      -0.05      11011.67   30.27      7777      
751.4      2.66       113        2.67       560        0          70.05      5212       -1272      -1864      -0.04      11011.29   30.274     7778      
751.6      2.66       113        2.68       569        0          70.074     5213       -1272      -1857      -0.05      11010.89   30.278     7779      
751.8      2.66       113        2.72       622        0          70.095     5214       -1272      -1855      -0.05      11010.54   30.279     7779      
752        2.83       120        2.83       652        0          70.111     5215       -1272      -1855      -0.05      11010.17   30.283     7780      
752.2      2.83       120        2.83       714        0          70.12      5215       -1272      -1854      -0.05      11009.79   30.287     7781      
752.4      2.83       120        2.83       710        0          70.143     5217       -1272      -1853      -0.05      11009.38   30.291     7782      
752.6      2.83       120        2.83       627        0          70.153     5217       -1272      -1852      -0.05      11008.98   30.296     7783      
752.8      2.83       120        2.82       620        0          70.167     5218       -1272      -1852      -0.05      11008.62   30.3       7784      
753        2.83       120        2.82       516        0          70.189     5219       -1272      -1850      -0.05      11008.22   30.304     7785      
753.2      2.82       120        2.81       515        0          70.213     5220       -1272      -1849      -0.05      11007.83   30.309     7786      
753.4      2.8        119        2.8        599        0          70.216     5220       -1272      -1851      -0.05      11007.43   30.313     7787      
753.6      2.8        119        2.8        671        0          70.234     5221       -1272      -1858      -0.05      11007.05   30.317     7788      
753.8      2.8        119        2.79       720        0          70.257     5222       -1272      -1859      -0.05      11006.66   30.321     7789      
754        2.8        119        2.77       601        0          70.28      5223       -1272      -1856      -0.05      11006.28   30.325     7790      
754.2      2.8        119        2.72       539        0          70.304     5224       -1272      -1855      -0.05      11005.9    30.33      7792      
754.4      2.57       109        2.55       513        0          70.323     5225       -1272      -1860      -0.05      11005.51   30.334     7793      
754.6      2.52       107        2.52       539        0          70.327     5225       -1272      -1857      -0.05      11005.13   30.338     7794      
754.8      2.52       107        2.52       552        0          70.35      5226       -1272      -1850      -0.05      11004.75   30.343     7795      
755        2.52       107        2.52       582        0          70.373     5227       -1272      -1842      -0.05      11004.37   30.347     7796      
755.2      2.52       107        2.53       538        0          70.387     5228       -1272      -1846      -0.05      11003.99   30.351     7797      
755.4      2.52       107        2.56       585        0          70.397     5229       -1272      -1852      -0.05      11003.58   30.356     7798      
755.6      2.57       109        2.65       718        0          70.407     5229       -1272      -1852      -0.05      11003.2    30.36      7799      
755.8      2.78       118        2.78       1017       0          70.435     5230       -1272      -1859      -0.05      11002.82   30.364     7800      
756        2.78       118        2.78       1286       0          70.45      5231       -1272      -1866      -0.05      11002.42   30.369     7801      
756.2      2.78       118        2.78       1737       0          70.466     5232       -1272      -1867      -0.05      11002.03   30.373     7802      
756.4      2.78       118        2.79       2161       0          70.488     5233       -1272      -1865      -0.05      11001.63   30.377     7803      
756.6      2.78       118        2.82       3155       0          70.511     5234       -1272      -1862      -0.05      11001.26   30.381     7804      
756.8      2.78       118        2.91       4881       0          70.514     5234       -1272      -1862      -0.05      11000.89   30.386     7805      
757        3.09       131        3.15       7341       0          70.535     5235       -1272      -1862      -0.05      11000.49   30.39      7806      
757.2      3.25       138        3.25       491        0          70.558     5236       -1272      -1862      -0.05      11000.1    30.394     7808      
757.4      3.25       138        3.25       394        0          70.578     5237       -1272      -1863      -0.05      10999.72   30.399     7809      
757.6      3.25       138        3.25       395        0          70.582     5237       -1272      -1863      -0.05      10999.34   30.403     7810      
757.8      3.25       138        3.24       408        0          70.605     5238       -1272      -1863      -0.05      10998.93   30.407     7811      
758        3.25       138        3.23       412        0          70.628     5239       -1272      -1864      -0.05      10998.54   30.412     7812      
758.2      3.25       138        3.2        425        0          70.641     5240       -1272      -1871      -0.05      10998.18   30.416     7813      
758.4      3.11       132        3.11       442        0          70.649     5240       -1272      -1867      -0.05      10997.82   30.42      7814      
758.6      3.11       132        3.11       448        0          70.672     5241       -1272      -1860      -0.05      10997.41   30.424     7815      
758.8      3.11       132        3.11       457        0          70.683     5242       -1272      -1861      -0.05      10997.03   30.428     7816      
759        3.11       132        3.12       472        0          70.696     5243       -1272      -1869      -0.05      10996.63   30.433     7817      
759.2      3.11       132        3.13       464        0          70.719     5244       -1272      -1876      -0.05      10996.25   30.437     7818      
759.4      3.11       132        3.16       438        0          70.743     5245       -1272      -1871      -0.05      10995.86   30.441     7819      
759.6      3.21       137        3.27       488        0          70.765     5246       -1272      -1867      -0.05      10995.48   30.446     7820      
