~Version
 VERS              .         2.0                           : CWLS LOG ASCII STANDARD - VERSION 2.0
 WRAP              .         NO                            : ONE LINE PER DEPTH STEP
 DLM               .         SPACE                         : DELIMITING CHARACTER(SPACE TAB OR COMMA)
~Well Information
#_______________________________________________________________________________
#
#PARAMETER_NAME    .UNIT     VALUE                         : DESCRIPTION
#_______________________________________________________________________________
STRT               .M        138.6                         : First reference value
STOP               .M        217                           : Last reference value
STEP               .M        0.2                           : Step increment
NULL               .         -9999                         : Missing value
COMP               .                                       : Company
WELL               .         616                           : Well name
FLD                .                                       : Field
LOC                .                                       : Location
CNTY               .                                       : County
STAT               .                                       : State
CTRY               .                                       : Country
SRVC               .                                       : Service Company
DATE               .                                       : Date
API                .                                       : API number
PROJECT_UPGRADE_TIME .         2021-03-18T21_24_50           : 
group              .         Good                          : 
~Parameter Information Block
#_______________________________________________________________________________
#
#PARAMETER_NAME    .UNIT     VALUE                         : DESCRIPTION
#_______________________________________________________________________________
SET                .         D1349_D                       : 
OTHER              .         Программное обеспечение станции MONITOR-386EX 25/12/99 15_08_10   BGF V52 22/08/01 16_56_30   3.1_SNGF__BGF_								111238: 
OTHER_10           .         Тарировки_                    : 
OTHER_11           .         <_techsia_sc_> Постоянная времени фильтра  0.5 сек, kf=0.181269: 
OTHER_12           .         TM.GRD = 0.00428968*TM$.UE + -0.3284: 
OTHER_13           .         GK.MKR/H = GK$.UE / 40.16     : 
OTHER_14           .         NKT. = NKT$.UE / 1            : 
OTHER_2            .         Kedr.exe версия 3.3.2.43      : 
OTHER_3            .         KedrData.dll версия 3.3.2.22  : 
OTHER_4            .         Драйвер версия 2.1.1.3        : 
OTHER_5            .         Мнемоники версия 3.3 S        : 
OTHER_6            .         Прибор_ РК4-38                : 
OTHER_7            .         Номер прибора_ 35с            : 
OTHER_8            .         Режим_ РК4-38                 : 
OTHER_9            .         Форма_ 3                      : 
PROJECT_UPGRADE_TIME .         2021-03-18T21_24_49           : 
TLFamily_DEPT      .         Measured Depth                : 
TLFamily_GK        .         Gamma Ray                     : 
TLFamily_GK$       .                                       : 
TLFamily_LM        .         Casing Collar locator         : 
TLFamily_METKA     .                                       : 
TLFamily_NKT       .         Neutron Far                   : 
TLFamily_NKT$      .         Neutron Far                   : 
TLFamily_RCOR      .                                       : 
TLFamily_SPID      .         Spontaneous Potential         : 
TLFamily_TENS      .         Cable Tension                 : 
TLFamily_TIME      .         Time                          : 
TLFamily_TM        .         Temperature                   : 
TLFamily_TM$       .         Temperature                   : 
group              .         prim                          : 
~Curve Information
#_______________________________________________________________________________
#
#LOGNAME           .UNIT     LOG_ID                        : DESCRIPTION
#_______________________________________________________________________________
DEPT               .M                                      : 1 Глубина, м -    0.0 см 
GK                 .MKR/H                                  : 12 Гамма-активность, мкр./ч -   23.0 см 
GK$                .UE                                     : 10 Гамма-активность, усл.ед. -   23.0 см 
LM                 .                                       : 8 Локатор муфт,  -  180.0 см 
METKA              .                                       : 3 Метки,  -    0.0 см 
NKT                .                                       : 13 НКТ, прив. -  160.0 см 
NKT$               .UE                                     : 9 НКТ, усл.ед. -  160.0 см 
RCOR               .CM/KM                                  : 5 Коррекция по ролику, см/км -    0.0 см 
SPID               .M/H                                    : 2 Скорость, м/час -    0.0 см 
TENS               .T                                      : 6 Натяжение кабеля, т -    0.0 см 
TIME               .S                                      : 4 Время, сек -    0.0 см 
TM                 .GRD                                    : 11 Температура, °C -  193.0 см 
TM$                .UE                                     : 7 Температура, усл.ед. -  193.0 см 
~Ascii
# ...
172.2      4.13       163        132        0          0          0          7013       -322       0          1297.57    2.766      721       
172.4      3.98       174        171        0          0          0          7013       -316       0          1295.33    2.752      718       
172.6      3.48       150        124        0          0          0          7013       -311       0          1292.98    2.752      718       
172.8      3.32       126        126        0          0          0          7013       -317       0          1290.69    2.758      719       
173        3.7        143        87         0          0          0          7013       -296       0          1288.49    2.73       713       
173.2      3.93       160        125        0          0          0          7013       -293       0          1286.2     2.627      689       
173.4      3.82       155        152        0          0          0          7013       -311       0          1283.8     2.653      695       
173.6      3.68       148        108        0          0          0          7013       -312       0          1281.4     2.636      691       
173.8      3.65       147        130        0          0          0          7013       -311       0          1279.16    2.623      688       
174        3.63       148        77         0          0          0          7013       -312       0          1276.93    2.601      683       
174.2      3.45       148        62         0          0          0          7013       -310       0          1274.53    2.584      679       
174.4      3.35       137        101        0          0          0          7013       -308       0          1272.28    2.547      670       
174.6      3.41       133        96         0          0          0          7013       -313       0          1269.89    2.589      680       
174.8      3.56       138        121        0          0          0          7013       -312       0          1267.49    2.423      642       
175        3.61       147        218        0          0          0          7013       -315       0          1265.32    2.511      662       
175.2      3.43       146        113        0          0          0          7013       -313       0          1262.96    2.456      649       
175.4      3.13       130        126        0          0          0          7013       -315       0          1260.61    2.448      647       
175.6      3.02       118        315        0          0          0          7013       -310       0          1258.29    2.327      619       
175.8      3.14       127        156        0          0          0          7013       -316       0          1255.98    2.295      612       
176        3.08       123        73         0          0          0          7013       -311       0          1253.73    2.28       608       
176.2      3.15       124        153        0          0          0          7013       -307       0          1251.33    2.299      613       
176.4      3.32       136        212        0          0          0          7013       -310       0          1249.09    2.265      605       
176.6      3.12       128        111        0          0          0          7013       -317       0          1246.69    2.267      605       
176.8      3.14       126        148        0          0          0          7013       -313       0          1244.3     2.271      606       
177        3.06       126        142        0          0          0          7013       -311       0          1242.16    2.191      587       
177.2      2.84       125        154        0          0          0          7013       -310       0          1239.86    2.17       582       
177.4      2.63       110        195        0          0          0          7013       -308       0          1237.47    2.138      575       
177.6      2.54       103        239        0          0          0          7013       -305       0          1235.28    2.125      572       
177.8      2.58       100        262        0          0          0          7013       -308       0          1232.88    2.027      549       
178        2.68       108        139        0          0          0          7013       -304       0          1230.49    2.035      551       
178.2      2.63       108        212        0          0          0          7013       -304       0          1228.29    2.022      548       
178.4      2.61       99         2435       0          0          0          7013       -305       0          1225.99    1.971      536       
178.6      2.94       115        8421       0          0          0          7013       -312       0          1223.6     1.971      536       
178.8      3.09       126        127        0          0          0          7013       -301       0          1221.21    1.941      529       
179        2.97       119        109        0          0          0          7013       -313       0          1218.96    1.911      522       
179.2      2.98       123        106        0          0          0          7013       -316       0          1216.72    1.855      509       
179.4      2.65       110        182        0          0          0          7013       -312       0          1214.33    1.859      510       
179.6      2.28       90         186        0          0          0          7013       -308       0          1212.08    1.804      497       
179.8      2.4        90         131        0          0          0          7013       -310       0          1209.68    1.744      483       
180        2.56       97         111        2          0          0          7013       -301       0          1207.34    1.769      489       
180.2      2.69       104        93         0          0          0          7013       -300       0          1205.32    1.725      479       
180.4      2.82       108        95         0          0          0          7013       -307       0          1204.44    1.683      469       
180.6      2.9        108        119        0          0          0          7013       -312       0          1202.05    1.655      462       
180.8      2.98       118        118        0          0          0          7013       -304       0          1199.85    1.548      438       
181        2.95       121        136        0          0          0          7013       -315       0          1197.41    1.619      454       
181.2      2.86       118        109        0          0          0          7013       -316       0          1195.07    1.575      444       
181.4      2.82       112        118        0          0          0          7013       -317       0          1192.78    1.548      438       
181.6      2.89       113        88         0          0          0          7013       -310       0          1190.53    1.49       424       
181.8      2.97       121        79         0          0          0          7013       -313       0          1188.18    1.488      424       
182        2.79       121        89         0          0          0          7013       -308       0          1185.81    1.445      413       
182.2      2.36       98         85         0          0          0          7013       -319       0          1183.59    1.417      407       
182.4      2.21       82         87         0          0.001      0          7013       -317       0          1181.2     1.315      383       
182.6      2.67       102        58         0          0.004      0          7013       -304       0          1178.9     1.352      392       
182.8      2.99       127        63         0          0.019      0          7013       -303       0          1176.61    1.28       375       
183        2.34       103        98         0          0.088      0          7013       -307       0          1174.22    1.334      387       
183.2      2.09       85         84         0          0.398      0          7013       -300       0          1171.92    1.267      372       
