~Version
 VERS              .         2.0                           : CWLS LOG ASCII STANDARD - VERSION 2.0
 WRAP              .         NO                            : ONE LINE PER DEPTH STEP
 DLM               .         SPACE                         : DELIMITING CHARACTER(SPACE TAB OR COMMA)
~Well Information
#_______________________________________________________________________________
#
#PARAMETER_NAME    .UNIT     VALUE                         : DESCRIPTION
#_______________________________________________________________________________
STRT               .M        5.8                           : First reference value
STOP               .M        2774.6                        : Last reference value
STEP               .M        0.2                           : Step increment
NULL               .         -9999                         : Missing value
COMP               .                                       : Company
WELL               .         616                           : Well name
FLD                .                                       : Field
LOC                .                                       : Location
CNTY               .                                       : County
STAT               .                                       : State
CTRY               .                                       : Country
SRVC               .                                       : Service Company
DATE               .                                       : Date
API                .                                       : API number
PROJECT_UPGRADE_TIME .         2021-03-18T21_24_50           : 
group              .         Good                          : 
~Parameter Information Block
#_______________________________________________________________________________
#
#PARAMETER_NAME    .UNIT     VALUE                         : DESCRIPTION
#_______________________________________________________________________________
SET                .         D1747_D                       : 
OTHER              .         Программное обеспечение станции MONITOR-386EX 25/12/99 15_08_10   BGF V52 22/08/01 16_56_30   3.1_SNGF___BGF_N_111239: 
OTHER_10           .         Тарировки_                    : 
OTHER_11           .         <_techsia_sc_> Постоянная времени фильтра ГК  3.0 сек, kf=0.016529: 
OTHER_12           .         <_techsia_sc_> Постоянная времени фильтра ННК  3.0 сек, kf=0.016529: 
OTHER_13           .         GK.MKR/H = GK$.IMP/476        : 
OTHER_14           .         WSAT.PERC = -12.5 + 78.0 * (NKT2$.IMP / NKT1$.IMP) * 1731/33716: 
OTHER_15           .         NKT2.PRIV = NKT2$.IMP/33716   : 
OTHER_16           .         NKT1.PRIV = NKT1$.IMP/1731    : 
OTHER_2            .         Kedr.exe версия 3.3.2.32      : 
OTHER_3            .         KedrData.dll версия 3.3.2.17  : 
OTHER_4            .         Драйвер версия 2.1.1.9        : 
OTHER_5            .         Мнемоники версия 3.2 S        : 
OTHER_6            .         Прибор_ СРК-73Ц-1N            : 
OTHER_7            .         Номер прибора_ 906            : 
OTHER_8            .         Режим_ с локатором            : 
OTHER_9            .         Форма_ 623-1                  : 
PROJECT_UPGRADE_TIME .         2021-03-18T21_24_49           : 
TLFamily_DEPT      .         Measured Depth                : 
TLFamily_GK        .         Gamma Ray                     : 
TLFamily_GK$       .                                       : 
TLFamily_LM        .         Casing Collar locator         : 
TLFamily_METKA     .                                       : 
TLFamily_NKT1      .         Neutron Far                   : 
TLFamily_NKT1$     .         Neutron Far                   : 
TLFamily_NKT2      .         Neutron Near                  : 
TLFamily_NKT2$     .         Neutron Near                  : 
TLFamily_RCOR      .                                       : 
TLFamily_SPID      .         Spontaneous Potential         : 
TLFamily_TENS      .         Cable Tension                 : 
TLFamily_TIME      .         Time                          : 
TLFamily_WSAT      .         Neutron Porosity              : 
group              .         prim                          : 
~Curve Information
#_______________________________________________________________________________
#
#LOGNAME           .UNIT     LOG_ID                        : DESCRIPTION
#_______________________________________________________________________________
DEPT               .M                                      : 1 Глубина, м -    0.0 см 
GK                 .MKR/H                                  : 11 Гамма-активность, мкр./ч -   97.0 см 
GK$                .IMP                                    : 9 Гамма-активность, имп/мин -   97.0 см 
LM                 .                                       : 10 Локатор муфт,  -   27.0 см 
METKA              .                                       : 3 Метки,  -    0.0 см 
NKT1               .PRIV                                   : 14 Большой зонд приведенный,  -  278.0 см 
NKT1$              .IMP                                    : 8 Большой зонд, имп/мин -  278.0 см 
NKT2               .PRIV                                   : 13 Малый зонд приведенный,  -  289.0 см 
NKT2$              .IMP                                    : 7 Малый зонд, имп/мин -  289.0 см 
RCOR               .CM/KM                                  : 5 Коррекция по ролику, см/км -    0.0 см 
SPID               .M/H                                    : 2 Скорость, м/час -    0.0 см 
TENS               .T                                      : 6 Натяжение кабеля, т -    0.0 см 
TIME               .S                                      : 4 Время, сек -    0.0 см 
WSAT               .PERC                                   : 12 Водонасыщенная пористость, % -  284.0 см 
~Ascii
# ...
2761.8     7.19       3423       40         0          1.78       3077.99    0.98       33184.35   -421       -374       0          13117.97   38.6      
2762       7.19       3423       12         0          1.85       3207.38    0.99       33262.2    -421       -372       0          13115.97   38.45     
2762.2     7.74       3684       51         0          1.73       3001.81    0.99       33444.25   -421       -380       0          13113.92   40.34     
2762.4     7.69       3659       38         0          1.72       2978.76    1          33738.02   -421       -343       0          13111.91   41.59     
2762.6     7.69       3660       74         0          1.68       2912.36    1.01       34074.5    -421       -380       0          13110.01   39.04     
2762.8     7.31       3481       37         0          1.73       2986.94    1          33818.68   -421       -361       0          13108.01   42.11     
2763       7.44       3542       59         0          1.79       3093.77    0.99       33430.31   -421       -321       0          13106.11   36.64     
2763.2     7.39       3519       40         0          1.72       2973.91    1.01       33930.03   -421       -380       0          13104.05   40.33     
2763.4     6.8        3236       72         0          1.85       3198.26    1.02       34226.77   -421       -322       0          13102.1    37.78     
2763.6     6.55       3117       71         0          1.93       3345.46    1.01       34165.03   -421       -374       0          13100.05   36.18     
2763.8     6.32       3006       83         0          2.2        3801.48    1.04       35004.64   -421       -380       0          13098.09   35.89     
2764       6.53       3107       52         0          2.36       4085.43    1.07       36191.96   -421       -380       0          13096.14   30.44     
2764.2     6.29       2992       48         0          2.44       4217.64    1.1        37005.73   -421       -380       0          13094.19   31.51     
2764.4     6.37       3033       76         0          2.67       4613.33    1.12       37817.51   -421       -320       0          13092.19   30.56     
2764.6     6.68       3178       84         0          2.42       4180.87    1.08       36528.24   -421       -368       0          13090.12   29.94     
2764.8     6.49       3092       63         0          2.07       3577.45    1.01       34183.94   -421       -322       0          13088.12   33.45     
2765       6.59       3137       79         0          1.89       3276.03    1.02       34269.18   -421       -341       0          13086.17   37.55     
2765.2     6.69       3183       86         0          1.89       3272.14    1.01       34012.02   -421       -380       0          13084.17   38.62     
2765.4     6.79       3230       74         0          1.85       3197.58    1.03       34630.83   -421       -380       0          13082.31   41.25     
2765.6     7.22       3436       50         0          1.88       3250.27    1.04       34998.05   -421       -380       0          13080.26   41.74     
2765.8     7.14       3400       84         0          1.82       3151.91    1.03       34731.82   -421       -380       0          13078.26   37.43     
2766       7.17       3413       84         0          1.91       3308.12    1.03       34630.13   -421       -377       0          13076.3    35.26     
2766.2     7.54       3589       69         0          1.85       3206.83    1.03       34758.66   -421       -359       0          13074.3    34.34     
2766.4     7.48       3559       60         0          1.9        3280.38    1.04       34929.43   -421       -374       0          13072.3    35.21     
2766.6     7.13       3392       63         0          1.88       3255.31    1.05       35543.81   -421       -321       0          13070.29   37.36     
2766.8     6.8        3239       51         0          1.93       3346.95    1.03       34842.36   -421       -320       0          13068.34   36.03     
2767       6.37       3032       91         0          1.92       3319.04    1.03       34564.67   -421       -379       0          13066.34   36.87     
2767.2     7.1        3381       48         0          1.77       3066.53    1.04       34961.9    -421       -337       0          13064.34   41.05     
2767.4     7.31       3478       65         0          1.74       3007.1     1.05       35498.29   -421       -380       0          13062.33   39.87     
2767.6     6.9        3283       180        0          1.88       3249.08    1.05       35264.1    -421       -357       0          13060.38   38.45     
2767.8     7.18       3419       207        0          2.02       3502.98    1.02       34365.26   -421       -323       0          13058.37   35.02     
2768       6.65       3167       264        0          1.91       3300.22    1          33767.23   -421       -341       0          13056.36   36.75     
2768.2     7.14       3399       103        0          1.97       3407.95    1.01       34166.62   -421       -330       0          13054.31   33.76     
2768.4     7.2        3428       9          0          1.97       3402.19    1.01       34153      -421       -380       0          13052.31   35.93     
2768.6     7.38       3513       10         0          1.98       3424.67    1.02       34307.86   -421       -380       0          13050.35   34.18     
2768.8     8.28       3943       13         0          1.89       3263       1.04       35209.59   -421       -380       0          13048.4    36.84     
2769       8.62       4105       10         0          1.89       3266.31    1.05       35233.27   -421       -380       0          13046.45   38.39     
2769.2     8.62       4103       12         0          1.98       3430.5     1.04       34971.89   -421       -262       0          13044.5    30.45     
2769.4     8.09       3852       11         0          2.01       3483.35    1.04       34985.33   -421       -379       0          13042.34   33.55     
2769.6     8.3        3952       12         0          1.78       3073.98    1.05       35521.08   -421       -373       0          13040.34   39.62     
2769.8     8.43       4014       14         1          1.84       3176.44    1.06       35761.12   -421       -321       0          13038.39   38.64     
2770       8.55       4069       11         0          1.81       3137.31    1.06       35881.28   -421       -330       0          13036.39   39.89     
2770.2     8.8        4190       10         0          1.84       3178.57    1.07       36153.51   -421       -380       0          13035.73   39.14     
2770.4     8.49       4043       10         0          1.84       3191.75    1.12       37599.14   -421       -377       0          13033.73   42.49     
2770.6     8.37       3985       12         0          1.82       3147.73    1.16       39213.55   -421       -360       0          13031.73   48.71     
2770.8     8.65       4116       12         0          1.88       3254.58    1.21       40749.83   -421       -380       0          13029.78   47.35     
2771       8.76       4169       10         0          1.81       3132.84    1.17       39588.13   -421       -380       0          13027.77   48.23     
2771.2     8.31       3955       13         0          1.79       3095.04    1.17       39590.23   -421       -327       0          13025.76   45.97     
2771.4     8.23       3920       9          0          1.96       3389.96    1.17       39299.23   -421       -261       0          13023.76   41.96     
2771.6     7.66       3646       12         0          1.89       3278.57    1.16       39007.09   -421       -318       0          13021.45   42.89     
2771.8     8.25       3926       10         -9999      1.98       3435.57    1.17       39326.54   -9999      -9999      -9999      -9999      38.98     
2772       8.35       3976       -9999      -9999      1.94       3362.63    1.17       39602.44   -9999      -9999      -9999      -9999      40.56     
