~Version
 VERS              .         2.0                           : CWLS LOG ASCII STANDARD - VERSION 2.0
 WRAP              .         NO                            : ONE LINE PER DEPTH STEP
 DLM               .         SPACE                         : DELIMITING CHARACTER(SPACE TAB OR COMMA)
~Well Information
#_______________________________________________________________________________
#
#PARAMETER_NAME    .UNIT     VALUE                         : DESCRIPTION
#_______________________________________________________________________________
STRT               .M        3.4                           : First reference value
STOP               .M        832.4                         : Last reference value
STEP               .M        0.2                           : Step increment
NULL               .         -9999                         : Missing value
COMP               .                                       : Company
WELL               .         616                           : Well name
FLD                .                                       : Field
LOC                .                                       : Location
CNTY               .                                       : County
STAT               .                                       : State
CTRY               .                                       : Country
SRVC               .                                       : Service Company
DATE               .                                       : Date
API                .                                       : API number
PROJECT_UPGRADE_TIME .         2021-03-18T21_24_50           : 
group              .         Good                          : 
~Parameter Information Block
#_______________________________________________________________________________
#
#PARAMETER_NAME    .UNIT     VALUE                         : DESCRIPTION
#_______________________________________________________________________________
SET                .         ULN                           : 
PROJECT_UPGRADE_TIME .         2021-03-18T21_24_50           : 
TLFamily_AK4       .                                       : 
TLFamily_ALFAK     .                                       : 
TLFamily_AMPL      .                                       : 
TLFamily_DEPTH     .         Measured Depth                : 
TLFamily_DK1       .                                       : 
TLFamily_DK2       .                                       : 
TLFamily_DTK       .         Compressional Slowness        : 
TLFamily_QCBL      .                                       : 
TLFamily_T1        .         Travel Time 1                 : 
TLFamily_T2        .         Travel Time 2                 : 
group              .         prim                          : 
~Curve Information
#_______________________________________________________________________________
#
#LOGNAME           .UNIT     LOG_ID                        : DESCRIPTION
#_______________________________________________________________________________
DEPTH              .M                                      : 0 Depth curve 
AK4                .                                       : 2 Амплитуда - Волна по колонне - Канал1 
ALFAK              .дБ/м                                   : 1 Затухание - Волна по колонне 
AMPL               .                                       : 8 Коэффициент усиления ВС 
DK1                .дБ                                     : 3 Кривая ослабления - Волна по колонне - Канал1 
DK2                .дБ                                     : 4 Кривая ослабления - Волна по колонне - Канал2 
DTK                .мкс/м                                  : 5 ДельтаТ - Волна по породе 
QCBL               .                                       : 9 Контакт цемент-колонна 
T1                 .мкс                                    : 6 Время пробега - Волна по породе - Канал1 
T2                 .мкс                                    : 7 Время пробега - Волна по породе - Канал2 
~Ascii
# ...
164        22901.41   15.087     1          3.236      10.78      197.533    2          364.395    463.161   
164.2      22414.81   15.106     1          3.424      10.977     196.256    2          365.092    463.22    
164.4      22097.2    15.565     1          3.548      11.331     195.017    2          365.761    463.27    
164.6      21366.85   15.581     1          3.841      11.632     193.819    2          366.422    463.332   
164.8      20954.13   16.125     1          4.011      12.073     193.84     2          366.414    463.334   
165        20388.97   16.222     1          4.245      12.356     191.331    2          366.936    462.601   
165.2      20346.1    16.466     1          4.264      12.497     190.105    2          367.433    462.486   
165.4      20549.86   16.411     1          4.179      12.384     190.391    2          366.797    461.993   
165.6      20906.05   16.656     1          4.029      12.357     192.709    2          365.631    461.985   
165.8      21568.12   16.792     1          3.76       12.156     196.291    2          363.779    461.924   
166        21983.55   16.706     1          3.594      11.947     197.324    2          363.06     461.722   
166.2      22398.98   16.109     1          3.428      11.483     198.63     2          362.341    461.656   
166.4      22040.31   15.538     1          3.571      11.34      196.848    2          363.429    461.853   
166.6      21681.63   15.281     1          3.713      11.354     194.816    2          364.518    461.926   
166.8      21259.91   15.488     1          3.882      11.626     194.062    2          365.134    462.165   
167        21366.46   16.051     1          3.839      11.864     194.891    2          364.471    461.917   
167.2      21473.01   16.476     1          3.795      12.033     195.322    2          363.808    461.469   
167.4      21533.54   16.511     1          3.771      12.026     195.033    2          363.771    461.288   
167.6      21348.98   16.798     1          3.846      12.245     195.28     2          363.802    461.442   
167.8      21164.43   16.805     1          3.921      12.323     196.088    2          363.832    461.876   
168        21387.95   16.748     1          3.831      12.205     197.276    2          363.238    461.876   
168.2      21686.96   16.072     1          3.71       11.747     198.204    2          362.767    461.869   
168.4      21985.97   15.788     1          3.59       11.484     199.316    2          362.297    461.955   
168.6      21963.97   15.407     1          3.599      11.302     198.602    2          362.128    461.429   
168.8      21941.98   15.125     1          3.607      11.17      198.699    2          361.959    461.308   
169        21973.52   14.656     1          3.595      10.923     197.565    2          361.947    460.73    
169.2      22027.07   14.36      1          3.574      10.754     198.23     2          362.105    461.22    
169.4      22067.09   14.664     1          3.558      10.89      197.976    2          362.185    461.173   
169.6      21896.82   14.084     1          3.626      10.667     199.145    2          362.183    461.755   
169.8      21387.88   15.548     1          3.581      11.355     202.315    2          363.475    463.28    
170        20553.79   16.07      1          3.929      12.221     205.039    2          366.138    467.305   
170.2      18113.99   17.148     1          5.13       13.961     203.36     2          369.489    469.817   
170.4      16012.88   17.018     1          6.443      15.208     197.898    2          371.547    470.496   
170.6      17130.63   20.388     1          5.984      16.178     197.095    2          370.126    468.674   
170.8      20010.83   24.597     1          4.612      16.91      200.472    2          367.942    468.178   
171        22891.03   27.482     1          3.239      16.98      204.365    2          365.758    467.94    
171.2      22395.53   23.811     1          3.441      16.12      201.838    2          364.46     466.42    
171.4      21404.52   22.547     1          3.844      15.891     197.2      2          363.948    463.589   
171.6      20413.52   20.801     1          4.246      15.421     192.056    2          363.436    460.505   
171.8      19918.01   22.827     1          4.448      15.861     190.123    2          364.221    459.283   
172        19918.01   21.429     1          4.448      15.162     190.278    2          364.221    459.36    
172.2      19918.01   20.536     1          4.448      14.716     192.5      2          364.221    460.471   
172.4      19918.01   19.479     1          4.448      14.187     192.674    2          364.221    460.558   
172.6      19477.33   18.551     1          4.647      13.922     193.494    2          364.022    460.768   
172.8      19036.65   17.986     1          4.846      13.839     193.947    2          363.822    460.795   
173        18485.22   17.53      1          5.097      13.862     193.771    2          363.862    460.748   
173.2      18374.47   17.545     1          5.149      13.921     193.136    2          364.102    460.67    
173.4      18213.21   17.425     1          5.225      13.938     193.171    2          364.131    460.716   
173.6      18632.68   17.705     1          5.032      13.885     193.574    2          364.538    461.325   
173.8      19052.15   18.175     1          4.839      13.927     193.619    2          364.945    461.754   
174        19056.91   18.58      1          4.837      14.127     193.071    2          365.152    461.687   
174.2      19055.71   18.142     1          5.181      14.252     192.868    2          364.686    461.12    
174.4      19518.53   18.614     1          4.982      14.289     191.596    2          364.896    460.694   
174.6      20446.58   19.141     1          4.569      14.139     189.468    2          365.517    460.251   
174.8      20910.61   19.396     1          4.025      13.724     189.088    2          366.193    460.737   
175        20910.61   18.545     1          4.025      13.298     190.207    2          366.193    461.296   
175.2      21070.54   17.879     1          3.96       12.899     192.661    2          366.021    462.351   
175.4      21230.48   17.183     1          3.894      12.485     194.299    2          365.849    462.999   
175.6      21390.42   16.508     1          3.828      12.083     194.482    2          365.677    462.918   
175.8      21321.79   16.181     1          3.856      11.947     194.449    2          365.755    462.979   
176        21253.15   16.456     1          3.884      12.113     193.476    2          365.833    462.57    
176.2      20778.97   16.151     1          4.084      12.159     193.601    2          365.91     462.71    
176.4      20373.44   15.688     1          4.255      12.099     192.238    2          365.909    462.028   
176.6      19963.68   15.297     1          4.428      12.077     191.542    2          366.016    461.787   
176.8      20190.64   15.525     1          4.331      12.093     190.174    2          366.62     461.706   
177        20417.6    15.353     1          4.234      11.91      189.379    2          367.223    461.912   
177.2      20764.57   15.273     1          4.087      11.723     189.806    2          367.262    462.165   
177.4      20880.36   15.237     1          4.038      11.657     190.586    2          366.807    462.1     
177.6      20996.15   15         1          3.99       11.49      191.634    2          366.352    462.168   
177.8      21331.1    14.635     1          3.855      11.172     192.986    2          365.632    462.124   
178        21666.05   14.67      1          3.719      11.054     195.778    2          364.911    462.8     
178.2      21896.8    15.209     1          3.625      11.23      197.073    2          364.243    462.779   
178.4      21784.11   15.202     1          3.67       11.271     195.72     2          364.853    462.713   
