~Version
 VERS              .         2.0                           : CWLS LOG ASCII STANDARD - VERSION 2.0
 WRAP              .         NO                            : ONE LINE PER DEPTH STEP
 DLM               .         SPACE                         : DELIMITING CHARACTER(SPACE TAB OR COMMA)
~Well Information
#_______________________________________________________________________________
#
#PARAMETER_NAME    .UNIT     VALUE                         : DESCRIPTION
#_______________________________________________________________________________
STRT               .M        10.2                          : First reference value
STOP               .M        2753.6                        : Last reference value
STEP               .M        0.2                           : Step increment
NULL               .         -9999                         : Missing value
COMP               .                                       : Company
WELL               .         616                           : Well name
FLD                .                                       : Field
LOC                .                                       : Location
CNTY               .                                       : County
STAT               .                                       : State
CTRY               .                                       : Country
SRVC               .                                       : Service Company
DATE               .                                       : Date
API                .                                       : API number
PROJECT_UPGRADE_TIME .         2021-03-18T21_24_50           : 
group              .         Good                          : 
~Parameter Information Block
#_______________________________________________________________________________
#
#PARAMETER_NAME    .UNIT     VALUE                         : DESCRIPTION
#_______________________________________________________________________________
SET                .         D7028_D                       : 
OTHER              .         Kedr.exe версия 2.1.2.32      : 
OTHER_10           .         TM.GRD = 0.00404*TM$.UE + 0.07: 
OTHER_11           .         MN.ATM = (6.33279e-006*TM.GRD + 0.02401)*(MN$.UE + 2.72*TM.GRD + -2018): 
OTHER_12           .         GK.MKR/H = GK$.UE / 43.5489 + 0: 
OTHER_13           .         RES.SM = 0.00476*CRES.UE - 1.51709: 
OTHER_14           .         PL.GSM3 = 0 + 0 * (PL.UE / 1) +  0 * (PL.UE / 1)^2: 
OTHER_15           .         Постоянная времени ГГП = 6 сек: 
OTHER_16           .         Постоянная времени ГК = 6 сек : 
OTHER_2            .         KedrData.dll версия 3.2.2.14  : 
OTHER_3            .         LasInf.dll версия 3.2.0.13    : 
OTHER_4            .         Драйвер версия 1.2.0.5        : 
OTHER_5            .         Прибор_ КСА-M1                : 
OTHER_6            .         Номер прибора_ 155+р204       : 
OTHER_7            .         Режим_ КСА-М1 + ГГП + Резистивиметр: 
OTHER_8            .         Форма_ 223\2                  : 
OTHER_9            .         Тарировки_                    : 
PROJECT_UPGRADE_TIME .         2021-03-18T21_24_50           : 
TLFamily_CRES      .                                       : 
TLFamily_DEPT      .         Measured Depth                : 
TLFamily_GK        .         Gamma Ray                     : 
TLFamily_GK$       .                                       : 
TLFamily_LM        .         Casing Collar locator         : 
TLFamily_METKA     .                                       : 
TLFamily_MN        .                                       : 
TLFamily_MN$       .                                       : 
TLFamily_PL        .                                       : 
TLFamily_PL_2      .                                       : 
TLFamily_RCOR      .                                       : 
TLFamily_RES       .         Mud Resistivity               : 
TLFamily_SPID      .         Spontaneous Potential         : 
TLFamily_STD       .                                       : 
TLFamily_TIME      .         Time                          : 
TLFamily_TM        .         Temperature                   : 
TLFamily_TM$       .         Temperature                   : 
TLFamily_VGD       .         Gas Volume                    : 
group              .         prim                          : 
~Curve Information
#_______________________________________________________________________________
#
#LOGNAME           .UNIT     LOG_ID                        : DESCRIPTION
#_______________________________________________________________________________
DEPT               .M                                      : 1 Глубина, м -    0.0 см 
CRES               .UE                                     : 9 Проводимость, усл.ед. -  222.0 см 
GK                 .MKR/H                                  : 16 Гамма-активность, мкр./ч -  106.0 см 
GK$                .UE                                     : 13 Гамма-активность, усл.ед. -  106.0 см 
LM                 .                                       : 11 Локатор муфт,  -   16.0 см 
METKA              .                                       : 3 Метки,  -    0.0 см 
MN                 .ATM                                    : 15 Давление, атм. -  160.0 см 
MN$                .UE                                     : 7 Давление, усл.ед. -  160.0 см 
PL                 .UE                                     : 10 Плотность, усл.ед. -  270.0 см 
PL_2               .GSM3                                   : 18 Плотность, г./см3 -  270.0 см 
RCOR               .CM/KM                                  : 5 Коррекция по ролику, см/км -    0.0 см 
RES                .SM                                     : 17 Проводимость,  -  222.0 см 
SPID               .M/H                                    : 2 Скорость, м/час -    0.0 см 
STD                .                                       : 12 Приток,  -  170.0 см 
TIME               .S                                      : 4 Время, сек -    0.0 см 
TM                 .GRD                                    : 14 Температура, °C -  180.0 см 
TM$                .UE                                     : 6 Температура, усл.ед. -  180.0 см 
VGD                .                                       : 8 Влагомер,  -  170.0 см 
~Ascii
10.2       -9999      -9999      -9999      -9999      -9999      -9999      -9999      -9999      -9999      -9999      -9999      -9999      -9999      -9999      -9999      -9999      -9999     
10.4       -9999      -9999      -9999      -9999      0          -9999      -9999      -9999      -9999      0          -9999      -1689      -9999      24193.95   -9999      -9999      -9999     
10.6       -9999      -9999      -9999      1578       0          -9999      -9999      -9999      -9999      0          -9999      -1540      -9999      24193.53   -9999      -9999      -9999     
10.8       -9999      -9999      -9999      700        0          -9999      -9999      -9999      -9999      0          -9999      -1746      -9999      24193.11   -9999      -9999      -9999     
11         -9999      -9999      -9999      1013       0          -9999      -9999      -9999      -9999      0          -9999      -1860      -9999      24192.66   -9999      -9999      -9999     
11.2       -9999      -9999      -9999      1408       0          -9999      -9999      -9999      -9999      0          -9999      -1802      -9999      24192.24   -9999      -9999      -9999     
11.4       -9999      1.41       62         1638       0          -9999      -9999      -9999      -9999      0          -9999      -1530      -9999      24191.87   -9999      -9999      -9999     
11.6       -9999      1.41       62         1129       0          -9999      -9999      -9999      -9999      0          -9999      -1790      -9999      24191.42   -9999      -9999      -9999     
11.8       -9999      1.4        62         1363       0          -9999      -9999      -9999      -9999      0          -9999      -1871      -9999      24190.97   -9999      -9999      -9999     
12         -9999      1.4        62         1192       0          0.955      2014       -9999      -9999      0          -9999      -1654      3134       24190.57   -9999      -9999      6617      
12.2       -9999      1.39       60         1561       0          0.971      2015       -9999      -9999      0          -9999      -1540      3133       24190.19   16.026     3950       6617      
12.4       -9999      1.39       60         1775       0          0.999      2016       -9999      -9999      0          -9999      -1822      3134       24189.76   16.028     3950       6617      
12.6       648        1.39       60         883        0          1.004      2016       -9999      -9999      0          1.5674     -1730      3133       24189.31   16.028     3950       6617      
12.8       648        1.4        60         1070       0          1.034      2017       -9999      -9999      0          1.5674     -1692      3132       24188.9    16.028     3950       6617      
13         647        1.4        60         1394       0          1.075      2019       14         0          0          1.564      -1629      3133       24188.52   16.024     3949       6617      
13.2       647        1.41       60         1485       0          1.075      2019       14         0          0          1.5626     -1920      3133       24188.06   16.025     3949       6618      
13.4       646        1.41       60         1959       0          1.09       2020       14         0          0          1.5581     -1800      3134       24187.63   16.026     3950       6618      
13.6       647        1.42       60         2730       0          1.116      2021       15         0          0          1.5626     -1600      3133       24187.24   16.024     3949       6615      
13.8       647        1.44       60         4106       0          1.123      2021       14         0          0          1.564      -1540      3135       24186.85   16.024     3949       6617      
14         647        1.45       60         6156       0          1.144      2022       13         0          0          1.5626     -1980      3134       24186.39   16.021     3948       6618      
14.2       647        1.47       60         1593       0          1.174      2023       13         0          0          1.5636     -1920      3135       24185.95   16.023     3949       6619      
14.4       648        1.5        60         1033       0          1.2        2024       13         0          0          1.5674     -1600      3134       24185.58   16.028     3950       6618      
14.6       648        1.53       63         795        0          1.22       2025       13         0          0          1.5674     -1600      3134       24185.2    16.024     3949       6617      
14.8       647        1.55       67         851        0          1.22       2025       14         0          0          1.5626     -1803      3134       24184.71   16.024     3949       6617      
15         649        1.55       67         1072       0          1.22       2025       14         0          0          1.5712     -1679      3134       24184.29   16.024     3949       6619      
15.2       647        1.56       67         1401       0          1.269      2027       13         0          0          1.5626     -1540      3134       24183.91   16.024     3949       6619      
15.4       647        1.56       67         1524       0          1.292      2028       13         0          0          1.5642     -1633      3135       24183.51   16.024     3949       6617      
15.6       648        1.57       67         1639       0          1.316      2029       14         0          0          1.5674     -1980      3137       24183.02   16.024     3949       6618      
15.8       648        1.58       68         1826       0          1.341      2030       13         0          0          1.5674     -1892      3136       24182.61   16.024     3949       6617      
16         648        1.58       71         1469       0          1.35       2030       13         0          0          1.5674     -1580      3135       24182.24   16.028     3950       6617      
16.2       647        1.57       71         1255       0          1.389      2032       14         0          0          1.5633     -1730      3136       24181.82   16.029     3950       6618      
16.4       646        1.55       71         881        0          1.402      2033       14         0          0          1.5581     -1842      3137       24181.36   16.031     3951       6618      
16.6       647        1.53       71         1246       0          1.43       2034       13         0          0          1.5626     -1612      3136       24180.96   16.03      3951       6618      
16.8       647        1.5        71         125        0          1.454      2035       14         0          0          1.5633     -1470      3137       24180.58   16.035     3952       6617      
17         648        1.47       66         138        0          1.462      2035       14         0          0          1.5683     -1814      3138       24180.14   16.036     3952       6618      
17.2       647        1.46       65         175        0          1.489      2036       14         0          0          1.5626     -1790      3139       24179.66   16.036     3952       6618      
17.4       648        1.45       65         182        0          1.51       2037       14         0          0          1.5655     -1728      3138       24179.28   16.04      3953       6618      
17.6       647        1.43       65         262        0          1.51       2037       14         0          0          1.5642     -1646      3139       24178.9    16.04      3953       6617      
17.8       648        1.42       65         382        0          1.526      2038       13         0          0          1.5674     -1920      3138       24178.46   16.04      3953       6618      
18         648        1.4        65         577        0          1.559      2039       13         0          0          1.5669     -1783      3140       24178      16.043     3954       6619      
18.2       647        1.37       60         823        0          1.575      2040       14         0          0          1.5626     -1632      3139       24177.63   16.046     3954       6619      
