~Version
 VERS              .         2.0                           : CWLS LOG ASCII STANDARD - VERSION 2.0
 WRAP              .         NO                            : ONE LINE PER DEPTH STEP
 DLM               .         SPACE                         : DELIMITING CHARACTER(SPACE TAB OR COMMA)
~Well Information
#_______________________________________________________________________________
#
#PARAMETER_NAME    .UNIT     VALUE                         : DESCRIPTION
#_______________________________________________________________________________
STRT               .M        209.2                         : First reference value
STOP               .M        612.6                         : Last reference value
STEP               .M        0.2                           : Step increment
NULL               .         -9999                         : Missing value
COMP               .                                       : Company
WELL               .         616                           : Well name
FLD                .                                       : Field
LOC                .                                       : Location
CNTY               .                                       : County
STAT               .                                       : State
CTRY               .                                       : Country
SRVC               .                                       : Service Company
DATE               .                                       : Date
API                .                                       : API number
PROJECT_UPGRADE_TIME .         2021-03-18T21_24_50           : 
group              .         Good                          : 
~Parameter Information Block
#_______________________________________________________________________________
#
#PARAMETER_NAME    .UNIT     VALUE                         : DESCRIPTION
#_______________________________________________________________________________
SET                .         616_3                         : 
CONF               .         00                            : 
END                .         0                             : 
ERR                .         0                             : 
GS00               .M        0610.64                       : 
GS01               .M        0206.79                       : 
MM00               .M        0060.00                       : 
NOKG               .         1                             : 
NPR                .         980119                        : 
PART               .         Палагутин                     : 
PROJECT_UPGRADE_TIME .         2021-03-18T21_24_49           : 
PRZK               .         Шакиров                       : 
TLFamily_AZIMUTH   .         True Dip Azimuth              : 
TLFamily_DEPTH     .         Measured Depth                : 
TLFamily_METKA     .                                       : 
TLFamily_ROLL      .                                       : 
TLFamily_SPEED     .         Spontaneous Potential         : 
TLFamily_ZENIT     .                                       : 
VPRG               .         310                           : 
WAY                .         UP                            : 
group              .         prim                          : 
~Curve Information
#_______________________________________________________________________________
#
#LOGNAME           .UNIT     LOG_ID                        : DESCRIPTION
#_______________________________________________________________________________
DEPTH              .M                                      :  
AZIMUTH            .DEG                                    :  
METKA              .                                       :  
ROLL               .DEG                                    :  
SPEED              .M/H                                    :  
ZENIT              .DEG                                    :  
~Ascii
# ...
599.6      260.83     0          159.17     468        27.5      
599.8      259.27     0          157.9      504        27.63     
600        259.04     0          157.08     468        27.38     
600.2      258.56     0          154.78     540        27.29     
600.4      257.59     0          153.38     468        27.05     
600.6      258.35     0          150.87     504        27.15     
600.8      258.34     0          146.14     504        27.05     
601        257.57     0          141.05     468        27.02     
601.2      257.76     0          137.06     504        27.14     
601.4      257.99     0          133.28     468        27.12     
601.6      257.12     0          129.85     468        26.92     
601.8      258.14     0          126.78     468        26.86     
602        258.39     0          124.28     504        26.96     
602.2      257.68     0          121.15     468        26.77     
602.4      259.85     0          116.38     468        27.08     
602.6      259.21     0          111.94     504        27.1      
602.8      258.66     0          107.01     504        26.99     
603        261.22     0          99.35      468        27.17     
603.2      260.06     0          80.91      504        27.41     
603.4      259.4      1          62.69      432        27.36     
603.6      264.26     0          50.23      756        27.93     
603.8      255.98     0          24.88      468        27.43     
604        255.96     0          359.18     504        26.38     
604.2      257.74     2          347.36     468        27.19     
604.4      259.59     0          338.35     108        27.1      
604.6      259.29     0          320.75     144        27.02     
604.8      259.65     0          301.58     144        27.1      
605        259.55     0          279.95     144        27.17     
605.2      259.39     0          262.5      144        27.24     
605.4      258.95     0          251.28     144        27.23     
605.6      259.07     0          244.37     144        27.23     
605.8      258.77     0          241.04     144        27.23     
606        258.84     0          239.82     144        27.26     
606.2      259.36     0          239.62     144        27.27     
606.4      259.07     0          239.82     144        27.15     
606.6      259.51     0          239.17     144        27.22     
606.8      259.46     0          236.83     144        27.16     
607        261.31     0          227.87     144        27.5      
607.2      260.57     0          198.83     144        27.28     
607.4      260.7      0          185.65     144        27.23     
607.6      261.38     0          176.14     144        27.27     
607.8      261.67     0          168.34     144        27.21     
608        262.43     0          162.44     144        27.26     
608.2      263.45     0          154.68     144        27.27     
608.4      264.23     0          137.74     144        27.22     
608.6      266.08     0          120.18     144        27.34     
608.8      267.39     0          98.93      144        27.36     
609        269.69     0          72.61      144        27.54     
609.2      271.8      0          50.06      144        27.54     
609.4      275.99     2          341.9      504        26.62     
609.6      285.19     0          300.02     432        26.9      
609.8      294.02     0          263.37     504        27.79     
610        302.73     0          239.14     468        28        
610.2      314.75     0          211.98     504        27.89     
610.4      330.82     0          182.99     468        27.77     
610.6      346.04     0          160.82     504        27.09     
610.8      355.25     0          127.78     504        27.13     
611        159.65     0          85.92      504        28.77     
611.2      170.69     0          43.31      432        29.24     
611.4      182.64     0          2.05       504        27.78     
611.6      185.77     0          326.21     432        27.26     
611.8      168.91     0          313.36     504        28.33     
612        168.99     0          312.88     504        28.32     
612.2      168.99     1          312.89     504        28.33     
612.4      168.95     0          312.9      684        28.33     
612.6      168.94     0          312.9      432        28.31     
