~Version
 VERS              .         2.0                           : CWLS LOG ASCII STANDARD - VERSION 2.0
 WRAP              .         NO                            : ONE LINE PER DEPTH STEP
 DLM               .         SPACE                         : DELIMITING CHARACTER(SPACE TAB OR COMMA)
~Well Information
#_______________________________________________________________________________
#
#PARAMETER_NAME    .UNIT     VALUE                         : DESCRIPTION
#_______________________________________________________________________________
STRT               .M        2310.8                        : First reference value
STOP               .M        2792.2                        : Last reference value
STEP               .M        0.2                           : Step increment
NULL               .         -9999                         : Missing value
COMP               .                                       : Company
WELL               .         616                           : Well name
FLD                .                                       : Field
LOC                .                                       : Location
CNTY               .                                       : County
STAT               .                                       : State
CTRY               .                                       : Country
SRVC               .                                       : Service Company
DATE               .                                       : Date
API                .                                       : API number
PROJECT_UPGRADE_TIME .         2021-03-18T21_24_50           : 
group              .         Good                          : 
~Parameter Information Block
#_______________________________________________________________________________
#
#PARAMETER_NAME    .UNIT     VALUE                         : DESCRIPTION
#_______________________________________________________________________________
SET                .         D2660_D                       : 
OTHER              .         Программное обеспечение станции MONITOR-386EX 25/12/99 15_08_10   BGF V50 26/12/00 07_26_01   3.1_SNGF___BGF_N_092085: 
OTHER_10           .         Тарировки_                    : 
OTHER_2            .         Kedr.exe версия 3.3.2.32      : 
OTHER_3            .         KedrData.dll версия 3.3.2.17  : 
OTHER_4            .         Драйвер версия 2.1.0.1        : 
OTHER_5            .         Мнемоники версия 3.3 S        : 
OTHER_6            .         Прибор_ ПС                    : 
OTHER_7            .         Номер прибора_ 348\072        : 
OTHER_8            .         Режим_ ПС                     : 
OTHER_9            .         Форма_ ПС                     : 
PROJECT_UPGRADE_TIME .         2021-03-18T21_24_49           : 
TLFamily_DEPT      .         Measured Depth                : 
TLFamily_METKA     .                                       : 
TLFamily_PS        .         Spontaneous Potential         : 
TLFamily_RCOR      .                                       : 
TLFamily_SPID      .         Spontaneous Potential         : 
TLFamily_TENS      .         Cable Tension                 : 
TLFamily_TIME      .         Time                          : 
group              .         prim                          : 
~Curve Information
#_______________________________________________________________________________
#
#LOGNAME           .UNIT     LOG_ID                        : DESCRIPTION
#_______________________________________________________________________________
DEPT               .M                                      : 1 Глубина, м -    0.0 см 
METKA              .                                       : 3 Метки,  -    0.0 см 
PS                 .mV                                     : 7 ПС, мВ - 1210.0 см 
RCOR               .CM/KM                                  : 5 Коррекция по ролику, см/км -    0.0 см 
SPID               .M/H                                    : 2 Скорость, м/час -    0.0 см 
TENS               .T                                      : 6 Натяжение кабеля, т -    0.0 см 
TIME               .S                                      : 4 Время, сек -    0.0 см 
~Ascii
# ...
2622.8     0          538.9      -370       -1975      0          30161.22  
2623       0          539.7      -370       -1945      0          30160.87  
2623.2     0          539.96     -370       -1950      0          30160.51  
2623.4     0          540.85     -370       -2050      0          30160.15  
2623.6     0          541.52     -370       -2050      0          30159.8   
2623.8     0          541.34     -370       -2049      0          30159.42  
2624       0          540.86     -370       -2045      0          30159.06  
2624.2     0          540.22     -370       -2020      0          30158.72  
2624.4     0          539.86     -370       -1980      0          30158.38  
2624.6     0          540.53     -370       -1983      0          30158.02  
2624.8     0          540.82     -370       -1999      0          30157.66  
2625       0          538.92     -370       -2049      0          30157.31  
2625.2     0          534.52     -370       -2046      0          30156.95  
2625.4     0          534.87     -370       -2019      0          30156.57  
2625.6     0          536.76     -370       -1925      0          30156.23  
2625.8     0          539.01     -370       -1954      0          30155.87  
2626       0          539.81     -370       -1993      0          30155.52  
2626.2     0          540.7      -370       -2050      0          30155.16  
2626.4     0          538.82     -370       -2050      0          30154.79  
2626.6     0          540.32     -370       -2049      0          30154.43  
2626.8     0          539.07     -370       -2043      0          30154.08  
2627       0          538.82     -370       -2004      0          30153.73  
2627.2     0          539.17     -370       -1934      0          30153.41  
2627.4     0          539.66     -370       -2012      0          30153.03  
2627.6     0          538.81     -370       -2034      0          30152.68  
2627.8     0          540.3      -370       -1980      0          30152.32  
2628       0          540.77     -370       -1982      0          30151.95  
2628.2     0          541.42     -370       -1992      0          30151.6   
2628.4     0          542.07     -370       -2046      0          30151.24  
2628.6     0          542.48     -370       -2023      0          30150.89  
2628.8     0          542.2      -370       -1989      0          30150.54  
2629       0          541.46     -370       -2043      0          30150.18  
2629.2     0          542.14     -370       -2027      0          30149.82  
2629.4     0          541.8      -370       -1980      0          30149.48  
2629.6     0          541.36     -370       -1980      0          30149.09  
2629.8     1          540.41     -370       -1981      0          30148.74  
2630       0          541.85     -370       -1987      0          30148.38  
2630.2     0          542.1      -369       -2024      0          30148.04  
2630.4     0          542.85     -369       -2036      0          30147.68  
2630.6     0          542.44     -369       -1980      0          30147.31  
2630.8     0          541.95     -369       -1980      0          30146.95  
2631       0          542.68     -369       -1981      0          30146.6   
2631.2     0          543.04     -369       -1983      0          30146.24  
2631.4     0          543.58     -369       -2003      0          30145.89  
2631.6     0          543.98     -369       -2041      0          30145.51  
2631.8     0          544        -369       -1996      0          30145.19  
2632       0          544.77     -369       -1981      0          30144.83  
2632.2     0          544.52     -369       -1987      0          30144.46  
2632.4     0          545.1      -369       -2028      0          30144.1   
2632.6     0          545.35     -369       -2049      0          30143.75  
2632.8     0          544.48     -369       -2044      0          30143.39  
2633       0          545.48     -369       -2013      0          30143.04  
2633.2     0          545.26     -369       -1980      0          30142.7   
2633.4     0          544.79     -369       -1980      0          30142.34  
2633.6     0          545.7      -369       -1981      0          30141.99  
2633.8     0          546.25     -369       -1989      0          30141.61  
2634       0          546.27     -369       -2037      0          30141.26  
2634.2     0          547.1      -369       -2029      0          30140.87  
2634.4     0          546.89     -369       -1986      0          30140.55  
2634.6     0          545.38     -369       -2021      0          30140.2   
2634.8     0          547.54     -369       -2034      0          30139.83  
2635       0          548.23     -369       -1980      0          30139.47  
2635.2     0          548.8      -369       -1982      0          30139.11  
2635.4     0          548.52     -369       -1993      0          30138.76  
2635.6     0          548.69     -369       -2050      0          30138.4   
2635.8     0          547.77     -369       -2047      0          30138.03  
2636       0          548.71     -369       -2032      0          30137.7   
2636.2     0          547.67     -369       -1936      0          30137.36  
2636.4     0          548.28     -369       -1942      0          30136.99  
2636.6     0          547.63     -369       -1988      0          30136.63  
2636.8     0          548.18     -369       -2034      0          30136.28  
2637       0          548.23     -369       -2049      0          30135.9   
2637.2     0          548.46     -369       -2045      0          30135.55  
2637.4     0          548.53     -369       -2015      0          30135.18  
2637.6     0          548.71     -369       -1990      0          30134.86  
2637.8     0          549.04     -369       -2043      0          30134.5   
2638       0          548.71     -369       -2000      0          30134.13  
2638.2     0          549.29     -369       -1938      0          30133.78  
2638.4     0          548.65     -369       -2043      0          30133.42  
2638.6     0          549.25     -369       -2049      0          30133.06  
2638.8     0          548.45     -369       -2042      0          30132.71  
2639       0          548.6      -369       -1993      0          30132.36  
2639.2     0          548.49     -369       -1981      0          30132.01  
2639.4     0          548.54     -369       -1985      0          30131.67  
2639.6     0          549.45     -369       -2021      0          30131.28  
2639.8     1          550.11     -369       -2050      0          30130.92  
2640       0          549.9      -366       -2050      0          30130.52  
2640.2     0          549.69     -366       -2048      0          30130.17  
2640.4     0          549.84     -366       -2037      0          30129.79  
2640.6     0          549.44     -366       -1980      0          30129.46  
2640.8     0          549.97     -366       -1981      0          30129.11  
2641       0          549.64     -366       -1989      0          30128.74  
2641.2     0          549.37     -366       -2043      0          30128.38  
2641.4     0          548.23     -366       -2028      0          30128.03  
2641.6     0          549.51     -366       -1987      0          30127.68  
2641.8     0          550.06     -366       -2026      0          30127.33  
2642       0          549.81     -366       -2020      0          30126.98  
2642.2     0          550.51     -366       -1932      0          30126.6   
2642.4     0          549.75     -366       -2003      0          30126.25  
2642.6     0          550.26     -366       -2036      0          30125.89  
2642.8     0          549        -366       -1985      0          30125.54  
2643       0          549.41     -366       -2017      0          30125.16  
2643.2     0          549.67     -366       -2049      0          30124.81  
2643.4     0          550.15     -366       -2047      0          30124.48  
