~Version
 VERS              .         2.0                           : CWLS LOG ASCII STANDARD - VERSION 2.0
 WRAP              .         NO                            : ONE LINE PER DEPTH STEP
 DLM               .         SPACE                         : DELIMITING CHARACTER(SPACE TAB OR COMMA)
~Well Information
#_______________________________________________________________________________
#
#PARAMETER_NAME    .UNIT     VALUE                         : DESCRIPTION
#_______________________________________________________________________________
STRT               .M        2700.4                        : First reference value
STOP               .M        2799                          : Last reference value
STEP               .M        0.2000002                     : Step increment
NULL               .         -9999                         : Missing value
COMP               .                                       : Company
WELL               .         616                           : Well name
FLD                .                                       : Field
LOC                .                                       : Location
CNTY               .                                       : County
STAT               .                                       : State
CTRY               .                                       : Country
SRVC               .                                       : Service Company
DATE               .                                       : Date
API                .                                       : API number
PROJECT_UPGRADE_TIME .         2021-03-18T21_24_50           : 
group              .         Good                          : 
~Parameter Information Block
#_______________________________________________________________________________
#
#PARAMETER_NAME    .UNIT     VALUE                         : DESCRIPTION
#_______________________________________________________________________________
SET                .         D2658_D                       : 
OTHER              .         Программное обеспечение станции MONITOR-386EX 25/12/99 15_08_10   BGF V50 26/12/00 07_26_01   3.1_SNGF___BGF_N_092085: 
OTHER_10           .         Тарировки_                    : 
OTHER_11           .         <_techsia_sc_> Постоянная времени фильтра ПС  0.5 сек, kf=0.139292: 
OTHER_2            .         Kedr.exe версия 3.3.2.32      : 
OTHER_3            .         KedrData.dll версия 3.3.2.17  : 
OTHER_4            .         Драйвер версия 2.1.0.7        : 
OTHER_5            .         Мнемоники версия 3.3 S        : 
OTHER_6            .         Прибор_ К1a-723м              : 
OTHER_7            .         Номер прибора_ 348/72         : 
OTHER_8            .         Режим_ K1A-723M               : 
OTHER_9            .         Форма_ БКЗ                    : 
PROJECT_UPGRADE_TIME .         2021-03-18T21_24_49           : 
TLFamily_BK        .         Lateral Log Resistivity       : 
TLFamily_DEPT      .         Measured Depth                : 
TLFamily_GZ1       .         Extra Shallow Resistivity     : 
TLFamily_GZ2       .         Shallow Resistivity           : 
TLFamily_GZ3       .         Medium Resistivity            : 
TLFamily_GZ4       .         Deep Resistivity              : 
TLFamily_GZ5       .         Extra Deep Resistivity        : 
TLFamily_GZ6       .         Medium Resistivity Inverted   : 
TLFamily_IBK       .                                       : 
TLFamily_IK        .         Conductivity                  : 
TLFamily_IPR       .                                       : 
TLFamily_METKA     .                                       : 
TLFamily_PS        .         Spontaneous Potential         : 
TLFamily_PZ        .         Potential Resistivity         : 
TLFamily_RCOR      .                                       : 
TLFamily_RES       .         Mud Resistivity               : 
TLFamily_SPID      .         Spontaneous Potential         : 
TLFamily_TENS      .         Cable Tension                 : 
TLFamily_TIME      .         Time                          : 
TLFamily_UBK       .         Uranium Concentration         : 
group              .         prim                          : 
~Curve Information
#_______________________________________________________________________________
#
#LOGNAME           .UNIT     LOG_ID                        : DESCRIPTION
#_______________________________________________________________________________
DEPT               .M                                      : 1 Глубина, м -    0.0 см 
BK                 .OHMM                                   : 20 БК, Ом*м - 1768.0 см 
GZ1                .OHMM                                   : 12 A0.4M0.1N, Ом*м - 1295.0 см 
GZ2                .OHMM                                   : 11 A1.0M0.1N, Ом*м - 1355.0 см 
GZ3                .OHMM                                   : 9 A2.0M0.5N, Ом*м - 1475.0 см 
GZ4                .OHMM                                   : 8 A4.0M0.5N, Ом*м - 1025.0 см 
GZ5                .OHMM                                   : 7 A8.0M1.0N, Ом*м - 1450.0 см 
GZ6                .OHMM                                   : 10 N0.5M2.0A, Ом*м - 1025.0 см 
IBK                .A                                      : 18 Ток БК, А - 1768.0 см 
IK                 .MSM/M                                  : 14 ИК, мСм/м - 1961.0 см 
IPR                .MA                                     : 17 Ток прибора, мA -    0.0 см 
METKA              .                                       : 3 Метки,  -    0.0 см 
PS                 .mV                                     : 16 ПС, мВ - 1210.0 см 
PZ                 .OHMM                                   : 13 N11M0.5A, Ом*м - 1225.0 см 
RCOR               .CM/KM                                  : 5 Коррекция по ролику, см/км -    0.0 см 
RES                .OHMM                                   : 15 Резистивиметр, Ом*м -  600.0 см 
SPID               .M/H                                    : 2 Скорость, м/час -    0.0 см 
TENS               .T                                      : 6 Натяжение кабеля, т -    0.0 см 
TIME               .S                                      : 4 Время, сек -    0.0 см 
UBK                .V                                      : 19 Напр. БК, В - 1768.0 см 
~Ascii
# ...
2752.2     6.65       11.2       8.8        8.5        8.3        9.3        8.4        0.028      119.3      424.5      0          583.8      9.3        -260       2.759      -1768      0          28247.2    0.782     
2752.4     6.66       9.5        8.1        7.2        7.2        7.6        8.1        0.028      122.2      427.5      0          583.89     9.1        -260       2.761      -1790      0          28246.8    0.778     
2752.6     6.77       8.5        8.2        6.7        6.6        6.9        8.2        0.027      124.7      427.988    0          583.26     9.2        -260       2.761      -1790      0          28246.38   0.775     
2752.8     6.91       8.7        9.2        6.6        6.5        6.6        8.5        0.027      124.9      427.328    0          583.95     9.2        -260       2.762      -1790      0          28246.03   0.773     
2753       6.78       8.6        9.2        6.6        6.3        6.5        8.6        0.027      125.5      426        0          583.78     9.1        -260       2.762      -1790      0          28245.59   0.758     
2753.2     6.9        8.5        8.6        6.5        6.3        6.5        9          0.026      126        425.333    0          583.48     9.1        -260       2.76       -1789      0          28245.18   0.755     
2753.4     7.12       8.6        8.5        6.7        6.1        6.3        9.2        0.025      124.3      428        0          583.24     9.1        -260       2.759      -1789      0          28244.82   0.757     
2753.6     6.8        8.8        8.5        6.8        6.2        6.3        9.8        0.026      122.2      428        0          583.6      9.4        -260       2.76       -1788      0          28244.37   0.758     
2753.8     6.5        8.8        8.3        7.2        6          6          10.2       0.028      122.3      426        0          584.22     9.8        -260       2.762      -1786      0          28243.98   0.765     
2754       6.79       8.3        8          7.5        5.8        5.9        10.5       0.027      120.9      426        0          583.84     10.1       -260       2.764      -1783      0          28243.6    0.774     
2754.2     7.08       8.1        7.6        7.6        5.4        5.8        10.7       0.026      117.9      424        0          583.05     10.4       -260       2.765      -1777      0          28243.22   0.782     
2754.4     7.29       8.5        7.7        7.3        5.5        5.7        11.3       0.026      115.3      428        0          582.63     10.8       -260       2.763      -1789      0          28242.78   0.786     
2754.6     7.42       8.8        7.9        7.4        5.6        5.6        10.9       0.025      112.6      426.988    0          582.05     10.8       -260       2.763      -1828      0          28242.39   0.793     
2754.8     7.92       9.1        8.2        7.4        5.6        5.7        9.9        0.024      111        428        0          581.53     10.8       -260       2.759      -1802      0          28242.07   0.8       
2755       8.12       9.5        8.9        7.6        5.8        5.7        9.3        0.024      109.9      427.333    0          581.04     10.8       -260       2.761      -1788      0          28241.58   0.812     
2755.2     8.19       10.2       9.7        7.7        5.9        5.6        8.7        0.024      107.8      426        0          581.25     10.8       -260       2.759      -1786      0          28241.2    0.823     
2755.4     7.84       10.2       9.6        7.5        5.8        5.6        8.2        0.025      106.2      426        0          580.19     10.9       -260       2.759      -1783      0          28240.86   0.839     
2755.6     7.42       9.8        9.4        7.3        5.7        5.4        8.1        0.028      105.2      427.608    0          580.04     11.2       -260       2.758      -1778      0          28240.42   0.864     
2755.8     7.25       9.5        9.3        7.2        5.8        5.4        8.1        0.029      103.5      425.344    0          579.82     12         -260       2.761      -1769      0          28240.03   0.887     
2756       7.3        9.1        9.1        7.4        6.4        5.5        8.6        0.029      101.7      428        0          580.16     13         -260       2.762      -1759      0          28239.62   0.882     
2756.2     7.28       8.9        9          7.7        6.9        6.3        9.1        0.029      101.4      426.667    0          578.71     13.4       -260       2.754      -1782      0          28239.22   0.879     
2756.4     7.75       8.5        8.9        8.8        8          7.4        10.7       0.027      99.9       426        0          577.81     13.1       -260       2.762      -1790      0          28238.79   0.871     
2756.6     9.86       9.4        10.5       11.3       10.5       8.8        13.5       0.021      97.9       427.59     0          577.29     13.3       -260       2.76       -1790      0          28238.38   0.865     
2756.8     16.49      12.2       14.3       14.2       13         9.1        15.1       0.012      94.5       424.996    0          577.65     12.7       -260       2.761      -1790      0          28238.04   0.866     
2757       12.04      16.5       16.1       14.6       13.1       9.1        13.4       0.017      93.9       425.6      0          578.07     11.7       -260       2.762      -1791      0          28237.62   0.867     
2757.2     8.2        15.5       12.5       12.2       10.5       8.4        10.2       0.025      95.2       426.667    0          577.35     11.2       -260       2.762      -1791      0          28237.22   0.868     
2757.4     7.43       13.6       11.1       9.3        8.1        7.1        8.3        0.028      100.8      426        0          577.81     10.8       -260       2.761      -1792      0          28236.89   0.873     
2757.6     7.32       10.8       10.6       8.3        7.2        5.8        7.8        0.028      105.1      427.35     0          578.93     10.4       -260       2.76       -1793      0          28236.41   0.872     
2757.8     7.3        9.7        11.4       7.9        7          5.5        8          0.028      107.8      426        0          580.4      10.3       -260       2.76       -1796      0          28236      0.87      
2758       7.5        9.5        12.2       7.9        7.1        5.5        8.3        0.027      110.2      427        0          580.95     10.4       -260       2.761      -1801      0          28235.65   0.844     
2758.2     7.5        9.5        11.7       8          7.4        5.5        8.7        0.026      110.2      426        0          581.96     10.3       -260       2.762      -1810      0          28235.21   0.825     
2758.4     7.22       9.3        10.6       8.2        7.4        5.6        8.3        0.027      111.4      425        0          582.17     10.3       -260       2.759      -1780      0          28234.82   0.816     
2758.6     7.62       9.1        10         8.2        7.5        5.7        8.3        0.025      111.3      428        0          581.51     10.4       -260       2.758      -1769      0          28234.44   0.814     
2758.8     7.89       9.5        9.9        8.6        7.7        6          8.3        0.024      111.1      426        0          580.82     10.4       -260       2.758      -1797      0          28234.08   0.811     
2759       7.29       9.8        9.8        9.5        7.6        6          8.3        0.026      110.9      428        0          581.34     10.6       -260       2.763      -1803      0          28233.62   0.808     
2759.2     7.4        9.3        9.2        10.1       7.6        6          8.1        0.026      110.3      426        0          581.15     10.6       -260       2.761      -1813      0          28233.21   0.811     
2759.4     7.36       9.2        9.1        9.9        7.4        6.1        8.2        0.026      111.5      426.667    0          581.04     10.4       -260       2.761      -1809      0          28232.8    0.821     
