~Version
 VERS              .         2.0                           : CWLS LOG ASCII STANDARD - VERSION 2.0
 WRAP              .         NO                            : ONE LINE PER DEPTH STEP
 DLM               .         SPACE                         : DELIMITING CHARACTER(SPACE TAB OR COMMA)
~Well Information
#_______________________________________________________________________________
#
#PARAMETER_NAME    .UNIT     VALUE                         : DESCRIPTION
#_______________________________________________________________________________
STRT               .M        8.21                          : First reference value
STOP               .M        2780.41                       : Last reference value
STEP               .M        0.2                           : Step increment
NULL               .         -9999                         : Missing value
COMP               .                                       : Company
WELL               .         616                           : Well name
FLD                .                                       : Field
LOC                .                                       : Location
CNTY               .                                       : County
STAT               .                                       : State
CTRY               .                                       : Country
SRVC               .                                       : Service Company
DATE               .                                       : Date
API                .                                       : API number
PROJECT_UPGRADE_TIME .         2021-03-18T21_24_50           : 
group              .         Good                          : 
~Parameter Information Block
#_______________________________________________________________________________
#
#PARAMETER_NAME    .UNIT     VALUE                         : DESCRIPTION
#_______________________________________________________________________________
SET                .         ULN_2                         : 
PROJECT_UPGRADE_TIME .         2021-03-18T21_24_50           : 
TLFamily_AK4       .                                       : 
TLFamily_ALFAK     .                                       : 
TLFamily_AMPL      .                                       : 
TLFamily_DEPTH     .         Measured Depth                : 
TLFamily_DK1       .                                       : 
TLFamily_DK2       .                                       : 
TLFamily_DTK       .         Compressional Slowness        : 
TLFamily_QCBL      .                                       : 
TLFamily_T1        .         Travel Time 1                 : 
TLFamily_T2        .         Travel Time 2                 : 
group              .         prim                          : 
~Curve Information
#_______________________________________________________________________________
#
#LOGNAME           .UNIT     LOG_ID                        : DESCRIPTION
#_______________________________________________________________________________
DEPTH              .M                                      : 0 Depth curve 
AK4                .                                       : 2 Амплитуда - Волна по колонне - Канал1 
ALFAK              .дБ/м                                   : 1 Затухание - Волна по колонне 
AMPL               .                                       : 8 Коэффициент усиления ВС 
DK1                .дБ                                     : 3 Кривая ослабления - Волна по колонне - Канал1 
DK2                .дБ                                     : 4 Кривая ослабления - Волна по колонне - Канал2 
DTK                .мкс/м                                  : 5 ДельтаТ - Волна по породе 
QCBL               .                                       : 9 Контакт цемент-колонна 
T1                 .мкс                                    : 6 Время пробега - Волна по породе - Канал1 
T2                 .мкс                                    : 7 Время пробега - Волна по породе - Канал2 
~Ascii
8.21       0          40         1          88.04      88.04      -9999      4          -9999      -9999     
8.41       0          40         1          88.04      88.04      -9999      4          -9999      -9999     
8.61       0          40         1          88.04      88.04      -9999      4          -9999      -9999     
8.81       0          40         1          88.04      88.04      -9999      4          -9999      -9999     
9.01       0          40         1          88.04      88.04      -9999      4          -9999      -9999     
9.21       0          40         1          88.04      88.04      -9999      4          -9999      -9999     
9.41       0          40         1          88.04      88.04      -9999      4          -9999      -9999     
9.61       0.333      40         1          87.607     88.04      -9999      4          -9999      -9999     
9.81       7.1        40         1          78.895     88.04      -9999      4          -9999      -9999     
10.01      15.804     39.993     1          69.45      87.568     -9999      4          666.043    -9999     
10.21      29.631     40.168     1          59.864     78.087     -9999      4          577.379    -9999     
10.41      137.171    46.611     1          51.823     67.981     -9999      4          464.477    -9999     
10.61      439.833    54.314     1          42.252     58.416     1235.47    4          377.082    958.061   
10.81      928.68     55.116     1          31.083     52.846     1020.059   4          356.444    850.333   
11.01      1406.095   42.991     1          26.208     43.085     608.108    4          345.004    644.998   
11.21      1764.365   24.238     1          23.207     32.243     329.248    2          342.464    505.509   
11.41      1822.806   11.431     1          22.897     26.548     188.082    2          342.38     436.421   
11.61      2033.997   7.909      1          21.98      25.935     184.769    2          344.836    437.22    
11.81      2161.553   10.237     1          21.473     26.592     184.644    2          348.155    440.477   
12.01      2496.95    13.362     1          20.106     26.787     183.573    2          349.934    441.825   
12.21      2623.073   13.509     1          19.685     26.439     182.229    2          348.693    441.889   
12.41      2879.181   13.701     1          18.878     25.734     187.494    2          346.04     441.869   
12.61      3157.742   12.658     1          18.095     24.528     189.537    2          343.851    440.584   
12.81      3453.99    10.949     1          17.293     22.872     199.68     2          343.062    442.619   
13.01      3676.14    11.118     1          16.738     22.396     210.198    2          343.067    447.883   
13.21      3774.677   12.628     1          16.505     22.818     223.254    2          342.652    454.01    
13.41      3866.744   14.921     1          16.295     23.755     212.318    2          342.621    448.78    
13.61      3928.296   15.007     1          16.158     23.662     195.381    2          342.667    440.357   
13.81      4028.271   14.895     1          15.939     23.387     179.329    2          342.668    432.333   
14.01      4101.719   14.562     1          15.783     23.063     179.212    2          342.671    432.277   
14.21      4229.555   14.367     1          15.518     22.702     179.36     2          342.606    432.287   
14.41      4355.148   14.249     1          15.265     22.39      179.481    2          342.538    432.279   
14.61      4492.458   14.754     1          14.992     22.369     181.487    2          342.075    432.819   
14.81      4626.184   15.116     1          14.739     22.297     181.346    2          342.105    432.778   
15.01      4729.613   15.092     1          14.546     22.092     181.386    2          342.123    432.816   
15.21      4840.35    15.114     1          14.343     21.9       181.494    2          342.075    432.822   
15.41      4905.114   14.689     1          14.229     21.573     182.687    2          342.033    433.377   
15.61      5031.33    14.748     1          14.009     21.383     181.179    2          342.68     433.27    
15.81      5214.327   14.672     1          13.703     21.039     180.031    2          342.696    432.711   
16.01      5391.246   15.006     1          13.41      20.913     179.552    2          342.815    432.592   
16.21      5554.465   15.746     1          13.149     21.022     180.685    2          342.242    432.584   
16.41      5687.572   16.243     1          12.945     21.066     181.379    2          342.34     433.029   
16.61      5872.479   16.503     1          12.667     20.919     180.71     2          342.335    432.69    
16.81      6008.577   16.246     1          12.466     20.589     180.793    2          342.387    432.783   
17.01      6130.145   16.078     1          12.292     20.331     179.292    2          342.798    432.445   
17.21      6311.745   16.316     1          12.043     20.202     179.279    2          343.235    432.874   
17.41      6549.395   16.634     1          11.723     20.039     180.471    2          343.183    433.419   
17.61      6794.961   16.889     1          11.399     19.843     181.096    2          342.816    433.365   
17.81      6951.515   16.345     1          11.201     19.373     182.061    2          342.455    433.486   
18.01      7238.17    16.127     1          10.856     18.919     180.657    2          343.07     433.399   
18.21      7641.5     16.16      1          10.393     18.472     180.794    2          343.645    434.043   
18.41      8174.407   16.684     1          9.804      18.146     179.872    2          343.99     433.926   
18.61      8720.026   16.822     1          9.243      17.654     180.173    2          343.372    433.458   
18.81      9144.07    16.679     1          8.824      17.163     180.195    2          343.259    433.357   
19.01      9488.394   16.357     1          8.498      16.677     180.338    2          343.237    433.406   
19.21      9757.755   15.806     1          8.257      16.16      180.462    2          343.85     434.081   
19.41      10091.13   15.498     1          7.966      15.714     180.356    2          343.917    434.095   
19.61      10429.32   15.362     1          7.678      15.359     179.183    2          344.544    434.136   
19.81      10816.91   15.646     1          7.363      15.186     180.034    2          344.511    434.528   
20.01      11257.9    15.756     1          7.018      14.896     180.059    2          344.459    434.489   
20.21      11830.97   15.826     1          6.588      14.501     181.377    2          344.47     435.159   
20.41      12322.7    15.552     1          6.231      14.007     181.539    2          344.435    435.205   
20.61      12762.61   15.277     1          5.924      13.562     182.311    2          344.623    435.779   
20.81      12974.53   14.873     1          5.779      13.216     182.978    2          344.279    435.768   
21.01      13100.96   14.583     1          5.694      12.986     182.724    2          344.43     435.792   
21.21      13304.12   14.447     1          5.563      12.786     182.894    2          344.406    435.853   
21.41      13657.62   14.659     1          5.337      12.667     181.846    2          344.845    435.769   
21.61      14186.74   15.036     1          5.007      12.525     182.508    2          344.633    435.888   
21.81      14575.07   15.107     1          4.77       12.324     182.964    2          344.489    435.972   
22.01      14859.17   15.009     1          4.601      12.105     183.881    2          344.033    435.974   
22.21      15074.9    14.881     1          4.476      11.917     182.582    2          344.154    435.446   
22.41      15346.64   15.201     1          4.322      11.922     181.307    2          344.697    435.351   
22.61      15666.67   15.786     1          4.144      11.959     181.74     2          344.722    435.593   
