~Version
 VERS              .         2.0                           : CWLS LOG ASCII STANDARD - VERSION 2.0
 WRAP              .         NO                            : ONE LINE PER DEPTH STEP
 DLM               .         SPACE                         : DELIMITING CHARACTER(SPACE TAB OR COMMA)
~Well Information
#_______________________________________________________________________________
#
#PARAMETER_NAME    .UNIT     VALUE                         : DESCRIPTION
#_______________________________________________________________________________
STRT               .M        2689.8                        : First reference value
STOP               .M        2754.4                        : Last reference value
STEP               .M        0.1999995                     : Step increment
NULL               .         -9999                         : Missing value
COMP               .                                       : Company
WELL               .         616                           : Well name
FLD                .                                       : Field
LOC                .                                       : Location
CNTY               .                                       : County
STAT               .                                       : State
CTRY               .                                       : Country
SRVC               .                                       : Service Company
DATE               .                                       : Date
API                .                                       : API number
PROJECT_UPGRADE_TIME .         2021-03-18T21_24_50           : 
group              .         Good                          : 
~Parameter Information Block
#_______________________________________________________________________________
#
#PARAMETER_NAME    .UNIT     VALUE                         : DESCRIPTION
#_______________________________________________________________________________
SET                .         D7018_D                       : 
OTHER              .         Kedr.exe версия 2.1.2.32      : 
OTHER_10           .         TM.GRD = 0.00404*TM$.UE + 0.07: 
OTHER_11           .         MN.ATM = (6.33279e-006*TM.GRD + 0.02401)*(MN$.UE + 2.72*TM.GRD + -2018): 
OTHER_12           .         GK.MKR/H = GK$.UE / 43.5489 + 0: 
OTHER_13           .         RES.SM = 0.00476*CRES.UE - 1.51709: 
OTHER_14           .         PL.GSM3 = 0 + 0 * (PL.UE / 1) +  0 * (PL.UE / 1)^2: 
OTHER_15           .         Постоянная времени ГГП = 6 сек: 
OTHER_16           .         Постоянная времени ГК = 6 сек : 
OTHER_2            .         KedrData.dll версия 3.2.2.14  : 
OTHER_3            .         LasInf.dll версия 3.2.0.13    : 
OTHER_4            .         Драйвер версия 1.2.0.5        : 
OTHER_5            .         Прибор_ КСА-M1                : 
OTHER_6            .         Номер прибора_ 155+р204       : 
OTHER_7            .         Режим_ КСА-М1 + ГГП + Резистивиметр: 
OTHER_8            .         Форма_ 223\2                  : 
OTHER_9            .         Тарировки_                    : 
PROJECT_UPGRADE_TIME .         2021-03-18T21_24_50           : 
TLFamily_CRES      .                                       : 
TLFamily_DEPT      .         Measured Depth                : 
TLFamily_GK        .         Gamma Ray                     : 
TLFamily_GK$       .                                       : 
TLFamily_LM        .         Casing Collar locator         : 
TLFamily_METKA     .                                       : 
TLFamily_MN        .                                       : 
TLFamily_MN$       .                                       : 
TLFamily_PL        .                                       : 
TLFamily_PL_2      .                                       : 
TLFamily_RCOR      .                                       : 
TLFamily_RES       .         Mud Resistivity               : 
TLFamily_SPID      .         Spontaneous Potential         : 
TLFamily_STD       .                                       : 
TLFamily_TIME      .         Time                          : 
TLFamily_TM        .         Temperature                   : 
TLFamily_TM$       .         Temperature                   : 
TLFamily_VGD       .         Gas Volume                    : 
group              .         prim                          : 
~Curve Information
#_______________________________________________________________________________
#
#LOGNAME           .UNIT     LOG_ID                        : DESCRIPTION
#_______________________________________________________________________________
DEPT               .M                                      : 1 Глубина, м -    0.0 см 
CRES               .UE                                     : 9 Проводимость, усл.ед. -  222.0 см 
GK                 .MKR/H                                  : 16 Гамма-активность, мкр./ч -  106.0 см 
GK$                .UE                                     : 13 Гамма-активность, усл.ед. -  106.0 см 
LM                 .                                       : 11 Локатор муфт,  -   16.0 см 
METKA              .                                       : 3 Метки,  -    0.0 см 
MN                 .ATM                                    : 15 Давление, атм. -  160.0 см 
MN$                .UE                                     : 7 Давление, усл.ед. -  160.0 см 
PL                 .UE                                     : 10 Плотность, усл.ед. -  270.0 см 
PL_2               .GSM3                                   : 18 Плотность, г./см3 -  270.0 см 
RCOR               .CM/KM                                  : 5 Коррекция по ролику, см/км -    0.0 см 
RES                .SM                                     : 17 Проводимость,  -  222.0 см 
SPID               .M/H                                    : 2 Скорость, м/час -    0.0 см 
STD                .                                       : 12 Приток,  -  170.0 см 
TIME               .S                                      : 4 Время, сек -    0.0 см 
TM                 .GRD                                    : 14 Температура, °C -  180.0 см 
TM$                .UE                                     : 6 Температура, усл.ед. -  180.0 см 
VGD                .                                       : 8 Влагомер,  -  170.0 см 
~Ascii
# ...
2747.2     1493       9.45       424        3740       0          253.668    12263      13         0          0          5.5896     -280       11502      9384.47    58.486     14459      6625      
2747.4     1494       9.01       395        632        0          253.706    12263      15         0          0          5.5944     -260       11529      9381.66    58.645     14499      6623      
2747.6     1497       8.96       390        3342       0          253.757    12265      13         0          0          5.6087     -260       11550      9378.72    58.804     14538      6621      
2747.8     1501       8.85       393        2386       0          253.818    12267      14         0          0          5.6276     -260       11564      9376.06    58.883     14558      6624      
2748       1503       8.94       380        3476       0          253.877    12269      14         0          0          5.6372     -260       11581      9373.23    58.977     14581      6623      
2748.2     1504       9.08       402        2545       0          253.893    12269      14         0          0          5.642      -280       11592      9370.41    59.054     14600      6622      
2748.4     1505       8.38       368        270        0          253.969    12272      14         0          0          5.6467     -260       11606      9367.67    59.119     14616      6620      
2748.6     1504       8.3        350        157        0          254.044    12275      14         0          0          5.642      -260       11617      9364.91    59.197     14635      6620      
2748.8     1503       8.89       380        77         0          254.042    12274      14         0          0          5.6372     -260       11625      9362.11    59.274     14654      6620      
2749       1504       8.97       408        79         0          254.113    12277      14         0          0          5.6419     -260       11629      9359.3     59.322     14666      6619      
2749.2     1505       8.36       381        60         0          254.138    12278      13         0          0          5.6467     -260       11638      9356.48    59.361     14676      6617      
2749.4     1505       8.56       341        75         0          254.184    12280      13         0          0          5.6467     -260       11643      9353.68    59.365     14677      6625      
2749.6     1506       9.87       364        52         0          254.225    12282      14         0          0          5.6514     -260       11666      9350.87    59.349     14673      6622      
2749.8     1503       11         463        58         1          254.233    12284      13         0          0          5.6373     -260       11731      9348.05    59.291     14659      6625      
2750       1494       10.4       456        86         0          254.276    12286      14         0          0          5.5944     -260       11820      9345.38    59.045     14598      6622      
2750.2     1099       10.29      439        27         0          254.305    12287      14         0          0          3.7142     -300       11851      9343.91    59.026     14593      6617      
2750.4     1107       10.7       462        27         0          254.328    12288      14         0          0          3.7522     -260       11879      9341.13    58.969     14579      6612      
2750.6     1101       10.89      471        24         0          254.348    12290      14         0          0          3.7237     -213       11915      9338.32    58.898     14561      6608      
2750.8     1100       10.78      487        25         0          254.383    12292      14         0          0          3.7188     -260       11948      9335.54    58.81      14540      6611      
2751       1097       10.27      459        24         0          254.438    12295      14         0          0          3.7062     -260       11949      9332.75    58.643     14498      6616      
2751.2     1088       10.15      440        26         0          254.468    12297      14         0          0          3.6602     -260       11923      9329.95    58.441     14448      6616      
2751.4     1084       10.22      448        27         0          254.523    12299      13         0          0          3.6444     -260       11912      9327.03    58.362     14429      6620      
2751.6     1076       10.19      438        28         0          254.564    12301      14         0          0          3.6059     -260       11904      9324.22    58.351     14426      6620      
2751.8     1064       10.27      451        29         0          254.58     12302      14         0          0          3.5489     0          11898      9321.04    58.351     14426      6619      
2752       1056       10.37      441        -9999      -9999      254.587    12302      14         0          -9999      3.5072     -9999      11885      -9999      58.347     14425      6615      
2752.2     884        10.91      448        -9999      -9999      254.627    12304      13         0          -9999      2.6892     -9999      11871      -9999      58.339     14423      6619      
2752.4     881        11.02      487        -9999      -9999      254.676    12306      13         0          -9999      2.6765     -9999      11855      -9999      58.336     14422      6621      
2752.6     881        10.53      458        -9999      -9999      254.685    12306      14         0          -9999      2.6765     -9999      11835      -9999      58.338     14423      6618      
2752.8     882        10.5       465        -9999      -9999      254.754    12309      13         0          -9999      2.6812     -9999      11813      -9999      58.347     14425      6616      
2753       883        -9999      -9999      -9999      -9999      254.776    12309      14         0          -9999      2.686      -9999      11788      -9999      58.377     14432      6617      
2753.2     884        -9999      -9999      -9999      -9999      254.8      12309      13         0          -9999      2.6907     -9999      11759      -9999      58.48      14458      6618      
2753.4     885        -9999      -9999      -9999      -9999      254.904    12312      13         0          -9999      2.6955     -9999      11728      -9999      58.662     14503      6619      
2753.6     886        -9999      -9999      -9999      -9999      -9999      -9999      13         0          -9999      2.7003     -9999      -9999      -9999      58.896     14561      -9999     
2753.8     887        -9999      -9999      -9999      -9999      -9999      -9999      13         0          -9999      2.705      -9999      -9999      -9999      -9999      -9999      -9999     
2754       889        -9999      -9999      -9999      -9999      -9999      -9999      13         0          -9999      2.7146     -9999      -9999      -9999      -9999      -9999      -9999     
2754.2     -9999      -9999      -9999      -9999      -9999      -9999      -9999      13         0          -9999      -9999      -9999      -9999      -9999      -9999      -9999      -9999     
2754.4     -9999      -9999      -9999      -9999      -9999      -9999      -9999      13         0          -9999      -9999      -9999      -9999      -9999      -9999      -9999      -9999     
