~Version
 VERS              .         2.0                           : CWLS LOG ASCII STANDARD - VERSION 2.0
 WRAP              .         NO                            : ONE LINE PER DEPTH STEP
 DLM               .         SPACE                         : DELIMITING CHARACTER(SPACE TAB OR COMMA)
~Well Information
#_______________________________________________________________________________
#
#PARAMETER_NAME    .UNIT     VALUE                         : DESCRIPTION
#_______________________________________________________________________________
STRT               .M        2669.6                        : First reference value
STOP               .M        2776.19984                    : Last reference value
STEP               .M        0.1999997                     : Step increment
NULL               .         -9999                         : Missing value
COMP               .                                       : Company
WELL               .         616                           : Well name
FLD                .                                       : Field
LOC                .                                       : Location
CNTY               .                                       : County
STAT               .                                       : State
CTRY               .                                       : Country
SRVC               .                                       : Service Company
DATE               .                                       : Date
API                .                                       : API number
PROJECT_UPGRADE_TIME .         2021-03-18T21_24_50           : 
group              .         Good                          : 
~Parameter Information Block
#_______________________________________________________________________________
#
#PARAMETER_NAME    .UNIT     VALUE                         : DESCRIPTION
#_______________________________________________________________________________
SET                .         D1805_D                       : 
OTHER              .         Программное обеспечение станции MONITOR-386EX 25/12/99 15_08_10   BGF V52 22/08/01 16_56_30   3.1_SNGF___BGF_N_092049: 
OTHER_10           .         Тарировки_                    : 
OTHER_11           .         TM.GRD = 0.00403*TM$.UE + -1.07: 
OTHER_12           .         MN.ATM = (9.34907e-006*TM.GRD + 0.02171)*(MN$.UE + -7.93*TM.GRD + -1787): 
OTHER_13           .         GK.MKR/H = LM. / 42.4676      : 
OTHER_14           .         GK.FLT = 0.1*GK.MKR/H[-1] + (1-0.1)*GK.MKR/H[0]: 
OTHER_2            .         Kedr.exe версия 3.4.2.51      : 
OTHER_3            .         KedrData.dll версия 3.4.2.24  : 
OTHER_4            .         Драйвер версия 2.1.1.3        : 
OTHER_5            .         Мнемоники версия 3.3 S        : 
OTHER_6            .         Прибор_ КСА-Т4                : 
OTHER_7            .         Номер прибора_ 03             : 
OTHER_8            .         Режим_ КСА-Т4                 : 
OTHER_9            .         Форма_ КВА.                   : 
PROJECT_UPGRADE_TIME .         2021-03-18T21_24_49           : 
TLFamily_DEPT      .         Measured Depth                : 
TLFamily_GK        .         Gamma Ray                     : 
TLFamily_GK$       .                                       : 
TLFamily_GK_2      .         Gamma Ray                     : 
TLFamily_LM        .         Casing Collar locator         : 
TLFamily_METKA     .                                       : 
TLFamily_MN        .                                       : 
TLFamily_MN$       .                                       : 
TLFamily_RCOR      .                                       : 
TLFamily_SPID      .         Spontaneous Potential         : 
TLFamily_TENS      .         Cable Tension                 : 
TLFamily_TIME      .         Time                          : 
TLFamily_TM        .         Temperature                   : 
TLFamily_TM$       .         Temperature                   : 
group              .         prim                          : 
~Curve Information
#_______________________________________________________________________________
#
#LOGNAME           .UNIT     LOG_ID                        : DESCRIPTION
#_______________________________________________________________________________
DEPT               .M                                      : 1 Глубина, м -    0.0 см 
GK                 .MKR/H                                  : 13 Гамма-активность, мкр./ч -  110.0 см 
GK$                .UE                                     : 10 Гамма-активность, усл.ед. -  110.0 см 
GK_2               .FLT                                    : 14 Гамма-активность фильтрованная, мкр./ч -  110.0 см 
LM                 .                                       : 9 Локатор муфт,  -   20.0 см 
METKA              .                                       : 3 Метки,  -    0.0 см 
MN                 .ATM                                    : 12 Давление, атм. -  160.0 см 
MN$                .UE                                     : 8 Давление, усл.ед. -  160.0 см 
RCOR               .CM/KM                                  : 5 Коррекция по ролику, см/км -    0.0 см 
SPID               .M/H                                    : 2 Скорость, м/час -    0.0 см 
TENS               .T                                      : 6 Натяжение кабеля, т -    0.0 см 
TIME               .S                                      : 4 Время, сек -    0.0 см 
TM                 .GRD                                    : 11 Температура, °C -  170.0 см 
TM$                .UE                                     : 7 Температура, усл.ед. -  170.0 см 
~Ascii
# ...
2690.399969 11         467        10.94      219        0          325.279    16861      -636       547        0.03       3363.47    55.934     14145     
2690.599968 11.26      478        11.16      161        0          326.435    16913      -636       542        0.03       3364.8     55.93      14144     
2690.799968 11.8       501        11.77      245        0          326.81     16930      -636       538        0.03       3366.11    55.93      14144     
2690.999968 11.55      490        11.64      188        0          326.819    16930      -636       536        0.03       3367.37    55.93      14144     
2691.199968 11.3       480        11.31      212        0          326.572    16919      -636       547        0.03       3368.7     55.926     14143     
2691.399967 11.21      476        11.22      239        0          325.991    16893      -636       535        0.02       3370.08    55.926     14143     
2691.599967 11.21      476        11.21      188        0          327.981    16983      -636       539        0.03       3371.41    55.926     14143     
2691.799967 10.41      442        10.49      197        0          326.213    16903      -636       541        0.03       3372.74    55.93      14144     
2691.999966 10.41      442        10.41      207        0          326.785    16929      -636       547        0.03       3373.98    55.93      14144     
2692.199966 9.4        399        9.52       192        0          326.792    16929      -636       546        0.03       3375.35    55.926     14143     
2692.399966 9.4        399        9.4        220        0          326.741    16927      -636       549        0.03       3376.64    55.926     14143     
2692.599966 10.24      435        10.21      199        0          327.28     16951      -636       542        0.03       3377.96    55.922     14142     
2692.799965 10.24      435        10.24      1658       0          325.459    16869      -636       551        0.03       3379.28    55.922     14142     
2692.999965 10.03      426        10.04      667        0          327.749    16972      -636       538        0.02       3380.64    55.918     14141     
2693.199965 10.03      426        10.03      258        0          326.4      16911      -636       542        0.03       3381.94    55.918     14141     
2693.399964 10.05      427        10.05      214        0          326.721    16926      -636       550        0.03       3383.26    55.918     14141     
2693.599964 10.66      453        10.44      217        0          327.502    16961      -636       545        0.03       3384.58    55.918     14141     
2693.799964 10.81      459        10.8       231        0          327.129    16944      -636       545        0.03       3385.91    55.918     14141     
2693.999963 10.17      432        10.4       204        0          327.9      16979      -636       548        0.03       3387.22    55.918     14141     
2694.199963 10.01      425        10.02      202        0          326.318    16908      -636       545        0.03       3388.51    55.914     14140     
2694.399963 9.82       417        9.85       241        0          326.924    16935      -636       550        0.03       3389.81    55.91      14139     
2694.599962 9.82       417        9.82       219        0          327.537    16963      -636       548        0.01       3391.2     55.907     14138     
2694.799962 10.78      458        10.61      238        0          327.391    16956      -636       539        0.01       3392.52    55.906     14138     
2694.999962 10.78      458        10.78      193        0          327.467    16959      -636       548        0.01       3393.84    55.906     14138     
2695.199962 11.23      477        11.14      187        0          325.948    16891      -636       543        0.03       3395.17    55.906     14138     
2695.399961 11.23      477        11.23      158        0          327.035    16940      -636       544        0.03       3396.49    55.906     14138     
2695.599961 11.21      476        11.21      219        0          327.633    16967      -636       547        0.03       3397.81    55.905     14138     
2695.799961 11.21      476        11.21      177        0          326.908    16934      -636       542        0.02       3399.07    55.902     14137     
2695.99996 10.71      455        10.75      186        0          327.161    16946      -636       550        0.01       3400.45    55.898     14136     
2696.19996 10.71      455        10.71      208        0          326.643    16922      -636       538        0.03       3401.78    55.898     14136     
2696.39996 10.69      454        10.69      189        0          326.815    16930      -636       538        0.01       3403.11    55.897     14136     
2696.599959 10.88      462        10.81      202        0          327.123    16944      -636       547        0.03       3404.42    55.895     14135     
2696.799959 11.82      502        11.79      176        0          327.902    16979      -636       542        0.03       3405.69    55.897     14136     
2696.999959 12.01      510        11.94      210        0          327.671    16969      -636       544        0.03       3407.08    55.887     14133     
2697.199959 12.97      551        12.95      243        0          327.348    16954      -636       546        0.03       3408.33    55.894     14135     
2697.399958 12.6       535        12.72      321        0          327.343    16954      -636       544        0.03       3409.66    55.894     14135     
2697.599958 12.6       535        12.6       295        0          326.745    16927      -636       536        0.03       3411.05    55.89      14134     
2697.799958 13         552        12.87      226        0          327.691    16969      -636       538        0.03       3412.36    55.889     14134     
2697.999957 13         552        12.99      219        0          328.346    16999      -636       538        0.03       3413.69    55.886     14133     
2698.199957 13.99      594        13.87      169        0          327.736    16972      -636       545        0.03       3414.98    55.886     14133     
2698.399957 13.99      594        13.98      174        0          328.024    16984      -636       537        0.03       3416.33    55.882     14132     
2698.599956 12.17      517        12.39      182        0          326.312    16907      -636       548        0.03       3417.59    55.882     14132     
2698.799956 12.17      517        12.18      155        0          327.754    16972      -636       548        0.03       3418.92    55.877     14131     
2698.999956 9.28       394        9.59       164        0          327.747    16972      -636       544        0.03       3420.23    55.872     14130     
2699.199956 9.28       394        9.29       157        0          327.462    16959      -636       544        0.03       3421.56    55.878     14131     
2699.399955 7.86       334        7.93       131        0          327.969    16982      -636       543        0.03       3422.95    55.874     14130     
2699.599955 7.86       334        7.87       230        0          325.993    16893      -636       542        0.03       3424.2     55.874     14130     
2699.799955 8.34       354        8.31       194        0          327.469    16959      -636       548        0.03       3425.59    55.874     14130     
2699.999954 8.34       354        8.34       151        2          327.724    16971      -636       539        0.01       3426.86    55.87      14129     
2700.199954 8.57       364        8.56       145        0          327.824    16975      -643       548        0.01       3428.66    55.87      14129     
2700.399954 8.71       370        8.66       189        0          327.788    16974      -643       551        0.03       3429.94    55.874     14130     
2700.599954 8.78       373        8.78       191        0          326.393    16911      -643       549        0.03       3431.3     55.874     14130     
