~Version
 VERS              .         2.0                           : CWLS LOG ASCII STANDARD - VERSION 2.0
 WRAP              .         NO                            : ONE LINE PER DEPTH STEP
 DLM               .         SPACE                         : DELIMITING CHARACTER(SPACE TAB OR COMMA)
~Well Information
#_______________________________________________________________________________
#
#PARAMETER_NAME    .UNIT     VALUE                         : DESCRIPTION
#_______________________________________________________________________________
STRT               .M        2668.8                        : First reference value
STOP               .M        2773                          : Last reference value
STEP               .M        0.1999999                     : Step increment
NULL               .         -9999                         : Missing value
COMP               .                                       : Company
WELL               .         616                           : Well name
FLD                .                                       : Field
LOC                .                                       : Location
CNTY               .                                       : County
STAT               .                                       : State
CTRY               .                                       : Country
SRVC               .                                       : Service Company
DATE               .                                       : Date
API                .                                       : API number
PROJECT_UPGRADE_TIME .         2021-03-18T21_24_50           : 
group              .         Good                          : 
~Parameter Information Block
#_______________________________________________________________________________
#
#PARAMETER_NAME    .UNIT     VALUE                         : DESCRIPTION
#_______________________________________________________________________________
SET                .         D0403_D                       : 
OTHER              .         Прибор_ АКП4_90               : 
OTHER_2            .         Номер прибора_ 56             : 
OTHER_3            .         Режим_ АКП4_90 - все каналы   : 
OTHER_4            .         Форма_ Г-1                    : 
OTHER_5            .         Тарировки_                    : 
OTHER_6            .         TM.GRD = 0.00379*TM$.UE + 7.11: 
OTHER_7            .         MN.ATM = (8e-006*TM.GRD + 0.02)*(MN$.UE + -8*TM.GRD + -1800): 
OTHER_8            .         GK.MKR/H = GK$.UE / 57.17 + 0 : 
PROJECT_UPGRADE_TIME .         2021-03-18T21_24_49           : 
TLFamily_DEPT      .         Measured Depth                : 
TLFamily_GK        .         Gamma Ray                     : 
TLFamily_GK$       .                                       : 
TLFamily_LM        .         Casing Collar locator         : 
TLFamily_METKA     .                                       : 
TLFamily_METKA_1   .                                       : 
TLFamily_MN        .                                       : 
TLFamily_MN$       .                                       : 
TLFamily_RCOR      .                                       : 
TLFamily_SPID      .         Spontaneous Potential         : 
TLFamily_TIME      .         Time                          : 
TLFamily_TM        .         Temperature                   : 
TLFamily_TM$       .         Temperature                   : 
group              .         second                        : 
~Curve Information
#_______________________________________________________________________________
#
#LOGNAME           .UNIT     LOG_ID                        : DESCRIPTION
#_______________________________________________________________________________
DEPT               .M                                      : 1 Глубина, м -    0.0 см 
GK                 .MKR/H                                  : 12 Гамма-активность, мкр./ч -   65.0 см 
GK$                .UE                                     : 9 Гамма-активность, усл.ед. -   65.0 см 
LM                 .                                       : 8 Локатор муфт,  -   30.0 см 
METKA              .                                       : 3 Метки,  -    0.0 см 
METKA_1            .                                       : 13 Маркеры - 65 см 
MN                 .ATM                                    : 11 Давление, атм. -  140.0 см 
MN$                .UE                                     : 7 Давление, усл.ед. -  140.0 см 
RCOR               .CM/KM                                  : 5 Коррекция по ролику, см/км -    0.0 см 
SPID               .M/H                                    : 2 Скорость, м/час -    0.0 см 
TIME               .S                                      : 4 Время, сек -    0.0 см 
TM                 .GRD                                    : 10 Температура, °C -  145.0 см 
TM$                .UE                                     : 6 Температура, усл.ед. -  145.0 см 
~Ascii
# ...
2702.4     7.67       437        476        0          0          260.255    15063      0          -300       2426.23    84.392     20391     
2702.6     7.74       423        463        0          0          260.254    15063      0          -280       2423.8     84.415     20397     
2702.8     7.99       440        502        0          0          260.295    15065      0          -280       2421.47    84.424     20399     
2703       8.21       484        544        0          0          260.294    15065      0          -320       2419.04    84.436     20403     
2703.2     7.96       484        467        0          0          260.334    15067      0          -280       2416.59    84.46      20409     
2703.4     7.51       453        475        0          0          260.328    15067      0          -320       2414.21    84.479     20414     
2703.6     7.14       433        492        0          0          260.352    15068      0          -320       2411.82    84.496     20418     
2703.8     6.75       428        530        0          0          260.378    15069      0          -260       2409.38    84.516     20424     
2704       6.06       383        514        0          0          260.398    15070      0          -280       2406.94    84.536     20429     
2704.2     5.49       319        443        0          0          260.41     15071      0          -260       2404.56    84.559     20435     
2704.4     5.41       316        490        0          0          260.43     15072      0          -320       2402.04    84.572     20438     
2704.6     5.38       307        505        0          0          260.443    15073      0          -320       2399.74    84.59      20443     
2704.8     5.41       306        544        0          0          260.469    15074      0          -320       2397.29    84.608     20448     
2705       5.53       303        433        0          0          260.467    15074      0          -320       2394.85    84.639     20456     
2705.2     5.71       306        559        0          0          260.486    15075      0          -320       2392.4     84.662     20462     
2705.4     5.82       324        486        1          0          260.511    15076      0          -320       2390.08    84.686     20469     
2705.6     5.81       337        414        0          0          260.524    15077      0          -320       2387.64    84.714     20476     
2705.8     5.95       316        454        0          0          260.564    15079      0          -260       2385.26    84.741     20483     
2706       6.24       326        457        0          0          260.563    15079      0          -305       2382.85    84.762     20489     
2706.2     6.25       382        438        0          0          260.581    15080      0          -320       2380.43    84.789     20496     
2706.4     5.84       382        362        0          0          260.586    15080      0          -260       2377.99    84.82      20504     
2706.6     5.5        319        498        0          0          260.618    15082      0          -320       2375.55    84.854     20513     
2706.8     5.54       303        523        0          0          260.617    15082      0          -275       2373.21    84.876     20519     
2707       5.68       319        511        0          0          260.65     15084      0          -260       2370.79    84.891     20523     
2707.2     5.6        347        1832       0          0          260.623    15082      0          -320       2368.34    84.934     20534     
2707.4     5.34       309        1158       0          0          260.678    15085      0          -300       2366.02    84.965     20542     
2707.6     5.38       291        5417       0          0          260.734    15088      0          -300       2363.54    84.992     20549     
2707.8     5.51       330        3738       0          0          260.732    15088      0          -280       2361.22    85.017     20556     
2708       5.36       309        624        0          0          260.771    15090      0          -320       2358.78    85.055     20566     
2708.2     5.37       296        460        0          0          260.773    15090      0          -280       2356.33    85.101     20578     
2708.4     5.53       304        441        0          0          260.806    15092      0          -320       2353.89    85.146     20590     
2708.6     5.65       328        525        0          0          260.823    15093      0          -260       2351.45    85.212     20607     
2708.8     5.58       318        520        0          0          260.842    15094      0          -260       2349.13    85.24      20615     
2709       5.6        318        390        0          0          260.832    15094      0          -320       2346.69    85.279     20625     
2709.2     5.63       319        599        0          0          260.877    15096      0          -280       2344.25    85.331     20639     
2709.4     5.69       305        581        0          0          260.874    15096      0          -320       2341.81    85.377     20651     
2709.6     6          322        513        0          0          260.906    15098      0          -320       2339.48    85.417     20661     
2709.8     6.29       351        591        1          0          260.916    15098      0          -300       2337.03    85.474     20677     
2710       6.43       362        487        0          0          260.948    15100      0          -320       2333.83    85.509     20686     
2710.2     6.24       371        524        0          0          260.924    15099      0          -260       2331.37    85.56      20699     
2710.4     6.1        365        479        0          0          260.977    15102      0          -320       2328.81    85.604     20711     
2710.6     6.15       339        642        0          0          260.995    15103      0          -260       2326.45    85.646     20722     
2710.8     6.19       368        589        0          0          261.018    15104      0          -320       2324.05    85.697     20735     
2711       5.98       355        480        0          0          260.993    15103      0          -320       2321.6     85.775     20756     
2711.2     5.77       339        611        0          0          261.043    15106      0          -260       2319.16    85.847     20775     
2711.4     5.65       298        512        0          0          261.042    15106      0          -305       2316.81    85.919     20794     
2711.6     6.05       307        606        0          0          261.079    15108      0          -320       2314.39    86.035     20825     
2711.8     6.69       366        649        0          0          261.085    15108      0          -320       2311.99    86.075     20835     
2712       6.94       399        579        0          0          261.1      15109      0          -320       2309.64    86.114     20845     
2712.2     6.9        402        692        0          0          261.132    15111      0          -320       2307.16    86.181     20863     
2712.4     6.69       393        533        0          0          261.153    15112      0          -260       2304.75    86.281     20889     
2712.6     6.61       385        539        0          0          261.176    15114      0          -320       2302.33    86.348     20907     
2712.8     6.47       388        679        0          0          261.167    15113      0          -290       2299.93    86.427     20928     
2713       6.29       379        557        0          0          261.193    15115      0          -305       2297.51    86.513     20951     
2713.2     6.1        367        610        0          0          261.234    15117      0          -320       2295.09    86.588     20970     
2713.4     6.07       344        544        0          0          261.238    15118      0          -300       2292.65    86.673     20993     
