~Version
 VERS              .         2.0                           : CWLS LOG ASCII STANDARD - VERSION 2.0
 WRAP              .         NO                            : ONE LINE PER DEPTH STEP
 DLM               .         SPACE                         : DELIMITING CHARACTER(SPACE TAB OR COMMA)
~Well Information
#_______________________________________________________________________________
#
#PARAMETER_NAME    .UNIT     VALUE                         : DESCRIPTION
#_______________________________________________________________________________
STRT               .M        2648.2                        : First reference value
STOP               .M        2755.2                        : Last reference value
STEP               .M        0.2                           : Step increment
NULL               .         -9999                         : Missing value
COMP               .                                       : Company
WELL               .         616                           : Well name
FLD                .                                       : Field
LOC                .                                       : Location
CNTY               .                                       : County
STAT               .                                       : State
CTRY               .                                       : Country
SRVC               .                                       : Service Company
DATE               .                                       : Date
API                .                                       : API number
PROJECT_UPGRADE_TIME .         2021-03-18T21_24_50           : 
group              .         Good                          : 
~Parameter Information Block
#_______________________________________________________________________________
#
#PARAMETER_NAME    .UNIT     VALUE                         : DESCRIPTION
#_______________________________________________________________________________
SET                .         D7022_D                       : 
OTHER              .         Kedr.exe версия 2.1.2.32      : 
OTHER_10           .         TM.GRD = 0.00404*TM$.UE + 0.07: 
OTHER_11           .         MN.ATM = (6.33279e-006*TM.GRD + 0.02401)*(MN$.UE + 2.72*TM.GRD + -2018): 
OTHER_12           .         GK.MKR/H = GK$.UE / 43.5489 + 0: 
OTHER_13           .         RES.SM = 0.00476*CRES.UE - 1.51709: 
OTHER_14           .         PL.GSM3 = 0 + 0 * (PL.UE / 1) +  0 * (PL.UE / 1)^2: 
OTHER_15           .         Постоянная времени ГГП = 6 сек: 
OTHER_16           .         Постоянная времени ГК = 6 сек : 
OTHER_2            .         KedrData.dll версия 3.2.2.14  : 
OTHER_3            .         LasInf.dll версия 3.2.0.13    : 
OTHER_4            .         Драйвер версия 1.2.0.5        : 
OTHER_5            .         Прибор_ КСА-M1                : 
OTHER_6            .         Номер прибора_ 155+р204       : 
OTHER_7            .         Режим_ КСА-М1 + ГГП + Резистивиметр: 
OTHER_8            .         Форма_ 223\2                  : 
OTHER_9            .         Тарировки_                    : 
PROJECT_UPGRADE_TIME .         2021-03-18T21_24_50           : 
TLFamily_CRES      .                                       : 
TLFamily_DEPT      .         Measured Depth                : 
TLFamily_GK        .         Gamma Ray                     : 
TLFamily_GK$       .                                       : 
TLFamily_LM        .         Casing Collar locator         : 
TLFamily_METKA     .                                       : 
TLFamily_MN        .                                       : 
TLFamily_MN$       .                                       : 
TLFamily_PL        .                                       : 
TLFamily_PL_2      .                                       : 
TLFamily_RCOR      .                                       : 
TLFamily_RES       .         Mud Resistivity               : 
TLFamily_SPID      .         Spontaneous Potential         : 
TLFamily_STD       .                                       : 
TLFamily_TIME      .         Time                          : 
TLFamily_TM        .         Temperature                   : 
TLFamily_TM$       .         Temperature                   : 
TLFamily_VGD       .         Gas Volume                    : 
group              .         prim                          : 
~Curve Information
#_______________________________________________________________________________
#
#LOGNAME           .UNIT     LOG_ID                        : DESCRIPTION
#_______________________________________________________________________________
DEPT               .M                                      : 1 Глубина, м -    0.0 см 
CRES               .UE                                     : 9 Проводимость, усл.ед. -  222.0 см 
GK                 .MKR/H                                  : 16 Гамма-активность, мкр./ч -  106.0 см 
GK$                .UE                                     : 13 Гамма-активность, усл.ед. -  106.0 см 
LM                 .                                       : 11 Локатор муфт,  -   16.0 см 
METKA              .                                       : 3 Метки,  -    0.0 см 
MN                 .ATM                                    : 15 Давление, атм. -  160.0 см 
MN$                .UE                                     : 7 Давление, усл.ед. -  160.0 см 
PL                 .UE                                     : 10 Плотность, усл.ед. -  270.0 см 
PL_2               .GSM3                                   : 18 Плотность, г./см3 -  270.0 см 
RCOR               .CM/KM                                  : 5 Коррекция по ролику, см/км -    0.0 см 
RES                .SM                                     : 17 Проводимость,  -  222.0 см 
SPID               .M/H                                    : 2 Скорость, м/час -    0.0 см 
STD                .                                       : 12 Приток,  -  170.0 см 
TIME               .S                                      : 4 Время, сек -    0.0 см 
TM                 .GRD                                    : 14 Температура, °C -  180.0 см 
TM$                .UE                                     : 6 Температура, усл.ед. -  180.0 см 
VGD                .                                       : 8 Влагомер,  -  170.0 см 
~Ascii
# ...
2672.8     1197       8.32       367        123        0          329.962    15433      14         0          0          4.1783     540        10210      14005.01   52.076     12873      6661      
2673       1197       8.25       354        138        0          329.352    15408      14         0          0          4.1793     580        10207      14006.29   52.069     12871      6664      
2673.2     1197       8.19       354        122        0          330.272    15446      14         0          0          4.1806     580        10206      14007.63   52.061     12869      6663      
2673.4     1197       8.18       357        108        0          330.552    15457      14         0          0          4.1814     533        10205      14008.9    52.061     12869      6667      
2673.6     1197       8.19       357        138        0          331.924    15514      14         0          0          4.1793     580        10205      14010.2    52.055     12868      6661      
2673.8     1198       8.52       391        117        0          331.672    15503      14         0          0          4.1838     510        10203      14011.48   52.049     12866      6658      
2674       1197       8.74       391        118        0          331.282    15487      14         0          0          4.1786     510        10202      14012.81   52.045     12865      6668      
2674.2     1198       8.95       399        112        0          333.414    15575      14         0          0          4.1847     580        10199      14014.08   52.04      12864      6656      
2674.4     1195       9.04       396        136        0          332.458    15536      14         0          0          4.1711     580        10197      14015.35   52.026     12860      6657      
2674.6     1194       9.03       393        103        0          333.112    15563      14         0          0          4.1687     580        10193      14016.67   52.004     12855      6671      
2674.8     1193       9.03       393        83         0          333.536    15580      14         0          0          4.1616     510        10190      14017.94   52.001     12854      6665      
2675       1194       8.65       359        113        0          333.032    15559      14         0          0          4.1663     568        10189      14019.21   51.999     12854      6670      
2675.2     1193       8.45       359        117        0          332.362    15532      14         0          0          4.1592     580        10186      14020.54   51.996     12853      6669      
2675.4     1193       8.35       359        119        0          332.369    15532      13         0          0          4.1624     568        10180      14021.86   51.986     12850      6665      
2675.6     1192       8.45       394        119        0          332.287    15529      13         0          0          4.1569     510        10181      14023.13   51.977     12848      6665      
2675.8     1193       8.82       401        111        0          331.658    15503      14         0          0          4.163      557        10183      14024.46   51.967     12846      6662      
2676       1193       8.87       374        114        0          331.403    15493      14         0          0          4.164      580        10185      14025.73   51.954     12843      6657      
2676.2     1194       8.73       374        273        0          331.372    15492      14         0          0          4.1648     580        10186      14027      51.946     12841      6658      
2676.4     1193       8.62       366        230        0          330.728    15465      14         0          0          4.1616     580        10185      14028.31   51.94      12839      6658      
2676.6     1191       8.49       364        123        0          331.823    15510      13         0          0          4.1529     580        10186      14029.57   51.936     12838      6659      
2676.8     1193       8.71       415        105        0          332.88     15554      14         0          0          4.1592     550        10183      14030.89   51.931     12837      6657      
2677       1192       9.1        415        106        0          334.311    15613      13         0          0          4.1568     557        10180      14032.16   51.923     12835      6659      
2677.2     1194       9.23       403        101        0          333.788    15591      14         0          0          4.1656     580        10179      14033.43   51.916     12833      6660      
2677.4     1194       9.24       403        117        0          334.881    15636      14         0          0          4.1656     580        10180      14034.77   51.911     12832      6661      
2677.6     1194       9.21       398        116        0          334.771    15632      14         0          0          4.1687     580        10180      14036.1    51.902     12830      6663      
2677.8     1194       9.17       398        122        0          334.318    15613      14         0          0          4.1677     510        10178      14037.42   51.895     12828      6670      
2678       1195       9.26       413        133        0          335.139    15647      14         0          0          4.1711     580        10176      14038.69   51.884     12825      6663      
2678.2     1195       9.37       413        132        0          335.485    15661      14         0          0          4.1711     580        10174      14039.96   51.867     12821      6673      
2678.4     1195       9.36       405        165        0          334.257    15611      14         0          0          4.1711     510        10168      14041.28   51.855     12818      6672      
2678.6     1194       9.33       405        166        0          333.916    15597      14         0          0          4.1663     530        10165      14042.56   51.844     12815      6664      
2678.8     1195       8.95       369        127        0          333.9      15596      14         0          0          4.1711     580        10165      14043.88   51.84      12814      6666      
2679       1193       8.72       369        121        0          333.588    15583      13         0          0          4.1623     522        10163      14045.14   51.835     12813      6661      
2679.2     1193       9.06       411        136        0          333.258    15570      14         0          0          4.1632     545        10166      14046.47   51.822     12810      6663      
2679.4     1193       9.25       411        150        0          332.677    15546      13         0          0          4.164      580        10166      14047.75   51.816     12808      6667      
2679.6     1191       9.86       462        206        0          333.166    15566      14         0          0          4.1521     580        10167      14049.06   51.806     12806      6664      
2679.8     1191       10.23      462        169        0          333.018    15560      14         0          0          4.1521     522        10167      14050.33   51.798     12804      6683      
2680       1192       10.16      439        145        0          334.83     15635      14         0          0          4.1545     545        10166      14051.66   51.785     12801      6680      
2680.2     1194       10.18      454        118        1          335.108    15646      14         0          0          4.1648     510        10165      14053.58   51.776     12798      6678      
2680.4     1191       10.46      468        107        0          336.505    15704      13         0          0          4.1529     580        10163      14054.85   51.767     12796      6676      
2680.6     1193       10.6       468        84         0          336.199    15691      14         0          0          4.1608     569        10162      14056.19   51.758     12794      6677      
2680.8     1193       10.72      472        87         0          336.437    15701      13         0          0          4.1595     510        10161      14057.49   51.756     12794      6670      
