~Version
 VERS              .         2.0                           : CWLS LOG ASCII STANDARD - VERSION 2.0
 WRAP              .         NO                            : ONE LINE PER DEPTH STEP
 DLM               .         SPACE                         : DELIMITING CHARACTER(SPACE TAB OR COMMA)
~Well Information
#_______________________________________________________________________________
#
#PARAMETER_NAME    .UNIT     VALUE                         : DESCRIPTION
#_______________________________________________________________________________
STRT               .M        5.8                           : First reference value
STOP               .M        2774.6                        : Last reference value
STEP               .M        0.2                           : Step increment
NULL               .         -9999                         : Missing value
COMP               .                                       : Company
WELL               .         616                           : Well name
FLD                .                                       : Field
LOC                .                                       : Location
CNTY               .                                       : County
STAT               .                                       : State
CTRY               .                                       : Country
SRVC               .                                       : Service Company
DATE               .                                       : Date
API                .                                       : API number
PROJECT_UPGRADE_TIME .         2021-03-18T21_24_50           : 
group              .         Good                          : 
~Parameter Information Block
#_______________________________________________________________________________
#
#PARAMETER_NAME    .UNIT     VALUE                         : DESCRIPTION
#_______________________________________________________________________________
SET                .         D1747_D                       : 
OTHER              .         Программное обеспечение станции MONITOR-386EX 25/12/99 15_08_10   BGF V52 22/08/01 16_56_30   3.1_SNGF___BGF_N_111239: 
OTHER_10           .         Тарировки_                    : 
OTHER_11           .         <_techsia_sc_> Постоянная времени фильтра ГК  3.0 сек, kf=0.016529: 
OTHER_12           .         <_techsia_sc_> Постоянная времени фильтра ННК  3.0 сек, kf=0.016529: 
OTHER_13           .         GK.MKR/H = GK$.IMP/476        : 
OTHER_14           .         WSAT.PERC = -12.5 + 78.0 * (NKT2$.IMP / NKT1$.IMP) * 1731/33716: 
OTHER_15           .         NKT2.PRIV = NKT2$.IMP/33716   : 
OTHER_16           .         NKT1.PRIV = NKT1$.IMP/1731    : 
OTHER_2            .         Kedr.exe версия 3.3.2.32      : 
OTHER_3            .         KedrData.dll версия 3.3.2.17  : 
OTHER_4            .         Драйвер версия 2.1.1.9        : 
OTHER_5            .         Мнемоники версия 3.2 S        : 
OTHER_6            .         Прибор_ СРК-73Ц-1N            : 
OTHER_7            .         Номер прибора_ 906            : 
OTHER_8            .         Режим_ с локатором            : 
OTHER_9            .         Форма_ 623-1                  : 
PROJECT_UPGRADE_TIME .         2021-03-18T21_24_49           : 
TLFamily_DEPT      .         Measured Depth                : 
TLFamily_GK        .         Gamma Ray                     : 
TLFamily_GK$       .                                       : 
TLFamily_LM        .         Casing Collar locator         : 
TLFamily_METKA     .                                       : 
TLFamily_NKT1      .         Neutron Far                   : 
TLFamily_NKT1$     .         Neutron Far                   : 
TLFamily_NKT2      .         Neutron Near                  : 
TLFamily_NKT2$     .         Neutron Near                  : 
TLFamily_RCOR      .                                       : 
TLFamily_SPID      .         Spontaneous Potential         : 
TLFamily_TENS      .         Cable Tension                 : 
TLFamily_TIME      .         Time                          : 
TLFamily_WSAT      .         Neutron Porosity              : 
group              .         prim                          : 
~Curve Information
#_______________________________________________________________________________
#
#LOGNAME           .UNIT     LOG_ID                        : DESCRIPTION
#_______________________________________________________________________________
DEPT               .M                                      : 1 Глубина, м -    0.0 см 
GK                 .MKR/H                                  : 11 Гамма-активность, мкр./ч -   97.0 см 
GK$                .IMP                                    : 9 Гамма-активность, имп/мин -   97.0 см 
LM                 .                                       : 10 Локатор муфт,  -   27.0 см 
METKA              .                                       : 3 Метки,  -    0.0 см 
NKT1               .PRIV                                   : 14 Большой зонд приведенный,  -  278.0 см 
NKT1$              .IMP                                    : 8 Большой зонд, имп/мин -  278.0 см 
NKT2               .PRIV                                   : 13 Малый зонд приведенный,  -  289.0 см 
NKT2$              .IMP                                    : 7 Малый зонд, имп/мин -  289.0 см 
RCOR               .CM/KM                                  : 5 Коррекция по ролику, см/км -    0.0 см 
SPID               .M/H                                    : 2 Скорость, м/час -    0.0 см 
TENS               .T                                      : 6 Натяжение кабеля, т -    0.0 см 
TIME               .S                                      : 4 Время, сек -    0.0 см 
WSAT               .PERC                                   : 12 Водонасыщенная пористость, % -  284.0 см 
~Ascii
# ...
1108.2     3.8        1810       18         0          1.15       1987.71    0.96       32210.1    -485       -643       0          24225.73   46.33     
1108.4     3.8        1807       13         0          1.15       1985.03    0.98       32880.02   -485       -642       0          24224.63   48.56     
1108.6     3.8        1809       18         1          1.26       2173.42    0.97       32797.55   -485       -641       0          24223.61   43.35     
1108.8     3.86       1839       29         0          1.17       2016.91    0.97       32583.38   -485       -641       0          24222.53   40.97     
1109       3.79       1802       29         0          1.23       2123.77    0.98       33207.74   -485       -651       0          24221.48   42.7      
1109.2     3.93       1872       30         0          1.23       2126.03    0.99       33292.62   -485       -692       0          24220.35   42.83     
1109.4     3.9        1854       27         0          1.23       2135.39    0.98       32968.25   -485       -676       0          24219.33   39.67     
1109.6     3.99       1897       31         0          1.22       2105.55    0.97       32739.58   -485       -700       0          24218.28   41.21     
1109.8     3.96       1885       35         1          1.25       2172.07    0.96       32532.04   -485       -640       0          24217.21   41.58     
1110       3.98       1894       20         0          1.25       2158.9     0.95       32116.36   -485       -646       0          24216.11   41.12     
1110.2     4.04       1921       26         0          1.23       2133.61    0.98       33041.95   -485       -697       0          24215.08   40.45     
1110.4     3.79       1805       35         0          1.21       2086.59    0.98       33116.46   -485       -700       0          24214.03   42.62     
1110.6     3.69       1756       25         0          1.32       2284.53    0.97       32846.57   -485       -641       0          24212.98   42.93     
1110.8     3.56       1693       48         0          1.33       2303.14    0.98       33154      -485       -700       0          24211.96   42.84     
1111       3.25       1545       24         0          1.31       2262.01    1          33552.54   -485       -640       0          24210.88   48.77     
1111.2     3.25       1546       18         0          1.4        2428.57    1          33695.87   -485       -672       0          24209.75   47.72     
1111.4     3.17       1510       30         0          1.35       2340.01    1          33770.44   -485       -659       0          24208.7    47.66     
1111.6     2.82       1341       18         0          1.31       2262.22    1          33554.21   -485       -649       0          24207.65   46.1      
1111.8     2.5        1188       11         0          1.24       2142.15    0.98       33108.39   -485       -648       0          24206.55   44.01     
1112       2.3        1094       40         0          1.21       2097.8     0.99       33372.63   -485       -700       0          24205.5    47.36     
1112.2     2.19       1043       59         0          1.22       2120.33    0.99       33305.36   -485       -643       0          24204.45   42.63     
1112.4     2.09       994        11         0          1.19       2052.05    1.01       33977.23   -485       -700       0          24203.44   44.69     
1112.6     2.29       1090       60         0          1.23       2135.44    0.99       33502.02   -485       -646       0          24202.39   47.32     
1112.8     2.34       1115       24         0          1.29       2226.71    0.98       33161.02   -485       -668       0          24201.34   46.8      
1113       2.57       1226       32         0          1.27       2193.14    0.99       33441.98   -485       -663       0          24200.29   47.04     
1113.2     2.47       1178       41         0          1.33       2303.07    0.98       32949.21   -485       -683       0          24199.19   45.71     
1113.4     2.46       1171       32         0          1.26       2175.5     0.97       32744.29   -485       -700       0          24198.09   47.53     
1113.6     2.64       1257       12         0          1.27       2195.46    0.96       32315.77   -485       -647       0          24197.03   44.48     
1113.8     2.95       1404       45         0          1.22       2117.46    0.96       32209.02   -485       -696       0          24195.98   46.21     
1114       3.27       1558       39         0          1.18       2047.68    0.96       32227.05   -485       -698       0          24194.93   43.79     
1114.2     3.25       1549       39         0          1.15       1986.97    0.94       31649.8    -485       -699       0          24193.88   42.46     
1114.4     3.07       1462       20         0          1.04       1800.98    0.94       31663.83   -485       -699       0          24192.8    40.94     
1114.6     2.88       1371       27         0          1.07       1844.19    0.93       31199.12   -485       -699       0          24191.73   44.84     
1114.8     3.03       1443       20         0          1.05       1819.09    0.92       31186.04   -485       -676       0          24190.68   42.36     
1115       3.11       1480       54         0          1.12       1937.04    0.92       30860.82   -485       -700       0          24189.62   45.25     
1115.2     2.88       1371       265        0          1.14       1967.19    0.91       30745.34   -485       -640       0          24188.57   44.64     
1115.4     2.84       1351       1983       0          1.06       1832.29    0.9        30486.52   -485       -700       0          24187.52   41.01     
1115.6     2.95       1403       687        0          1.03       1783.97    0.91       30619.94   -485       -644       0          24186.47   41.19     
1115.8     2.82       1343       33         0          1.13       1958.01    0.93       31343.08   -485       -643       0          24185.38   41.15     
1116       2.73       1297       25         0          1.21       2099       0.92       31037.91   -485       -642       0          24184.31   39.77     
1116.2     2.71       1288       30         0          1.15       1988.43    0.92       30976.79   -485       -699       0          24183.25   39.14     
1116.4     2.7        1284       44         0          1.13       1958.7     0.92       30894.83   -485       -699       0          24182.2    34.64     
1116.6     2.81       1337       17         0          1.15       1997.05    0.92       31071.99   -485       -679       0          24181.15   39.6      
1116.8     2.76       1314       56         0          1.09       1880.18    0.93       31305.59   -485       -681       0          24180.1    38.94     
1117       2.94       1401       27         0          1.05       1812.73    0.94       31707.71   -485       -686       0          24179.02   38.79     
1117.2     3.04       1448       30         0          1.24       2151.72    0.95       32175.83   -485       -650       0          24177.95   41.58     
1117.4     2.91       1386       34         0          1.3        2242.45    0.97       32551.89   -485       -649       0          24176.85   41.25     
1117.6     2.84       1354       28         0          1.25       2170.06    0.99       33212.93   -485       -645       0          24175.79   43.16     
1117.8     2.55       1216       8          0          1.31       2264.28    0.98       33101.39   -485       -700       0          24174.78   42.75     
1118       2.75       1308       27         0          1.28       2211.94    1          33629.96   -485       -641       0          24173.69   45.45     
1118.2     2.82       1342       16         0          1.35       2338.23    0.98       33189.3    -485       -699       0          24172.64   46.73     
1118.4     2.93       1394       9          0          1.21       2092.92    0.98       33091.5    -485       -694       0          24171.59   46.58     
