~Version
 VERS              .         2.0                           : CWLS LOG ASCII STANDARD - VERSION 2.0
 WRAP              .         NO                            : ONE LINE PER DEPTH STEP
 DLM               .         SPACE                         : DELIMITING CHARACTER(SPACE TAB OR COMMA)
~Well Information
#_______________________________________________________________________________
#
#PARAMETER_NAME    .UNIT     VALUE                         : DESCRIPTION
#_______________________________________________________________________________
STRT               .M        827.6                         : First reference value
STOP               .M        1707.2                        : Last reference value
STEP               .M        0.2                           : Step increment
NULL               .         -9999                         : Missing value
COMP               .                                       : Company
WELL               .         616                           : Well name
FLD                .                                       : Field
LOC                .                                       : Location
CNTY               .                                       : County
STAT               .                                       : State
CTRY               .                                       : Country
SRVC               .                                       : Service Company
DATE               .                                       : Date
API                .                                       : API number
PROJECT_UPGRADE_TIME .         2021-03-18T21_24_50           : 
group              .         Good                          : 
~Parameter Information Block
#_______________________________________________________________________________
#
#PARAMETER_NAME    .UNIT     VALUE                         : DESCRIPTION
#_______________________________________________________________________________
SET                .         616_8                         : 
CONF               .         00                            : 
END                .         0                             : 
ERR                .         0                             : 
GS00               .M        1705.33                       : 
GS01               .M        0825.11                       : 
MM00               .M        0210.00                       : 
NOKG               .         0                             : 
NPR                .         980615                        : 
PART               .         Бутенко                       : 
PROJECT_UPGRADE_TIME .         2021-03-18T21_24_49           : 
PRZK               .         Шакиров                       : 
TLFamily_AZIMUTH   .         True Dip Azimuth              : 
TLFamily_DEPTH     .         Measured Depth                : 
TLFamily_METKA     .                                       : 
TLFamily_ROLL      .                                       : 
TLFamily_SPEED     .         Spontaneous Potential         : 
TLFamily_ZENIT     .                                       : 
VPRG               .         310                           : 
WAY                .         UP                            : 
group              .         prim                          : 
~Curve Information
#_______________________________________________________________________________
#
#LOGNAME           .UNIT     LOG_ID                        : DESCRIPTION
#_______________________________________________________________________________
DEPTH              .M                                      :  
AZIMUTH            .DEG                                    :  
METKA              .                                       :  
ROLL               .DEG                                    :  
SPEED              .M/H                                    :  
ZENIT              .DEG                                    :  
~Ascii
# ...
1047.2     256.86     0          227.7      612        31.02     
1047.4     256.11     0          246.76     648        32.09     
1047.6     249.31     0          265.2      648        31.32     
1047.8     256.7      0          285.75     648        32.71     
1048       256.37     0          308.27     648        32.47     
1048.2     235        0          328.32     648        31.8      
1048.4     230.74     0          357.01     648        30.1      
1048.6     245.9      0          76.52      144        30.1      
1048.8     259.35     0          73.37      324        32.73     
1049       253.13     0          155.17     72         30.87     
1049.2     276.43     2          152.61     468        31.74     
1049.4     329.81     0          152.96     648        31.94     
1049.6     206.68     0          152.87     612        31.61     
1049.8     165.68     0          152.5      648        32.32     
1050       355.41     0          152.51     612        31.62     
1050.2     284.99     0          153.91     648        32.16     
1050.4     262.81     0          154.5      612        32.03     
1050.6     256.57     0          154.01     684        31.79     
1050.8     255.66     0          153.51     648        32.03     
1051       252.53     0          153.7      648        31.41     
1051.2     254.76     0          153.89     648        31.84     
1051.4     254.3      0          153.8      648        31.77     
1051.6     253.37     0          153.93     648        31.48     
1051.8     255.86     0          153.94     648        32.08     
1052       252.65     1          153.58     648        31.36     
1052.2     254.15     0          153        684        31.76     
1052.4     254        0          152.46     576        31.64     
1052.6     254.33     0          152.32     648        31.64     
1052.8     254.15     0          152.45     648        31.52     
1053       252.91     0          151.87     648        31.28     
1053.2     254.5      0          150.7      684        31.52     
1053.4     254.53     0          147.41     648        31.2      
1053.6     244.75     0          151.09     648        31.6      
1053.8     253.45     0          153.65     612        31.73     
1054       252.72     0          154.17     648        31.62     
1054.2     254.98     0          154.27     648        31.99     
1054.4     252.69     0          154.14     648        31.47     
1054.6     253.76     0          153.85     612        31.74     
1054.8     253.2      0          153.35     648        31.5      
1055       252.36     0          153.78     648        31.56     
1055.2     254.74     0          154.24     648        31.98     
1055.4     253.59     0          154.41     648        31.66     
1055.6     254.32     0          154.14     648        31.72     
1055.8     254.5      0          153.68     648        31.84     
1056       252.97     0          153.43     612        31.55     
1056.2     255.04     0          153.68     648        32.03     
1056.4     251.75     0          153.99     648        31.33     
1056.6     253.07     0          154.39     648        31.66     
1056.8     254.58     0          154.75     612        31.95     
1057       252.86     0          154.85     612        31.51     
1057.2     253.5      0          154.57     648        31.69     
1057.4     253.62     0          154.24     648        31.56     
1057.6     252.91     0          153.76     648        31.45     
1057.8     254.77     0          153.17     648        31.89     
1058       253.62     0          152.53     612        31.52     
1058.2     253.28     0          152.62     648        31.64     
1058.4     254.28     0          153.16     648        31.88     
1058.6     252.87     0          153.62     612        31.54     
1058.8     254.45     0          153.66     648        31.9      
1059       253        0          153.5      612        31.51     
1059.2     253.84     0          153.8      648        31.81     
1059.4     255.26     0          154.55     648        31.95     
1059.6     252.35     0          154.94     648        31.46     
1059.8     253.82     0          154.86     648        31.66     
1060       254.33     0          154.62     612        31.76     
1060.2     253.71     0          154.19     648        31.53     
1060.4     255.68     0          153.17     648        31.83     
1060.6     254.66     0          152.77     648        31.47     
1060.8     257.45     0          153.1      648        31.97     
1061       257.56     0          152.08     648        31.35     
1061.2     264.11     0          152.32     612        31.91     
1061.4     291.46     0          153.72     648        32.21     
1061.6     293.4      0          154.49     648        31.7      
1061.8     234.85     0          154.53     612        32.03     
1062       96.74      0          154.33     648        31.72     
1062.2     345.36     1          154.18     648        32.23     
1062.4     285.33     0          154.31     648        32.09     
1062.6     261.31     0          154.72     648        31.72     
1062.8     259.74     0          154.92     648        32.45     
1063       254.29     0          154.87     648        31.54     
1063.2     256.9      0          155.86     648        32.47     
1063.4     252.67     0          157.22     612        31.42     
1063.6     254.07     0          157.01     648        31.41     
1063.8     255.06     0          156.38     648        31.67     
1064       254.11     0          156        612        31.54     
1064.2     254.89     0          155.54     648        31.82     
1064.4     252.38     0          155.47     648        31.34     
1064.6     252.87     0          155.61     648        31.4      
1064.8     254.37     0          155.69     648        31.76     
1065       252.37     0          155.42     648        31.18     
1065.2     254.64     0          154.78     648        31.66     
1065.4     253.68     0          154.58     648        31.45     
1065.6     254.49     0          154.72     648        31.62     
1065.8     254.14     0          155.01     612        31.55     
1066       252.57     0          154.72     648        31.24     
1066.2     255.1      0          153.94     648        31.71     
1066.4     254.04     0          153.31     648        31.41     
1066.6     255.06     0          153.26     648        31.7      
1066.8     253.34     0          153.73     648        31.35     
1067       253.45     0          154.18     648        31.38     
1067.2     253.99     0          154.28     648        31.5      
1067.4     253.1      0          154.24     648        31.31     
1067.6     255.5      0          154.2      648        31.88     
1067.8     253.21     0          154.17     612        31.33     
1068       253.83     0          154.21     612        31.48     
1068.2     253.71     0          154.32     648        31.48     
1068.4     253.1      0          154.57     648        31.31     
1068.6     254.97     0          154.91     648        31.72     
1068.8     252.55     0          154.69     648        31.15     
1069       254.94     0          153.95     648        31.73     
1069.2     254.19     0          153.4      648        31.64     
1069.4     253.15     0          153.41     648        31.35     
1069.6     255.15     0          153.62     648        31.9      
1069.8     252.65     0          154.02     612        31.35     
1070       253.92     0          154.45     648        31.64     
1070.2     253.72     0          154.73     612        31.57     
1070.4     254.09     0          154.39     648        31.64     
1070.6     254.6      0          154.26     648        31.85     
1070.8     252.15     0          154.51     648        31.37     
1071       255.24     0          154.86     648        31.84     
1071.2     253.37     0          154.98     648        31.49     
1071.4     253.77     0          154.52     648        31.51     
