~Version
 VERS              .         2.0                           : CWLS LOG ASCII STANDARD - VERSION 2.0
 WRAP              .         NO                            : ONE LINE PER DEPTH STEP
 DLM               .         SPACE                         : DELIMITING CHARACTER(SPACE TAB OR COMMA)
~Well Information
#_______________________________________________________________________________
#
#PARAMETER_NAME    .UNIT     VALUE                         : DESCRIPTION
#_______________________________________________________________________________
STRT               .M        2656                          : First reference value
STOP               .M        2756.3999                     : Last reference value
STEP               .M        0.1999998                     : Step increment
NULL               .         -9999                         : Missing value
COMP               .                                       : Company
WELL               .         616                           : Well name
FLD                .                                       : Field
LOC                .                                       : Location
CNTY               .                                       : County
STAT               .                                       : State
CTRY               .                                       : Country
SRVC               .                                       : Service Company
DATE               .                                       : Date
API                .                                       : API number
PROJECT_UPGRADE_TIME .         2021-03-18T21_24_50           : 
group              .         Good                          : 
~Parameter Information Block
#_______________________________________________________________________________
#
#PARAMETER_NAME    .UNIT     VALUE                         : DESCRIPTION
#_______________________________________________________________________________
SET                .         D4404_D                       : 
OTHER              .         Запись производится в присутствии: 
OTHER_10           .         Максимальная температура      : 
OTHER_11           .         Тип промывочной жидкости      : 
OTHER_12           .         Сопротивление ПЖ (Ом*м) при 20°C: 
OTHER_13           .         Плотность ПЖ(г/см3)           : 
OTHER_14           .         Вязкость ПЖ(с)                : 
OTHER_15           .         Водоотдача ПЖ(см3/30мин)      : 
OTHER_16           .         Уровень ПЖ                    : 
OTHER_17           .         Нефть ПЖ (%)                  : 
OTHER_18           .         Барит ПЖ (%)                  : 
OTHER_19           .         Гематит ПЖ (%)                : 
OTHER_2            .         Заказчик ННСН  ЦДНГ-1         : 
OTHER_20           .         КМЦ ПЖ (%)                    : 
OTHER_21           .         Разгазирование ПЖ (да,нет)    : 
OTHER_22           .         Подъемник                     : 
OTHER_23           .         Лаборатория                   : 
OTHER_24           .         Тип кабеля                    : 
OTHER_25           .         Длина кабеля (м)              : 
OTHER_26           .         Цена последней метки          : 
OTHER_27           .         Цена контрольной метки        : 
OTHER_28           .         Диаметр долота (мм)           : 
OTHER_29           .         Глубина бурения (м)           : 
OTHER_3            .         Площадь                       : 
OTHER_30           .         Искусственный забой (м)       : 
OTHER_31           .         Диаметр колонны (мм)          : 
OTHER_32           .         Толщина колонны (мм)          : 
OTHER_33           .         Башмак колонны (м)            : 
OTHER_34           .         Диаметр НКТ (мм)              : 
OTHER_35           .         Толщина НКТ (мм)              : 
OTHER_36           .         Воронка НКТ (м)               : 
OTHER_37           .         Дата цементожа                : 
OTHER_38           .         Тип, количество(т) и плотность цемента: 
OTHER_39           .         Интервалы перфорации (м)      : 
OTHER_4            .         Категория                     : 
OTHER_40           .         Направление, диаметр (мм)     : 
OTHER_41           .         Направление, глубина (м)      : 
OTHER_42           .         Кондуктор, диаметр (мм)       : 
OTHER_43           .         Кондуктор, глубина (м)        : 
OTHER_44           .         Техническая колонна, диаметр (мм): 
OTHER_45           .         Техническая колонна, глубина (м): 
OTHER_46           .         Эксплуатационная колонна, диаметр (мм): 
OTHER_47           .         Эксплуатационная колонна, глубина (м): 
OTHER_48           .         Программа Кедр-02 версия 3.4  : 
OTHER_49           .         Операционная система Windows NT 5.1 build 2600 Service Pack 2: 
OTHER_5            .         Назначение исследований       : 
OTHER_50           .         Программное обеспечение станции MONITOR-386EX 25/12/99 15_08_10   BGF V54 20/09/05 15_32_17   3.3__BGF_9030071: 
OTHER_51           .         Kedr.exe версия 3.4.2.74      : 
OTHER_52           .         KedrData.dll версия 3.4.2.29  : 
OTHER_53           .         Мнемоники версия 3.18 S       : 
OTHER_54           .         Драйвер версия 2.1.1.4        : 
OTHER_55           .         LasInf.dll 4.3.0.35           : 
OTHER_56           .         Прибор_ КСА-Т4                : 
OTHER_57           .         Номер прибора_ 160            : 
OTHER_58           .         Режим_ КСА-Т4                 : 
OTHER_59           .         Форма_ С.А.Б.                 : 
OTHER_6            .         Альтитуда стола ротора        : 
OTHER_60           .         Тарировки_                    : 
OTHER_61           .         <_techsia_sc_> Дата тарировки температуры 25.05.2010: 
OTHER_62           .         Ручной ввод коэффициентов     : 
OTHER_63           .         TM.DEGC = 0.00402*RTM.E.ACP + -0.994: 
OTHER_64           .         <_techsia_sc_> Дата тарировки давления 25.05.2010: 
OTHER_65           .         Ручной ввод коэффициентов     : 
OTHER_66           .         MN.ATM = (2.27521e-006*TM.DEGC + 0.02078)*(RMN.E.ACP + 6.2*TM.DEGC + -1688): 
OTHER_67           .         <_techsia_sc_> Дата тарировки ГК 25.05.2010: 
OTHER_68           .         Ручной ввод коэффициентов     : 
OTHER_69           .         GR.UR/H = RGR.IMP/MIN / 45.5144: 
OTHER_7            .         Вид исследований 3  6         : 
OTHER_70           .         GK.FLT = 0.1*GR.UR/H[-1] + (1-0.1)*GR.UR/H[0]: 
OTHER_8            .         Начало бурения интервала каротажа: 
OTHER_9            .         Окончание бурения интервала каротажа: 
PROJECT_UPGRADE_TIME .         2021-03-18T21_24_50           : 
TLFamily_CCLC      .                                       : 
TLFamily_DEPT      .         Measured Depth                : 
TLFamily_GK        .         Gamma Ray                     : 
TLFamily_GR        .         Gamma Ray                     : 
TLFamily_METKA     .                                       : 
TLFamily_MN        .                                       : 
TLFamily_RCOR      .                                       : 
TLFamily_RGR       .                                       : 
TLFamily_RMN       .                                       : 
TLFamily_RTEN      .                                       : 
TLFamily_RTM       .                                       : 
TLFamily_SPEE      .         Cable Speed                   : 
TLFamily_TIME      .         Time                          : 
TLFamily_TM        .         Temperature                   : 
group              .         prim                          : 
~Curve Information
#_______________________________________________________________________________
#
#LOGNAME           .UNIT     LOG_ID                        : DESCRIPTION
#_______________________________________________________________________________
DEPT               .M                                      : 1 Глубина, м -    0.0 см 
CCLC               .E.ACP                                  : 9 Локатор муфт,  -   20.0 см 
GK                 .FLT                                    : 14 Гамма-активность фильтрованная, мкр./ч -  110.0 см 
GR                 .UR/H                                   : 13 Гамма-активность, мкр./ч -  110.0 см 
METKA              .CU                                     : 3 Метки,  -    0.0 см 
MN                 .ATM                                    : 12 Давление, атм. -  160.0 см 
RCOR               .CM/KM                                  : 5 Коррекция по ролику, см/км -    0.0 см 
RGR                .IMP/MIN                                : 10 Гамма-активность, усл.ед. -  110.0 см 
RMN                .E.ACP                                  : 8 Давление, усл.ед. -  160.0 см 
RTEN               .T                                      : 6 Натяжение кабеля, т -    0.0 см 
RTM                .E.ACP                                  : 7 Температура, усл.ед. -  170.0 см 
SPEE               .M/H                                    : 2 Скорость, м/час -    0.0 см 
TIME               .S                                      : 4 Время, сек -    0.0 см 
TM                 .DEGC                                   : 11 Температура, °C -  170.0 см 
~Ascii
# ...
2666.39999 173        7.98       7.98       0          239.406    -1119      363        12728      0.21       16309      591        62.98      64.569    
2666.599989 262        7.47       7.47       0          239.417    -1119      340        12729      0.21       16294      591        64.27      64.508    
2666.799989 158        7.47       7.47       0          239.431    -1119      340        12730      0.21       16279      590        65.49      64.45     
2666.999989 5203       7.21       7.21       0          239.447    -1119      328        12731      0.21       16270      590        66.69      64.411    
2667.199989 1962       7.21       7.21       0          239.464    -1119      328        12732      0.21       16263      591        67.89      64.383    
2667.399989 554        6.26       6.26       0          239.476    -1119      285        12733      0.21       16254      591        69.16      64.345    
2667.599988 244        6.26       6.26       0          239.488    -1119      285        12734      0.21       16240      592        70.39      64.289    
2667.799988 105        6.61       6.61       0          239.491    -1119      301        12735      0.21       16225      592        71.61      64.23     
2667.999988 166        6.61       6.61       0          239.51     -1119      301        12736      0.21       16215      592        72.81      64.192    
2668.199988 143        6.68       6.68       0          239.506    -1119      304        12736      0.21       16204      591        74.01      64.148    
2668.399988 114        6.68       6.68       0          239.504    -1119      304        12736      0.21       16194      593        75.31      64.104    
2668.599987 77         6.5        6.5        0          239.53     -1119      296        12738      0.21       16187      592        76.46      64.078    
2668.799987 106        6.5        6.5        0          239.555    -1119      296        12739      0.21       16177      599        77.66      64.036    
2668.999987 109        7.21       7.21       0          239.57     -1119      328        12740      0.21       16167      598        78.85      63.997    
2669.199987 130        7.21       7.21       0          239.584    -1119      328        12741      0.21       16158      597        80.11      63.961    
2669.399987 194        6.92       6.92       0          239.599    -1119      315        12742      0.21       16147      598        81.31      63.918    
2669.599986 109        6.92       6.92       0          239.614    -1119      315        12743      0.21       16138      595        82.57      63.881    
2669.799986 182        7.29       7.29       0          239.626    -1119      332        12744      0.21       16128      590        83.78      63.841    
2669.999986 128        7.29       7.29       0          239.641    -1119      332        12745      0.21       16116      584        85.03      63.791    
2670.199986 111        6.44       6.44       0          239.662    -1119      293        12746      0.21       16104      584        86.34      63.743    
2670.399986 94         6.44       6.44       0          239.678    -1119      293        12748      0.21       16091      581        87.61      63.692    
2670.599985 77         5.95       5.95       0          239.695    -1119      271        12749      0.21       16079      580        88.81      63.644    
2670.799985 74         5.95       5.95       0          239.715    -1119      271        12750      0.21       16067      579        90.06      63.595    
2670.999985 93         6.44       6.44       0          239.728    -1119      293        12751      0.21       16053      577        91.39      63.54     
2671.199985 86         6.44       6.44       0          239.742    -1119      293        12752      0.21       16043      576        92.66      63.497    
2671.399985 55         6.2        6.2        0          239.757    -1119      282        12753      0.21       16033      576        93.87      63.459    
2671.599984 102        6.2        6.2        0          239.772    -1119      282        12754      0.21       16023      576        95.11      63.417    
2671.799984 93         6.96       6.96       0          239.788    -1119      317        12755      0.21       16013      575        96.36      63.38     
2671.999984 132        6.96       6.96       0          239.802    -1119      317        12756      0.21       16005      575        97.69      63.344    
2672.199984 114        7.4        7.4        0          239.835    -1119      337        12758      0.21       15993      575        98.94      63.297    
2672.399984 75         7.4        7.4        0          239.833    -1119      337        12758      0.21       15978      576        100.14     63.236    
2672.599983 68         7.36       7.36       0          239.856    -1119      335        12760      0.21       15964      576        101.41     63.181    
2672.799983 78         7.36       7.36       0          239.873    -1119      335        12761      0.21       15951      577        102.74     63.129    
2672.999983 51         7.14       7.14       0          239.878    -1119      325        12761      0.21       15941      577        103.98     63.09     
2673.199983 95         7.14       7.14       0          239.908    -1119      325        12763      0.21       15938      577        105.19     63.077    
2673.399983 113        6.2        6.2        0          239.923    -1119      282        12764      0.21       15929      577        106.45     63.041    
2673.599982 252        6.2        6.2        0          239.937    -1119      282        12765      0.21       15918      577        107.77     62.998    
2673.799982 204        6.11       6.11       0          239.949    -1119      278        12766      0.21       15906      577        108.97     62.95     
2673.999982 189        6.11       6.11       0          239.96     -1119      278        12767      0.21       15891      577        110.23     62.888    
2674.199982 267        5.8        5.8        0          239.972    -1119      264        12768      0.21       15875      576        111.48     62.825    
2674.399982 248        5.8        5.8        0          240.003    -1119      264        12770      0.21       15863      577        112.73     62.773    
2674.599981 143        4.88       4.88       0          240.001    -1119      222        12770      0.21       15850      577        114        62.725    
2674.799981 241        4.88       4.88       0          240.033    -1119      222        12772      0.21       15838      578        115.2      62.676    
2674.999981 288        5.16       5.16       0          240.041    -1119      235        12773      0.21       15828      581        116.47     62.635    
2675.199981 265        5.16       5.16       0          240.062    -1119      235        12774      0.21       15819      580        117.72     62.597    
2675.399981 337        5.65       5.65       0          240.076    -1119      257        12775      0.21       15807      581        119.05     62.548    
2675.59998 328        5.65       5.65       0          240.103    -1119      257        12777      0.21       15795      579        120.25     62.502    
2675.79998 255        5.45       5.45       0          240.103    -1119      248        12777      0.21       15782      578        121.5      62.45     
2675.99998 152        5.45       5.45       2          240.117    -1118      248        12778      0.21       15772      578        122.72     62.411    
2676.19998 162        5.38       5.38       0          240.143    -1118      245        12780      0.21       15760      577        123.95     62.362    
2676.39998 235        5.38       5.38       0          240.159    -1118      245        12781      0.21       15746      576        125.22     62.304    
2676.599979 217        5.45       5.45       0          240.176    -1118      248        12782      0.21       15732      577        126.49     62.249    
