~Version
 VERS              .         2.0                           : CWLS LOG ASCII STANDARD - VERSION 2.0
 WRAP              .         NO                            : ONE LINE PER DEPTH STEP
 DLM               .         SPACE                         : DELIMITING CHARACTER(SPACE TAB OR COMMA)
~Well Information
#_______________________________________________________________________________
#
#PARAMETER_NAME    .UNIT     VALUE                         : DESCRIPTION
#_______________________________________________________________________________
STRT               .M        11                            : First reference value
STOP               .M        2775.8                        : Last reference value
STEP               .M        0.2                           : Step increment
NULL               .         -9999                         : Missing value
COMP               .                                       : Company
WELL               .         616                           : Well name
FLD                .                                       : Field
LOC                .                                       : Location
CNTY               .                                       : County
STAT               .                                       : State
CTRY               .                                       : Country
SRVC               .                                       : Service Company
DATE               .                                       : Date
API                .                                       : API number
PROJECT_UPGRADE_TIME .         2021-03-18T21_24_50           : 
group              .         Good                          : 
~Parameter Information Block
#_______________________________________________________________________________
#
#PARAMETER_NAME    .UNIT     VALUE                         : DESCRIPTION
#_______________________________________________________________________________
SET                .         D1813_D                       : 
OTHER              .         Программное обеспечение станции MONITOR-386EX 25/12/99 15_08_10   BGF V52 22/08/01 16_56_30   3.1_SNGF___BGF_N_092049: 
OTHER_10           .         Тарировки_                    : 
OTHER_11           .         TM.GRD = 0.00403*TM$.UE + -1.07: 
OTHER_12           .         MN.ATM = (9.34907e-006*TM.GRD + 0.02171)*(MN$.UE + -7.93*TM.GRD + -1787): 
OTHER_13           .         GK.MKR/H = LM. / 42.4676      : 
OTHER_14           .         GK.FLT = 0.1*GK.MKR/H[-1] + (1-0.1)*GK.MKR/H[0]: 
OTHER_2            .         Kedr.exe версия 3.4.2.51      : 
OTHER_3            .         KedrData.dll версия 3.4.2.24  : 
OTHER_4            .         Драйвер версия 2.1.1.3        : 
OTHER_5            .         Мнемоники версия 3.3 S        : 
OTHER_6            .         Прибор_ КСА-Т4                : 
OTHER_7            .         Номер прибора_ 03             : 
OTHER_8            .         Режим_ КСА-Т4                 : 
OTHER_9            .         Форма_ КВА.                   : 
PROJECT_UPGRADE_TIME .         2021-03-18T21_24_49           : 
TLFamily_DEPT      .         Measured Depth                : 
TLFamily_GK        .         Gamma Ray                     : 
TLFamily_GK$       .                                       : 
TLFamily_GK_2      .         Gamma Ray                     : 
TLFamily_LM        .         Casing Collar locator         : 
TLFamily_METKA     .                                       : 
TLFamily_MN        .                                       : 
TLFamily_MN$       .                                       : 
TLFamily_RCOR      .                                       : 
TLFamily_SPID      .         Spontaneous Potential         : 
TLFamily_TENS      .         Cable Tension                 : 
TLFamily_TIME      .         Time                          : 
TLFamily_TM        .         Temperature                   : 
TLFamily_TM$       .         Temperature                   : 
group              .         prim                          : 
~Curve Information
#_______________________________________________________________________________
#
#LOGNAME           .UNIT     LOG_ID                        : DESCRIPTION
#_______________________________________________________________________________
DEPT               .M                                      : 1 Глубина, м -    0.0 см 
GK                 .MKR/H                                  : 13 Гамма-активность, мкр./ч -  110.0 см 
GK$                .UE                                     : 10 Гамма-активность, усл.ед. -  110.0 см 
GK_2               .FLT                                    : 14 Гамма-активность фильтрованная, мкр./ч -  110.0 см 
LM                 .                                       : 9 Локатор муфт,  -   20.0 см 
METKA              .                                       : 3 Метки,  -    0.0 см 
MN                 .ATM                                    : 12 Давление, атм. -  160.0 см 
MN$                .UE                                     : 8 Давление, усл.ед. -  160.0 см 
RCOR               .CM/KM                                  : 5 Коррекция по ролику, см/км -    0.0 см 
SPID               .M/H                                    : 2 Скорость, м/час -    0.0 см 
TENS               .T                                      : 6 Натяжение кабеля, т -    0.0 см 
TIME               .S                                      : 4 Время, сек -    0.0 см 
TM                 .GRD                                    : 11 Температура, °C -  170.0 см 
TM$                .UE                                     : 7 Температура, усл.ед. -  170.0 см 
~Ascii
# ...
375        5.23       222        5.33       491        0          36.314     3616       -1241      -1990      -0.09      11720.61   21.678     5645      
375.2      5.46       232        5.5        592        0          36.332     3617       -1241      -1989      -0.09      11720.24   21.682     5646      
375.4      5.58       237        5.58       722        0          36.335     3617       -1241      -1982      -0.09      11719.9    21.686     5647      
375.6      5.58       237        5.58       973        0          36.356     3618       -1241      -1978      -0.09      11719.54   21.69      5648      
375.8      5.58       237        5.58       1450       0          36.378     3619       -1241      -1983      -0.09      11719.17   21.694     5649      
376        5.58       237        5.59       2138       0          36.399     3620       -1241      -1983      -0.09      11718.8    21.701     5650      
376.2      5.58       237        5.6        360        0          36.421     3621       -1241      -1984      -0.09      11718.43   21.706     5652      
376.4      5.58       237        5.62       372        0          36.442     3622       -1241      -1984      -0.09      11718.09   21.708     5652      
376.6      5.68       241        5.7        338        0          36.464     3623       -1241      -1984      -0.09      11717.71   21.71      5653      
376.8      5.72       243        5.72       332        0          36.481     3624       -1241      -1985      -0.09      11717.36   21.715     5654      
377        5.72       243        5.72       344        0          36.486     3624       -1241      -1985      -0.09      11716.99   21.71      5653      
377.2      5.72       243        5.72       349        0          36.505     3625       -1241      -1986      -0.09      11716.63   21.722     5656      
377.4      5.72       243        5.71       393        0          36.526     3626       -1241      -1987      -0.09      11716.26   21.731     5658      
377.6      5.72       243        5.69       409        0          36.549     3627       -1241      -1987      -0.09      11715.89   21.735     5659      
377.8      5.72       243        5.64       389        0          36.57      3628       -1241      -1990      -0.09      11715.54   21.739     5660      
378        5.53       235        5.5        359        0          36.59      3629       -1241      -1994      -0.09      11715.19   21.743     5661      
378.2      5.46       232        5.46       327        0          36.612     3630       -1241      -1988      -0.09      11714.81   21.747     5662      
378.4      5.46       232        5.46       324        0          36.628     3631       -1241      -1983      -0.09      11714.46   21.751     5663      
378.6      5.46       232        5.46       336        0          36.633     3631       -1241      -1985      -0.09      11714.11   21.758     5665      
378.8      5.46       232        5.45       377        0          36.654     3632       -1241      -1992      -0.09      11713.75   21.76      5665      
379        5.46       232        5.42       384        0          36.675     3633       -1241      -1996      -0.09      11713.38   21.766     5667      
379.2      5.46       232        5.34       396        0          36.697     3634       -1241      -1993      -0.09      11713.02   21.771     5668      
379.4      5.14       218        5.11       440        0          36.712     3635       -1241      -1994      -0.09      11712.66   21.775     5669      
379.6      5.06       215        5.06       414        0          36.723     3636       -1241      -1993      -0.09      11712.3    21.779     5670      
379.8      5.06       215        5.06       450        0          36.755     3637       -1241      -1987      -0.09      11711.93   21.783     5671      
380        5.06       215        5.07       450        2          36.76      3637       -1240      -1979      -0.09      11711.55   21.787     5672      
380.2      5.06       215        5.07       517        0          36.781     3638       -1239      -1977      -0.09      11711.17   21.791     5673      
380.4      5.06       215        5.08       565        0          36.802     3639       -1239      -1983      -0.09      11710.82   21.798     5675      
380.6      5.06       215        5.12       760        0          36.824     3640       -1239      -1988      -0.09      11710.45   21.803     5676      
380.8      5.21       221        5.23       896        0          36.845     3641       -1239      -1985      -0.09      11710.09   21.808     5677      
381        5.25       223        5.25       971        0          36.866     3642       -1239      -1978      -0.09      11709.74   21.812     5678      
381.2      5.25       223        5.25       1005       0          36.88      3643       -1239      -1976      -0.09      11709.38   21.819     5680      
381.4      5.25       223        5.25       1403       0          36.894     3644       -1239      -1980      -0.09      11709      21.824     5681      
381.6      5.25       223        5.26       1923       0          36.923     3645       -1239      -1980      -0.09      11708.63   21.824     5681      
381.8      5.25       223        5.26       2676       0          36.932     3645       -1239      -1980      -0.09      11708.28   21.828     5682      
382        5.25       223        5.28       3941       0          36.953     3646       -1239      -1979      -0.09      11707.92   21.832     5683      
382.2      5.34       227        5.34       5946       0          36.975     3647       -1239      -1979      -0.09      11707.56   21.836     5684      
382.4      5.35       227        5.34       1851       0          36.996     3648       -1239      -1979      -0.09      11707.2    21.84      5685      
382.6      5.35       227        5.34       1336       0          37.008     3649       -1239      -1979      -0.09      11706.84   21.844     5686      
382.8      5.35       227        5.33       859        0          37.026     3650       -1239      -1979      -0.09      11706.47   21.848     5687      
383        5.35       227        5.31       415        0          37.061     3651       -1239      -1979      -0.09      11706.1    21.849     5687      
383.2      5.35       227        5.26       405        0          37.082     3652       -1239      -1982      -0.09      11705.75   21.856     5689      
383.4      5.35       227        5.13       334        0          37.093     3653       -1239      -1989      -0.09      11705.4    21.861     5690      
383.6      4.77       203        4.75       297        0          37.103     3653       -1239      -1990      -0.09      11705.03   21.861     5690      
383.8      4.71       200        4.71       316        0          37.123     3654       -1239      -1983      -0.09      11704.66   21.868     5692      
384        4.71       200        4.71       303        0          37.144     3655       -1239      -1979      -0.09      11704.3    21.872     5693      
384.2      4.71       200        4.71       320        0          37.165     3656       -1239      -1983      -0.09      11703.93   21.876     5694      
384.4      4.71       200        4.71       349        0          37.187     3657       -1239      -1990      -0.09      11703.57   21.88      5695      
384.6      4.71       200        4.7        422        0          37.209     3658       -1239      -1990      -0.09      11703.2    21.885     5696      
384.8      4.71       200        4.69       559        0          37.229     3659       -1239      -1988      -0.09      11702.83   21.889     5697      
385        4.66       198        4.66       769        0          37.241     3660       -1239      -1988      -0.09      11702.47   21.893     5698      
385.2      4.66       198        4.67       1021       0          37.25      3660       -1239      -1993      -0.09      11702.11   21.9       5700      
