~Version
 VERS              .         2.0                           : CWLS LOG ASCII STANDARD - VERSION 2.0
 WRAP              .         NO                            : ONE LINE PER DEPTH STEP
 DLM               .         SPACE                         : DELIMITING CHARACTER(SPACE TAB OR COMMA)
~Well Information
#_______________________________________________________________________________
#
#PARAMETER_NAME    .UNIT     VALUE                         : DESCRIPTION
#_______________________________________________________________________________
STRT               .M        2647.6                        : First reference value
STOP               .M        2755.199839                   : Last reference value
STEP               .M        0.1999997                     : Step increment
NULL               .         -9999                         : Missing value
COMP               .                                       : Company
WELL               .         616                           : Well name
FLD                .                                       : Field
LOC                .                                       : Location
CNTY               .                                       : County
STAT               .                                       : State
CTRY               .                                       : Country
SRVC               .                                       : Service Company
DATE               .                                       : Date
API                .                                       : API number
PROJECT_UPGRADE_TIME .         2021-03-18T21_24_50           : 
group              .         Good                          : 
~Parameter Information Block
#_______________________________________________________________________________
#
#PARAMETER_NAME    .UNIT     VALUE                         : DESCRIPTION
#_______________________________________________________________________________
SET                .         D7024_D                       : 
OTHER              .         Kedr.exe версия 2.1.2.32      : 
OTHER_10           .         TM.GRD = 0.00404*TM$.UE + 0.07: 
OTHER_11           .         MN.ATM = (6.33279e-006*TM.GRD + 0.02401)*(MN$.UE + 2.72*TM.GRD + -2018): 
OTHER_12           .         GK.MKR/H = GK$.UE / 43.5489 + 0: 
OTHER_13           .         RES.SM = 0.00476*CRES.UE - 1.51709: 
OTHER_14           .         PL.GSM3 = 0 + 0 * (PL.UE / 1) +  0 * (PL.UE / 1)^2: 
OTHER_15           .         Постоянная времени ГГП = 6 сек: 
OTHER_16           .         Постоянная времени ГК = 6 сек : 
OTHER_2            .         KedrData.dll версия 3.2.2.14  : 
OTHER_3            .         LasInf.dll версия 3.2.0.13    : 
OTHER_4            .         Драйвер версия 1.2.0.5        : 
OTHER_5            .         Прибор_ КСА-M1                : 
OTHER_6            .         Номер прибора_ 155+р204       : 
OTHER_7            .         Режим_ КСА-М1 + ГГП + Резистивиметр: 
OTHER_8            .         Форма_ 223\2                  : 
OTHER_9            .         Тарировки_                    : 
PROJECT_UPGRADE_TIME .         2021-03-18T21_24_50           : 
TLFamily_CRES      .                                       : 
TLFamily_DEPT      .         Measured Depth                : 
TLFamily_GK        .         Gamma Ray                     : 
TLFamily_GK$       .                                       : 
TLFamily_LM        .         Casing Collar locator         : 
TLFamily_METKA     .                                       : 
TLFamily_MN        .                                       : 
TLFamily_MN$       .                                       : 
TLFamily_PL        .                                       : 
TLFamily_PL_2      .                                       : 
TLFamily_RCOR      .                                       : 
TLFamily_RES       .         Mud Resistivity               : 
TLFamily_SPID      .         Spontaneous Potential         : 
TLFamily_STD       .                                       : 
TLFamily_TIME      .         Time                          : 
TLFamily_TM        .         Temperature                   : 
TLFamily_TM$       .         Temperature                   : 
TLFamily_VGD       .         Gas Volume                    : 
group              .         prim                          : 
~Curve Information
#_______________________________________________________________________________
#
#LOGNAME           .UNIT     LOG_ID                        : DESCRIPTION
#_______________________________________________________________________________
DEPT               .M                                      : 1 Глубина, м -    0.0 см 
CRES               .UE                                     : 9 Проводимость, усл.ед. -  222.0 см 
GK                 .MKR/H                                  : 16 Гамма-активность, мкр./ч -  106.0 см 
GK$                .UE                                     : 13 Гамма-активность, усл.ед. -  106.0 см 
LM                 .                                       : 11 Локатор муфт,  -   16.0 см 
METKA              .                                       : 3 Метки,  -    0.0 см 
MN                 .ATM                                    : 15 Давление, атм. -  160.0 см 
MN$                .UE                                     : 7 Давление, усл.ед. -  160.0 см 
PL                 .UE                                     : 10 Плотность, усл.ед. -  270.0 см 
PL_2               .GSM3                                   : 18 Плотность, г./см3 -  270.0 см 
RCOR               .CM/KM                                  : 5 Коррекция по ролику, см/км -    0.0 см 
RES                .SM                                     : 17 Проводимость,  -  222.0 см 
SPID               .M/H                                    : 2 Скорость, м/час -    0.0 см 
STD                .                                       : 12 Приток,  -  170.0 см 
TIME               .S                                      : 4 Время, сек -    0.0 см 
TM                 .GRD                                    : 14 Температура, °C -  180.0 см 
TM$                .UE                                     : 6 Температура, усл.ед. -  180.0 см 
VGD                .                                       : 8 Влагомер,  -  170.0 см 
~Ascii
# ...
2729.599877 1165       11.23      535        70         0          377.742    17414      14         0          0          4.0303     580        9699       16368.72   49.498     12235      6727      
2729.799877 1164       12.06      581        69         0          378.113    17430      14         0          0          4.0243     568        9673       16370.03   49.37      12203      6729      
2729.999876 1163       12.67      581        62         0          378.497    17447      14         0          0          4.0188     580        9651       16371.31   49.269     12178      6727      
2730.199876 1161       13.29      638        93         1          378.753    17458      14         0          0          4.0093     580        9630       16373.25   49.174     12154      6729      
2730.399876 1163       13.94      638        94         0          379.271    17480      14         0          0          4.0172     580        9610       16374.57   49.04      12121      6729      
2730.599876 1159       14.32      641        121        0          379.379    17485      14         0          0          4.0013     580        9588       16375.85   48.931     12094      6729      
2730.799875 1162       14.51      641        89         0          379.526    17491      14         0          0          4.014      557        9565       16377.19   48.841     12072      6730      
2730.999875 1157       14.87      674        78         0          378.827    17463      14         0          0          3.9902     580        9550       16378.43   48.794     12060      6731      
2731.199875 1160       15.25      673        102        0          378.242    17439      14         0          0          4.0045     580        9540       16379.74   48.726     12044      6730      
2731.399874 1159       15.35      673        90         0          376.812    17381      14         0          0          4.0005     557        9532       16381.08   48.676     12031      6729      
2731.599874 1160       14.91      583        78         0          376.984    17388      14         0          0          4.0045     545        9527       16382.35   48.66      12027      6729      
2731.799874 1161       14.15      583        72         0          379.005    17471      14         0          0          4.0072     580        9518       16383.62   48.639     12022      6729      
2731.999873 1163       13.48      514        73         0          379.693    17500      14         0          0          4.0188     520        9510       16384.91   48.58      12007      6728      
2732.199873 1164       12.51      500        75         0          379.303    17484      14         0          0          4.0236     568        9505       16386.24   48.562     12003      6729      
2732.399873 1165       12.07      513        69         0          378.673    17458      14         0          0          4.0283     580        9500       16387.54   48.558     12002      6730      
2732.599872 1167       11.93      513        84         0          378.866    17466      14         0          0          4.0363     580        9498       16388.84   48.555     12001      6729      
2732.799872 1166       12.07      545        84         0          378.65     17457      14         0          0          4.0331     580        9497       16390.11   48.552     12001      6730      
2732.999872 1168       12.29      545        83         0          377.917    17427      14         0          0          4.0442     510        9500       16391.38   48.586     12009      6730      
2733.199872 1168       11.89      484        59         0          377.82     17422      14         0          0          4.0446     510        9502       16392.7    48.613     12016      6728      
2733.399871 1170       11.51      484        87         0          377.317    17401      14         0          0          4.0537     580        9509       16394      48.647     12024      6729      
2733.599871 1172       11.1       451        93         0          376.929    17385      14         0          0          4.0616     533        9513       16395.27   48.687     12034      6730      
2733.799871 1173       10.74      451        99         0          376.805    17380      14         0          0          4.0656     580        9520       16396.54   48.71      12040      6729      
2733.99987 1173       10.57      453        96         0          377.886    17424      14         0          0          4.0648     520        9527       16397.87   48.751     12050      6730      
2734.19987 1173       10.49      453        78         0          378.188    17436      14         0          0          4.0664     533        9536       16399.14   48.791     12060      6728      
2734.39987 1175       10.51      460        72         0          378.739    17458      14         0          0          4.0759     533        9545       16400.49   48.848     12074      6729      
2734.599869 1175       10.54      460        81         0          378.355    17442      14         0          0          4.0745     580        9555       16401.77   48.891     12084      6729      
2734.799869 1178       10.55      460        80         0          380.16     17516      14         0          0          4.0918     580        9567       16403.04   48.958     12101      6728      
2734.999869 1179       10.54      456        90         0          378.847    17462      14         0          0          4.0949     580        9576       16404.35   49.011     12114      6731      
2735.199869 1182       10.3       438        84         0          381.124    17555      14         0          0          4.1092     550        9590       16405.61   49.051     12124      6733      
2735.399868 1181       10.18      438        95         0          379.986    17507      14         0          0          4.1045     580        9601       16406.91   49.109     12138      6728      
2735.599868 1183       9.8        406        89         0          380.786    17540      14         0          0          4.1156     580        9614       16408.2    49.223     12167      6729      
2735.799868 1185       9.55       404        56         0          379.822    17499      14         0          0          4.1219     580        9630       16409.46   49.322     12191      6726      
2735.999867 1187       9.28       392        104        0          378.998    17465      14         0          0          4.133      580        9649       16410.78   49.413     12214      6726      
2736.199867 1187       9.22       409        100        0          378.552    17446      14         0          0          4.1314     510        9669       16412.07   49.466     12227      6724      
2736.399867 1189       9.48       425        133        0          378.563    17446      14         0          0          4.1425     580        9688       16413.36   49.531     12243      6719      
2736.599866 1190       9.59       420        6127       0          378.053    17425      14         0          0          4.1474     570        9704       16414.65   49.625     12266      6712      
2736.799866 1194       9.61       419        2368       0          378.221    17431      14         0          0          4.164      580        9721       16415.91   49.702     12285      6712      
2736.999866 1198       9.67       432        581        0          377.682    17409      14         0          0          4.184      533        9739       16417.25   49.751     12297      6713      
2737.199866 1198       10.08      458        193        0          377.543    17403      14         0          0          4.1854     550        9757       16418.55   49.793     12308      6711      
2737.399865 1201       10.47      499        183        0          376.901    17375      14         0          0          4.1997     580        9776       16419.85   49.88      12329      6710      
2737.599865 1200       11.14      515        117        0          378.363    17435      14         0          0          4.1965     580        9797       16421.13   50.004     12360      6711      
