~Version
 VERS              .         2.0                           : CWLS LOG ASCII STANDARD - VERSION 2.0
 WRAP              .         NO                            : ONE LINE PER DEPTH STEP
 DLM               .         SPACE                         : DELIMITING CHARACTER(SPACE TAB OR COMMA)
~Well Information
#_______________________________________________________________________________
#
#PARAMETER_NAME    .UNIT     VALUE                         : DESCRIPTION
#_______________________________________________________________________________
STRT               .M        2310.8                        : First reference value
STOP               .M        2792.2                        : Last reference value
STEP               .M        0.2                           : Step increment
NULL               .         -9999                         : Missing value
COMP               .                                       : Company
WELL               .         616                           : Well name
FLD                .                                       : Field
LOC                .                                       : Location
CNTY               .                                       : County
STAT               .                                       : State
CTRY               .                                       : Country
SRVC               .                                       : Service Company
DATE               .                                       : Date
API                .                                       : API number
PROJECT_UPGRADE_TIME .         2021-03-18T21_24_50           : 
group              .         Good                          : 
~Parameter Information Block
#_______________________________________________________________________________
#
#PARAMETER_NAME    .UNIT     VALUE                         : DESCRIPTION
#_______________________________________________________________________________
SET                .         D2660_D                       : 
OTHER              .         Программное обеспечение станции MONITOR-386EX 25/12/99 15_08_10   BGF V50 26/12/00 07_26_01   3.1_SNGF___BGF_N_092085: 
OTHER_10           .         Тарировки_                    : 
OTHER_2            .         Kedr.exe версия 3.3.2.32      : 
OTHER_3            .         KedrData.dll версия 3.3.2.17  : 
OTHER_4            .         Драйвер версия 2.1.0.1        : 
OTHER_5            .         Мнемоники версия 3.3 S        : 
OTHER_6            .         Прибор_ ПС                    : 
OTHER_7            .         Номер прибора_ 348\072        : 
OTHER_8            .         Режим_ ПС                     : 
OTHER_9            .         Форма_ ПС                     : 
PROJECT_UPGRADE_TIME .         2021-03-18T21_24_49           : 
TLFamily_DEPT      .         Measured Depth                : 
TLFamily_METKA     .                                       : 
TLFamily_PS        .         Spontaneous Potential         : 
TLFamily_RCOR      .                                       : 
TLFamily_SPID      .         Spontaneous Potential         : 
TLFamily_TENS      .         Cable Tension                 : 
TLFamily_TIME      .         Time                          : 
group              .         prim                          : 
~Curve Information
#_______________________________________________________________________________
#
#LOGNAME           .UNIT     LOG_ID                        : DESCRIPTION
#_______________________________________________________________________________
DEPT               .M                                      : 1 Глубина, м -    0.0 см 
METKA              .                                       : 3 Метки,  -    0.0 см 
PS                 .mV                                     : 7 ПС, мВ - 1210.0 см 
RCOR               .CM/KM                                  : 5 Коррекция по ролику, см/км -    0.0 см 
SPID               .M/H                                    : 2 Скорость, м/час -    0.0 см 
TENS               .T                                      : 6 Натяжение кабеля, т -    0.0 см 
TIME               .S                                      : 4 Время, сек -    0.0 см 
~Ascii
# ...
2581.2     0          537.79     -376       -1981      0          30235.39  
2581.4     0          538.06     -376       -1983      0          30235.05  
2581.6     0          539.09     -376       -2003      0          30234.69  
2581.8     0          539.19     -376       -2050      0          30234.34  
2582       0          539.94     -376       -2050      0          30233.98  
2582.2     0          540.13     -376       -2048      0          30233.63  
2582.4     0          540.25     -376       -2038      0          30233.25  
2582.6     0          539.61     -376       -1979      0          30232.94  
2582.8     0          539.76     -376       -1932      0          30232.57  
2583       0          538.89     -376       -1985      0          30232.2   
2583.2     0          539.95     -376       -2015      0          30231.84  
2583.4     0          540.12     -376       -2050      0          30231.46  
2583.6     0          540.25     -376       -2050      0          30231.11  
2583.8     0          539.51     -376       -2047      0          30230.75  
2584       0          538.92     -376       -2034      0          30230.41  
2584.2     0          538.02     -376       -1950      0          30230.06  
2584.4     0          538.39     -376       -1953      0          30229.71  
2584.6     0          539.28     -376       -2050      0          30229.35  
2584.8     0          539.68     -376       -2048      0          30229     
2585       0          538.97     -376       -2033      0          30228.63  
2585.2     0          539.55     -376       -1976      0          30228.27  
2585.4     0          538.37     -376       -1956      0          30227.95  
2585.6     0          538.02     -376       -1942      0          30227.6   
2585.8     0          539.16     -376       -2050      0          30227.21  
2586       0          540.72     -376       -2049      0          30226.86  
2586.2     0          540.91     -376       -2041      0          30226.5   
2586.4     0          538.45     -376       -1987      0          30226.14  
2586.6     0          530.34     -376       -2003      0          30225.78  
2586.8     0          533.6      -376       -2043      0          30225.42  
2587       0          536.41     -376       -2011      0          30225.11  
2587.2     0          536.78     -376       -1981      0          30224.73  
2587.4     0          534.7      -376       -1985      0          30224.37  
2587.6     0          528.11     -376       -2012      0          30224.01  
2587.8     0          524.86     -376       -2049      0          30223.66  
2588       0          532.37     -376       -2043      0          30223.3   
2588.2     0          536.91     -376       -2002      0          30222.94  
2588.4     0          538.55     -376       -1935      0          30222.62  
2588.6     0          538.46     -376       -2034      0          30222.23  
2588.8     0          536.8      -376       -2029      0          30221.88  
2589       0          533.5      -376       -1989      0          30221.52  
2589.2     0          524.99     -376       -2037      0          30221.15  
2589.4     0          521.73     -376       -2050      0          30220.79  
2589.6     0          526.05     -376       -2050      0          30220.46  
2589.8     1          529.92     -376       -2048      0          30220.1   
2590       0          535.03     -376       -2038      0          30219.74  
2590.2     0          538.67     -375       -1980      0          30219.38  
2590.4     0          538.68     -375       -1980      0          30219.02  
2590.6     0          540.95     -375       -1980      0          30218.67  
2590.8     0          540.01     -375       -1983      0          30218.3   
2591       0          541        -375       -2002      0          30217.94  
2591.2     0          541.95     -375       -2042      0          30217.59  
2591.4     0          541.76     -375       -1999      0          30217.23  
2591.6     0          540.06     -375       -1981      0          30216.88  
2591.8     0          542.07     -375       -1987      0          30216.51  
2592       0          541.09     -375       -2026      0          30216.15  
2592.2     0          541.87     -375       -2050      0          30215.8   
2592.4     0          541.93     -375       -2050      0          30215.44  
2592.6     0          542.14     -375       -2048      0          30215.11  
2592.8     0          541.33     -375       -2038      0          30214.75  
2593       0          542.6      -375       -1977      0          30214.4   
2593.2     0          541.1      -375       -1963      0          30214.04  
2593.4     0          538.92     -375       -1936      0          30213.67  
2593.6     0          538.53     -375       -2025      0          30213.33  
2593.8     0          536.45     -375       -2049      0          30212.96  
2594       0          538.29     -375       -2043      0          30212.59  
2594.2     0          539.94     -375       -2009      0          30212.24  
2594.4     0          539.97     -375       -1981      0          30211.9   
2594.6     0          539.95     -375       -1985      0          30211.54  
2594.8     0          540.41     -375       -2010      0          30211.19  
2595       0          540.91     -375       -2049      0          30210.83  
2595.2     0          539.84     -375       -2046      0          30210.47  
2595.4     0          540.25     -375       -2023      0          30210.11  
2595.6     0          542.3      -375       -1980      0          30209.77  
2595.8     0          540.13     -375       -1980      0          30209.42  
2596       0          538.65     -375       -1980      0          30209.06  
2596.2     0          539.72     -375       -1980      0          30208.71  
2596.4     0          541.27     -375       -1982      0          30208.36  
2596.6     0          543.47     -375       -1995      0          30207.98  
2596.8     0          542.58     -375       -2045      0          30207.62  
2597       0          542.84     -375       -2020      0          30207.27  
2597.2     0          541.78     -375       -1990      0          30206.92  
2597.4     0          540.9      -375       -2044      0          30206.57  
2597.6     0          539.35     -375       -2009      0          30206.21  
2597.8     0          538.23     -375       -1935      0          30205.86  
2598       0          540.4      -375       -2037      0          30205.48  
2598.2     0          540.55     -375       -2049      0          30205.12  
2598.4     0          541.04     -375       -2042      0          30204.76  
2598.6     0          543.39     -375       -2001      0          30204.42  
2598.8     0          544.17     -375       -1980      0          30204.08  
2599       0          543.95     -375       -1980      0          30203.72  
2599.2     0          543.66     -375       -1982      0          30203.35  
2599.4     0          543.7      -375       -1992      0          30202.99  
2599.6     0          544.59     -375       -2050      0          30202.63  
2599.8     1          542.35     -375       -2048      0          30202.27  
2600       0          541.42     -374       -2032      0          30201.89  
2600.2     0          543.41     -374       -1933      0          30201.55  
2600.4     0          543.78     -374       -1961      0          30201.19  
2600.6     0          543.43     -374       -2050      0          30200.84  
2600.8     0          544.19     -374       -2047      0          30200.48  
2601       0          544.91     -374       -2031      0          30200.13  
2601.2     0          545.97     -374       -1975      0          30199.76  
2601.4     0          545.47     -374       -1945      0          30199.39  
2601.6     0          545.74     -374       -1945      0          30199.07  
2601.8     0          545.69     -374       -2045      0          30198.71  
