~Version
 VERS              .         2.0                           : CWLS LOG ASCII STANDARD - VERSION 2.0
 WRAP              .         NO                            : ONE LINE PER DEPTH STEP
 DLM               .         SPACE                         : DELIMITING CHARACTER(SPACE TAB OR COMMA)
~Well Information
#_______________________________________________________________________________
#
#PARAMETER_NAME    .UNIT     VALUE                         : DESCRIPTION
#_______________________________________________________________________________
STRT               .M        2658                          : First reference value
STOP               .M        2762                          : Last reference value
STEP               .M        0.2                           : Step increment
NULL               .         -9999                         : Missing value
COMP               .                                       : Company
WELL               .         616                           : Well name
FLD                .                                       : Field
LOC                .                                       : Location
CNTY               .                                       : County
STAT               .                                       : State
CTRY               .                                       : Country
SRVC               .                                       : Service Company
DATE               .                                       : Date
API                .                                       : API number
PROJECT_UPGRADE_TIME .         2021-03-18T21_24_50           : 
group              .         Good                          : 
~Parameter Information Block
#_______________________________________________________________________________
#
#PARAMETER_NAME    .UNIT     VALUE                         : DESCRIPTION
#_______________________________________________________________________________
SET                .         D8103_D                       : 
OTHER              .         Программное обеспечение станции MONITOR-386EX 25/12/99 15_08_10   BGF V52 22/08/01 16_56_30   4_SNGF_BGF_N_011645: 
OTHER_10           .         Тарировки_                    : 
OTHER_11           .         TM.GRD = 0.00412*TM$.UE + -2.13: 
OTHER_12           .         MN.ATM = (5.87652e-006*TM.GRD + 0.01993)*(MN$.UE + -2.72*TM.GRD + -1925): 
OTHER_13           .         GK.MKR/H = GK$.UE / 57.4657   : 
OTHER_2            .         Kedr.exe версия 3.4.2.51      : 
OTHER_3            .         KedrData.dll версия 3.4.2.24  : 
OTHER_4            .         Драйвер версия 2.1.0.2        : 
OTHER_5            .         Мнемоники версия 3.3 S        : 
OTHER_6            .         Прибор_ АКП4-90               : 
OTHER_7            .         Номер прибора_ 53             : 
OTHER_8            .         Режим_ АКП4_90                : 
OTHER_9            .         Форма_ ПК-53ое                : 
PROJECT_UPGRADE_TIME .         2021-03-18T21_24_50           : 
TLFamily_DEPT      .         Measured Depth                : 
TLFamily_GK        .         Gamma Ray                     : 
TLFamily_GK$       .                                       : 
TLFamily_LM        .         Casing Collar locator         : 
TLFamily_METKA     .                                       : 
TLFamily_METKA_1   .                                       : 
TLFamily_MN        .                                       : 
TLFamily_MN$       .                                       : 
TLFamily_RCOR      .                                       : 
TLFamily_SPID      .         Spontaneous Potential         : 
TLFamily_TENS      .         Cable Tension                 : 
TLFamily_TIME      .         Time                          : 
TLFamily_TM        .         Temperature                   : 
TLFamily_TM$       .         Temperature                   : 
group              .         prim                          : 
~Curve Information
#_______________________________________________________________________________
#
#LOGNAME           .UNIT     LOG_ID                        : DESCRIPTION
#_______________________________________________________________________________
DEPT               .M                                      : 1 Глубина, м -    0.0 см 
GK                 .MKR/H                                  : 13 Гамма-активность, мкр./ч -   65.0 см 
GK$                .UE                                     : 10 Гамма-активность, усл.ед. -   65.0 см 
LM                 .                                       : 9 Локатор муфт,  -   30.0 см 
METKA              .                                       : 3 Метки,  -    0.0 см 
METKA_1            .                                       : 14 Маркеры - 65 см 
MN                 .ATM                                    : 12 Давление, атм. -  140.0 см 
MN$                .UE                                     : 8 Давление, усл.ед. -  140.0 см 
RCOR               .CM/KM                                  : 5 Коррекция по ролику, см/км -    0.0 см 
SPID               .M/H                                    : 2 Скорость, м/час -    0.0 см 
TENS               .T                                      : 6 Натяжение кабеля, т -    0.0 см 
TIME               .S                                      : 4 Время, сек -    0.0 см 
TM                 .GRD                                    : 11 Температура, °C -  145.0 см 
TM$                .UE                                     : 7 Температура, усл.ед. -  145.0 см 
~Ascii
# ...
2741.2     7.41       426        518        0          0          251.437    14541      -10        -320       0.82       3091.39    50.981     12891     
2741.4     7.17       412        379        0          0          251.437    14541      -10        -329       0.82       3089.25    51.014     12899     
2741.6     7.03       404        395        0          0          251.443    14541      -10        -328       0.82       3087.07    51.162     12935     
2741.8     6.95       399        82         0          0          251.477    14543      -10        -335       0.82       3084.84    51.311     12971     
2742       7.17       412        129        0          0          251.497    14544      -10        -329       0.82       3082.73    51.512     13020     
2742.2     7.03       404        201        0          0          251.517    14545      -10        -329       0.82       3080.55    51.606     13043     
2742.4     6.45       370        335        0          0          251.517    14545      -10        -331       0.82       3078.38    51.764     13081     
2742.6     6.91       397        196        0          0          251.55     14547      -10        -327       0.82       3076.2     51.859     13104     
2742.8     7.24       416        237        0          0          251.557    14547      -10        -332       0.82       3074.03    52.034     13147     
2743       6.98       401        132        0          0          251.576    14548      -10        -323       0.82       3071.86    52.184     13183     
2743.2     6.76       389        216        0          0          251.603    14549      -10        -329       0.82       3069.69    52.357     13225     
2743.4     6.34       364        243        0          0          251.636    14551      -10        -329       0.81       3067.51    52.501     13260     
2743.6     6.07       349        454        0          0          251.636    14551      -10        -327       0.8        3065.3     52.676     13303     
2743.8     6.52       375        132        0          0          251.676    14553      -10        -325       0.82       3063.07    52.828     13339     
2744       6.84       393        127        0          0          251.676    14553      -10        -322       0.8        3060.89    52.975     13375     
2744.2     6.84       393        298        0          0          251.636    14551      -10        -323       0.8        3058.75    53.136     13414     
2744.4     6.7        385        584        0          0          251.716    14555      -10        -329       0.8        3056.61    53.331     13461     
2744.6     6.69       384        829        0          0          251.661    14552      -10        -330       0.8        3054.37    53.401     13478     
2744.8     6.58       378        389        0          0          251.676    14553      -10        -324       0.8        3052.2     53.601     13527     
2745       6.51       374        192        0          0          251.716    14555      -10        -327       0.8        3050.05    53.766     13567     
2745.2     6.77       389        332        0          0          251.721    14555      -10        -322       0.81       3047.92    53.921     13605     
2745.4     7.75       446        712        0          0          251.736    14556      -10        -323       0.81       3045.67    54.073     13641     
2745.6     7.56       434        196        0          0          251.776    14558      -10        -326       0.8        3043.41    54.289     13694     
2745.8     6.53       375        189        0          0          251.809    14560      -10        -331       0.8        3041.33    54.392     13719     
2746       6.51       374        287        0          0          251.816    14560      -10        -325       0.82       3039.06    54.595     13768     
2746.2     6.64       382        596        0          0          251.835    14561      -10        -329       0.81       3036.95    54.856     13832     
2746.4     6.59       379        133        0          0          251.862    14562      -10        -329       0.8        3034.71    54.934     13850     
2746.6     6.18       355        629        0          0          251.875    14563      -10        -337       0.82       3032.54    55.134     13899     
2746.8     5.88       338        649        0          0          251.9      14564      -10        -328       0.8        3030.36    55.324     13945     
2747       5.91       339        364        0          0          251.955    14567      -10        -331       0.8        3028.19    55.476     13982     
2747.2     5.69       327        158        0          0          251.94     14566      -10        -325       0.8        3026.02    55.653     14025     
2747.4     5.48       315        102        0          0          251.97     14568      -10        -329       0.8        3023.84    55.845     14072     
2747.6     5.94       341        428        0          0          251.982    14568      -10        -327       0.8        3021.68    56.045     14120     
2747.8     6.46       371        605        0          0          252        14569      -10        -330       0.81       3019.52    56.227     14164     
2748       6.5        374        154        0          0          251.995    14569      -10        -331       0.8        3017.27    56.397     14206     
2748.2     6.44       370        475        0          0          252.04     14571      -10        -323       0.8        3015.18    56.551     14243     
2748.4     5.67       326        820        0          0          252.055    14572      -10        -326       0.8        3012.93    56.72      14284     
2748.6     4.91       282        195        0          0          252.09     14574      -10        -331       0.8        3010.77    56.844     14314     
2748.8     5.24       301        249        0          0          252.095    14574      -10        -330       0.8        3008.62    56.932     14335     
2749       5.5        316        230        0          0          252.081    14573      -10        -330       0.8        3006.42    57.152     14389     
2749.2     5.2        299        188        0          0          252.108    14575      -10        -329       0.8        3004.23    57.383     14445     
2749.4     5.35       308        1502       0          0          252.159    14577      -10        -330       0.8        3002.11    57.5       14473     
2749.6     5.52       317        18040      0          0          252.154    14577      -10        -323       0.8        2999.9     57.633     14506     
2749.8     5.91       340        15055      0          0          252.188    14579      -10        -326       0.8        2997.74    57.837     14555     
2750       5.98       344        209        0          0          252.221    14580      -10        -322       0.8        2995.58    57.94      14580     
2750.2     6.2        357        587        0          0          252.214    14580      -10        -324       0.8        2993.39    58.087     14616     
2750.4     5.9        339        425        0          0          252.214    14580      -10        -328       0.82       2991.14    58.292     14665     
2750.6     5.81       334        168        2          0          252.254    14582      -10        -332       0.81       2989.59    58.414     14695     
2750.8     6.26       360        174        0          0          252.274    14583      -10        -335       0.78       2987.68    58.633     14748     
2751       6.24       359        161        0          0          252.28     14583      -10        -327       0.8        2985.49    58.81      14791     
2751.2     6.15       354        509        0          0          252.314    14585      -10        -324       0.8        2983.4     58.961     14828     
2751.4     5.62       323        377        0          0          252.334    14586      -10        -331       0.8        2981.21    59.056     14851     
