~Version
 VERS              .         2.0                           : CWLS LOG ASCII STANDARD - VERSION 2.0
 WRAP              .         NO                            : ONE LINE PER DEPTH STEP
 DLM               .         SPACE                         : DELIMITING CHARACTER(SPACE TAB OR COMMA)
~Well Information
#_______________________________________________________________________________
#
#PARAMETER_NAME    .UNIT     VALUE                         : DESCRIPTION
#_______________________________________________________________________________
STRT               .M        2648.2                        : First reference value
STOP               .M        2758.600166                   : Last reference value
STEP               .M        0.2000003                     : Step increment
NULL               .         -9999                         : Missing value
COMP               .                                       : Company
WELL               .         616                           : Well name
FLD                .                                       : Field
LOC                .                                       : Location
CNTY               .                                       : County
STAT               .                                       : State
CTRY               .                                       : Country
SRVC               .                                       : Service Company
DATE               .                                       : Date
API                .                                       : API number
PROJECT_UPGRADE_TIME .         2021-03-18T21_24_50           : 
group              .         Good                          : 
~Parameter Information Block
#_______________________________________________________________________________
#
#PARAMETER_NAME    .UNIT     VALUE                         : DESCRIPTION
#_______________________________________________________________________________
SET                .         D7020_D                       : 
OTHER              .         Kedr.exe версия 2.1.2.32      : 
OTHER_10           .         TM.GRD = 0.00404*TM$.UE + 0.07: 
OTHER_11           .         MN.ATM = (6.33279e-006*TM.GRD + 0.02401)*(MN$.UE + 2.72*TM.GRD + -2018): 
OTHER_12           .         GK.MKR/H = GK$.UE / 43.5489 + 0: 
OTHER_13           .         RES.SM = 0.00476*CRES.UE - 1.51709: 
OTHER_14           .         PL.GSM3 = 0 + 0 * (PL.UE / 1) +  0 * (PL.UE / 1)^2: 
OTHER_15           .         Постоянная времени ГГП = 6 сек: 
OTHER_16           .         Постоянная времени ГК = 6 сек : 
OTHER_2            .         KedrData.dll версия 3.2.2.14  : 
OTHER_3            .         LasInf.dll версия 3.2.0.13    : 
OTHER_4            .         Драйвер версия 1.2.0.5        : 
OTHER_5            .         Прибор_ КСА-M1                : 
OTHER_6            .         Номер прибора_ 155+р204       : 
OTHER_7            .         Режим_ КСА-М1 + ГГП + Резистивиметр: 
OTHER_8            .         Форма_ 223\2                  : 
OTHER_9            .         Тарировки_                    : 
PROJECT_UPGRADE_TIME .         2021-03-18T21_24_50           : 
TLFamily_CRES      .                                       : 
TLFamily_DEPT      .         Measured Depth                : 
TLFamily_GK        .         Gamma Ray                     : 
TLFamily_GK$       .                                       : 
TLFamily_LM        .         Casing Collar locator         : 
TLFamily_METKA     .                                       : 
TLFamily_MN        .                                       : 
TLFamily_MN$       .                                       : 
TLFamily_PL        .                                       : 
TLFamily_PL_2      .                                       : 
TLFamily_RCOR      .                                       : 
TLFamily_RES       .         Mud Resistivity               : 
TLFamily_SPID      .         Spontaneous Potential         : 
TLFamily_STD       .                                       : 
TLFamily_TIME      .         Time                          : 
TLFamily_TM        .         Temperature                   : 
TLFamily_TM$       .         Temperature                   : 
TLFamily_VGD       .         Gas Volume                    : 
group              .         prim                          : 
~Curve Information
#_______________________________________________________________________________
#
#LOGNAME           .UNIT     LOG_ID                        : DESCRIPTION
#_______________________________________________________________________________
DEPT               .M                                      : 1 Глубина, м -    0.0 см 
CRES               .UE                                     : 9 Проводимость, усл.ед. -  222.0 см 
GK                 .MKR/H                                  : 16 Гамма-активность, мкр./ч -  106.0 см 
GK$                .UE                                     : 13 Гамма-активность, усл.ед. -  106.0 см 
LM                 .                                       : 11 Локатор муфт,  -   16.0 см 
METKA              .                                       : 3 Метки,  -    0.0 см 
MN                 .ATM                                    : 15 Давление, атм. -  160.0 см 
MN$                .UE                                     : 7 Давление, усл.ед. -  160.0 см 
PL                 .UE                                     : 10 Плотность, усл.ед. -  270.0 см 
PL_2               .GSM3                                   : 18 Плотность, г./см3 -  270.0 см 
RCOR               .CM/KM                                  : 5 Коррекция по ролику, см/км -    0.0 см 
RES                .SM                                     : 17 Проводимость,  -  222.0 см 
SPID               .M/H                                    : 2 Скорость, м/час -    0.0 см 
STD                .                                       : 12 Приток,  -  170.0 см 
TIME               .S                                      : 4 Время, сек -    0.0 см 
TM                 .GRD                                    : 14 Температура, °C -  180.0 см 
TM$                .UE                                     : 6 Температура, усл.ед. -  180.0 см 
VGD                .                                       : 8 Влагомер,  -  170.0 см 
~Ascii
2648.1999512 -9999      -9999      -9999      -9999      -9999      -9999      -9999      -9999      -9999      -9999      -9999      -9999      -9999      -9999      -9999      -9999      -9999     
2648.4     -9999      -9999      -9999      -9999      0          -9999      -9999      -9999      -9999      0          -9999      190        -9999      11162.09   -9999      -9999      -9999     
2648.600001 -9999      -9999      -9999      36         0          -9999      -9999      -9999      -9999      0          -9999      237        -9999      11166.13   -9999      -9999      -9999     
2648.800001 -9999      -9999      -9999      135        0          -9999      -9999      -9999      -9999      0          -9999      450        -9999      11167.84   -9999      -9999      -9999     
2649.000001 -9999      -9999      -9999      107        0          -9999      -9999      -9999      -9999      0          -9999      580        -9999      11169.04   -9999      -9999      -9999     
2649.200001 -9999      -9999      -9999      126        0          -9999      -9999      -9999      -9999      0          -9999      580        -9999      11170.34   -9999      -9999      -9999     
2649.400002 -9999      -9999      -9999      120        0          -9999      -9999      -9999      -9999      0          -9999      510        -9999      11171.6    -9999      -9999      -9999     
2649.600002 -9999      9.75       415        74         0          -9999      -9999      -9999      -9999      0          -9999      530        -9999      11172.89   -9999      -9999      -9999     
2649.800002 -9999      9.56       406        54         0          -9999      -9999      -9999      -9999      0          -9999      510        -9999      11174.25   -9999      -9999      -9999     
2650.000003 -9999      9.42       404        60         0          243.192    11881      -9999      -9999      0          -9999      580        -9999      11175.57   -9999      -9999      -9999     
2650.200003 -9999      9.18       373        81         1          243.155    11879      -9999      -9999      0          -9999      580        9748       11177.35   49.709     12287      6660      
2650.400003 -9999      8.88       373        41         0          243.204    11881      -9999      -9999      0          -9999      580        9751       11178.69   49.707     12286      6657      
2650.600004 -9999      8.8        391        49         0          243.202    11881      -9999      -9999      0          -9999      557        9748       11180      49.709     12287      6657      
2650.800004 1281       8.94       395        78         0          243.225    11882      -9999      -9999      0          4.5805     510        9744       11181.32   49.689     12282      6652      
2651.000004 1280       9.22       430        110        0          243.248    11883      -9999      -9999      0          4.5738     568        9741       11182.59   49.68      12280      6661      
2651.200004 1278       9.62       430        61         0          243.258    11883      14         0          0          4.5676     580        9736       11183.9    49.669     12277      6666      
2651.400005 1277       9.69       425        50         0          243.253    11883      14         0          0          4.5614     580        9731       11185.17   49.667     12277      6664      
2651.600005 1277       9.76       432        178        0          243.279    11885      13         0          0          4.5606     510        9724       11186.49   49.648     12272      6663      
2651.800005 1277       9.88       436        114        0          243.311    11886      14         0          0          4.5614     557        9717       11187.8    49.627     12266      6667      
2652.000006 1277       9.93       433        86         0          243.319    11886      13         0          0          4.5614     580        9715       11189.12   49.596     12259      6667      
2652.200006 1275       9.8        421        69         0          243.342    11887      13         0          0          4.5527     580        9711       11190.37   49.595     12259      6666      
2652.400006 1276       9.64       398        60         0          243.356    11888      14         0          0          4.5551     580        9706       11191.7    49.583     12256      6667      
2652.600007 1277       9.35       394        57         0          243.38     11889      15         0          0          4.5614     510        9706       11193.02   49.564     12251      6668      
2652.800007 1275       9.26       405        85         0          243.403    11890      14         0          0          4.5519     510        9701       11194.33   49.563     12251      6667      
2653.000007 1275       9.28       405        81         0          243.433    11891      13         0          0          4.5519     510        9699       11195.6    49.556     12249      6667      
2653.200007 1276       9.39       428        65         0          243.449    11892      13         0          0          4.5559     580        9693       11196.89   49.546     12247      6667      
2653.400008 1276       9.65       432        73         0          243.456    11892      14         0          0          4.5567     580        9692       11198.17   49.532     12243      6667      
2653.600008 1276       9.79       432        70         0          243.47     11893      14         0          0          4.5546     569        9692       11199.5    49.526     12242      6667      
2653.800008 1275       9.85       432        66         0          243.513    11895      15         0          0          4.5519     510        9692       11200.8    49.509     12237      6668      
2654.000009 1274       9.92       437        77         0          243.517    11895      14         0          0          4.5472     580        9690       11202.06   49.492     12233      6667      
2654.200009 1275       9.98       437        49         0          243.54     11896      14         0          0          4.5519     533        9685       11203.4    49.494     12234      6666      
2654.400009 1274       10.01      438        45         0          243.539    11896      14         0          0          4.5495     580        9680       11204.65   49.481     12230      6666      
2654.60001 1275       10.04      438        98         0          243.586    11898      14         0          0          4.5519     510        9677       11205.96   49.475     12229      6667      
2654.80001 1274       9.86       415        96         0          243.601    11899      14         0          0          4.5472     545        9677       11207.3    49.463     12226      6667      
2655.00001 1274       9.7        415        74         0          243.618    11899      14         0          0          4.5495     580        9678       11208.6    49.446     12222      6667      
2655.20001 1273       9.79       433        144        0          243.608    11899      13         0          0          4.544      580        9677       11209.86   49.429     12217      6668      
2655.400011 1274       9.87       433        125        0          243.626    11900      15         0          0          4.5471     580        9676       11211.14   49.411     12213      6668      
2655.600011 1273       10         444        72         0          243.648    11901      14         0          0          4.5432     545        9670       11212.44   49.398     12210      6668      
2655.800011 1272       10.09      444        74         0          243.671    11902      14         0          0          4.54       580        9666       11213.71   49.381     12206      6667      
2656.000012 1271       9.77       406        98         0          243.714    11904      13         0          0          4.5329     510        9661       11215.01   49.367     12202      6668      
2656.200012 1271       9.55       406        99         0          243.716    11904      13         0          0          4.5329     568        9663       11216.28   49.35      12198      6669      
