~Version
 VERS              .         2.0                           : CWLS LOG ASCII STANDARD - VERSION 2.0
 WRAP              .         NO                            : ONE LINE PER DEPTH STEP
 DLM               .         SPACE                         : DELIMITING CHARACTER(SPACE TAB OR COMMA)
~Well Information
#_______________________________________________________________________________
#
#PARAMETER_NAME    .UNIT     VALUE                         : DESCRIPTION
#_______________________________________________________________________________
STRT               .M        2668.8                        : First reference value
STOP               .M        2773                          : Last reference value
STEP               .M        0.1999999                     : Step increment
NULL               .         -9999                         : Missing value
COMP               .                                       : Company
WELL               .         616                           : Well name
FLD                .                                       : Field
LOC                .                                       : Location
CNTY               .                                       : County
STAT               .                                       : State
CTRY               .                                       : Country
SRVC               .                                       : Service Company
DATE               .                                       : Date
API                .                                       : API number
PROJECT_UPGRADE_TIME .         2021-03-18T21_24_50           : 
group              .         Good                          : 
~Parameter Information Block
#_______________________________________________________________________________
#
#PARAMETER_NAME    .UNIT     VALUE                         : DESCRIPTION
#_______________________________________________________________________________
SET                .         D0403_D                       : 
OTHER              .         Прибор_ АКП4_90               : 
OTHER_2            .         Номер прибора_ 56             : 
OTHER_3            .         Режим_ АКП4_90 - все каналы   : 
OTHER_4            .         Форма_ Г-1                    : 
OTHER_5            .         Тарировки_                    : 
OTHER_6            .         TM.GRD = 0.00379*TM$.UE + 7.11: 
OTHER_7            .         MN.ATM = (8e-006*TM.GRD + 0.02)*(MN$.UE + -8*TM.GRD + -1800): 
OTHER_8            .         GK.MKR/H = GK$.UE / 57.17 + 0 : 
PROJECT_UPGRADE_TIME .         2021-03-18T21_24_49           : 
TLFamily_DEPT      .         Measured Depth                : 
TLFamily_GK        .         Gamma Ray                     : 
TLFamily_GK$       .                                       : 
TLFamily_LM        .         Casing Collar locator         : 
TLFamily_METKA     .                                       : 
TLFamily_METKA_1   .                                       : 
TLFamily_MN        .                                       : 
TLFamily_MN$       .                                       : 
TLFamily_RCOR      .                                       : 
TLFamily_SPID      .         Spontaneous Potential         : 
TLFamily_TIME      .         Time                          : 
TLFamily_TM        .         Temperature                   : 
TLFamily_TM$       .         Temperature                   : 
group              .         second                        : 
~Curve Information
#_______________________________________________________________________________
#
#LOGNAME           .UNIT     LOG_ID                        : DESCRIPTION
#_______________________________________________________________________________
DEPT               .M                                      : 1 Глубина, м -    0.0 см 
GK                 .MKR/H                                  : 12 Гамма-активность, мкр./ч -   65.0 см 
GK$                .UE                                     : 9 Гамма-активность, усл.ед. -   65.0 см 
LM                 .                                       : 8 Локатор муфт,  -   30.0 см 
METKA              .                                       : 3 Метки,  -    0.0 см 
METKA_1            .                                       : 13 Маркеры - 65 см 
MN                 .ATM                                    : 11 Давление, атм. -  140.0 см 
MN$                .UE                                     : 7 Давление, усл.ед. -  140.0 см 
RCOR               .CM/KM                                  : 5 Коррекция по ролику, см/км -    0.0 см 
SPID               .M/H                                    : 2 Скорость, м/час -    0.0 см 
TIME               .S                                      : 4 Время, сек -    0.0 см 
TM                 .GRD                                    : 10 Температура, °C -  145.0 см 
TM$                .UE                                     : 6 Температура, усл.ед. -  145.0 см 
~Ascii
2668.8000488 -9999      -9999      -9999      0          0          -9999      -9999      0          -260       2836.87    -9999      -9999     
2669       -9999      -9999      -9999      0          0          -9999      -9999      0          -320       2834.51    -9999      -9999     
2669.2     -9999      -9999      665        0          0          -9999      -9999      0          -305       2832       -9999      -9999     
2669.4     -9999      -9999      665        0          0          -9999      -9999      0          -320       2829.66    -9999      -9999     
2669.6     5.21       284        709        0          0          -9999      -9999      0          -260       2827.19    -9999      -9999     
2669.8     5.35       291        756        1          0          -9999      -9999      0          -320       2824.77    -9999      -9999     
2670       5.36       311        674        0          0          -9999      -9999      0          -320       2821.49    -9999      -9999     
2670.2     5.32       308        679        0          0          257.103    14906      0          -320       2818.99    -9999      -9999     
2670.4     5.24       310        765        0          0          257.124    14907      0          -320       2816.66    82.974     20017     
2670.6     5.17       300        788        0          0          257.159    14909      0          -291       2814.15    82.981     20019     
2670.8     5.31       299        686        0          0          257.157    14909      0          -320       2811.65    82.993     20022     
2671       5.38       306        745        0          0          257.184    14910      0          -260       2809.21    83.002     20024     
2671.2     5.37       313        667        0          0          257.204    14911      0          -320       2806.76    83.012     20027     
2671.4     5.28       307        676        0          0          257.235    14912      0          -320       2804.32    83.012     20027     
2671.6     5.37       305        665        0          0          257.245    14913      0          -320       2801.9     83.02      20029     
2671.8     5.34       324        613        0          0          257.286    14915      0          -280       2799.55    83.024     20030     
2672       5.03       314        631        0          0          257.296    14916      0          -280       2797.11    83.027     20031     
2672.2     4.87       278        662        0          0          257.306    14916      0          -320       2794.67    83.035     20033     
2672.4     4.98       271        584        0          0          257.347    14918      0          -260       2792.22    83.043     20035     
2672.6     5.28       263        491        0          0          257.36     14919      0          -300       2789.78    83.05      20037     
2672.8     5.44       300        581        0          0          257.387    14920      0          -305       2787.43    83.054     20038     
2673       5.37       323        771        0          0          257.407    14921      0          -320       2785.01    83.058     20039     
2673.2     5.36       302        689        0          0          257.435    14922      0          -320       2782.58    83.065     20041     
2673.4     5.63       282        566        0          0          257.462    14924      0          -280       2780.13    83.069     20042     
2673.6     5.96       312        651        0          0          257.469    14924      0          -320       2777.68    83.073     20043     
2673.8     6.1        349        743        0          0          257.482    14925      0          -280       2775.24    83.077     20044     
2674       6.06       354        1022       0          0          257.516    14926      0          -320       2772.86    83.084     20046     
2674.2     6.05       338        745        0          0          257.524    14927      0          -260       2770.35    83.089     20047     
2674.4     6.3        323        3683       0          0          257.55     14928      0          -320       2768.01    83.094     20049     
2674.6     6.61       368        6650       0          0          257.57     14929      0          -280       2765.55    83.103     20051     
2674.8     6.69       381        763        0          0          257.604    14931      0          -300       2763.11    83.107     20052     
2675       6.75       374        618        0          0          257.632    14932      0          -260       2760.67    83.107     20052     
2675.2     6.81       395        601        0          0          257.631    14932      0          -320       2758.35    83.111     20053     
2675.4     6.86       375        698        0          0          257.651    14933      0          -290       2755.84    83.122     20056     
2675.6     7.07       388        568        0          0          257.672    14934      0          -305       2753.43    83.13      20058     
2675.8     7.18       417        732        0          0          257.671    14934      0          -260       2751.03    83.137     20060     
2676       7.07       417        616        0          0          257.719    14936      0          -280       2748.57    83.144     20062     
2676.2     6.92       404        524        0          0          257.725    14937      0          -280       2746.13    83.149     20063     
2676.4     6.82       394        589        0          0          257.753    14938      0          -320       2743.69    83.153     20064     
2676.6     6.78       383        496        0          0          257.773    14939      0          -320       2741.37    83.163     20067     
2676.8     6.87       378        595        0          0          257.803    14941      0          -300       2738.92    83.172     20069     
2677       7.05       406        874        0          0          257.829    14942      0          -320       2736.48    83.179     20071     
2677.2     7.01       395        644        0          0          257.833    14942      0          -320       2734.04    83.187     20073     
2677.4     7.11       388        506        0          0          257.839    14942      0          -320       2731.6     83.192     20074     
2677.6     7.41       424        494        0          0          257.86     14943      0          -300       2729.14    83.202     20077     
2677.8     7.39       443        565        0          0          257.894    14945      0          -280       2726.83    83.206     20078     
2678       7.04       434        506        0          0          257.914    14946      0          -305       2724.3     83.216     20081     
2678.2     6.58       379        497        0          0          257.934    14947      0          -320       2721.94    83.225     20083     
2678.4     6.53       375        495        0          0          257.954    14948      0          -275       2719.46    83.232     20085     
2678.6     6.65       373        523        0          0          257.975    14949      0          -320       2717.05    83.236     20086     
2678.8     6.71       378        474        0          0          258.002    14950      0          -300       2714.61    83.244     20088     
2679       6.91       369        498        0          0          258.022    14951      0          -320       2712.23    83.247     20089     
2679.2     6.89       403        450        0          0          258.042    14952      0          -320       2709.72    83.256     20091     
2679.4     6.56       419        412        0          0          258.06     14953      0          -320       2707.41    83.266     20094     
2679.6     6.44       368        484        0          0          258.076    14954      0          -300       2704.96    83.27      20095     
2679.8     6.52       363        497        1          0          258.065    14953      0          -320       2702.52    83.278     20097     
