~Version
 VERS              .         2.0                           : CWLS LOG ASCII STANDARD - VERSION 2.0
 WRAP              .         NO                            : ONE LINE PER DEPTH STEP
 DLM               .         SPACE                         : DELIMITING CHARACTER(SPACE TAB OR COMMA)
~Well Information
#_______________________________________________________________________________
#
#PARAMETER_NAME    .UNIT     VALUE                         : DESCRIPTION
#_______________________________________________________________________________
STRT               .M        2658                          : First reference value
STOP               .M        2762                          : Last reference value
STEP               .M        0.2                           : Step increment
NULL               .         -9999                         : Missing value
COMP               .                                       : Company
WELL               .         616                           : Well name
FLD                .                                       : Field
LOC                .                                       : Location
CNTY               .                                       : County
STAT               .                                       : State
CTRY               .                                       : Country
SRVC               .                                       : Service Company
DATE               .                                       : Date
API                .                                       : API number
PROJECT_UPGRADE_TIME .         2021-03-18T21_24_50           : 
group              .         Good                          : 
~Parameter Information Block
#_______________________________________________________________________________
#
#PARAMETER_NAME    .UNIT     VALUE                         : DESCRIPTION
#_______________________________________________________________________________
SET                .         D8103_D                       : 
OTHER              .         Программное обеспечение станции MONITOR-386EX 25/12/99 15_08_10   BGF V52 22/08/01 16_56_30   4_SNGF_BGF_N_011645: 
OTHER_10           .         Тарировки_                    : 
OTHER_11           .         TM.GRD = 0.00412*TM$.UE + -2.13: 
OTHER_12           .         MN.ATM = (5.87652e-006*TM.GRD + 0.01993)*(MN$.UE + -2.72*TM.GRD + -1925): 
OTHER_13           .         GK.MKR/H = GK$.UE / 57.4657   : 
OTHER_2            .         Kedr.exe версия 3.4.2.51      : 
OTHER_3            .         KedrData.dll версия 3.4.2.24  : 
OTHER_4            .         Драйвер версия 2.1.0.2        : 
OTHER_5            .         Мнемоники версия 3.3 S        : 
OTHER_6            .         Прибор_ АКП4-90               : 
OTHER_7            .         Номер прибора_ 53             : 
OTHER_8            .         Режим_ АКП4_90                : 
OTHER_9            .         Форма_ ПК-53ое                : 
PROJECT_UPGRADE_TIME .         2021-03-18T21_24_50           : 
TLFamily_DEPT      .         Measured Depth                : 
TLFamily_GK        .         Gamma Ray                     : 
TLFamily_GK$       .                                       : 
TLFamily_LM        .         Casing Collar locator         : 
TLFamily_METKA     .                                       : 
TLFamily_METKA_1   .                                       : 
TLFamily_MN        .                                       : 
TLFamily_MN$       .                                       : 
TLFamily_RCOR      .                                       : 
TLFamily_SPID      .         Spontaneous Potential         : 
TLFamily_TENS      .         Cable Tension                 : 
TLFamily_TIME      .         Time                          : 
TLFamily_TM        .         Temperature                   : 
TLFamily_TM$       .         Temperature                   : 
group              .         prim                          : 
~Curve Information
#_______________________________________________________________________________
#
#LOGNAME           .UNIT     LOG_ID                        : DESCRIPTION
#_______________________________________________________________________________
DEPT               .M                                      : 1 Глубина, м -    0.0 см 
GK                 .MKR/H                                  : 13 Гамма-активность, мкр./ч -   65.0 см 
GK$                .UE                                     : 10 Гамма-активность, усл.ед. -   65.0 см 
LM                 .                                       : 9 Локатор муфт,  -   30.0 см 
METKA              .                                       : 3 Метки,  -    0.0 см 
METKA_1            .                                       : 14 Маркеры - 65 см 
MN                 .ATM                                    : 12 Давление, атм. -  140.0 см 
MN$                .UE                                     : 8 Давление, усл.ед. -  140.0 см 
RCOR               .CM/KM                                  : 5 Коррекция по ролику, см/км -    0.0 см 
SPID               .M/H                                    : 2 Скорость, м/час -    0.0 см 
TENS               .T                                      : 6 Натяжение кабеля, т -    0.0 см 
TIME               .S                                      : 4 Время, сек -    0.0 см 
TM                 .GRD                                    : 11 Температура, °C -  145.0 см 
TM$                .UE                                     : 7 Температура, усл.ед. -  145.0 см 
~Ascii
# ...
2668.4     4.33       249        214        0          0          244.093    14173      -32        -339       0.8        3867.59    65.854     16501     
2668.6     4.56       262        108        0          0          244.103    14173      -32        -331       0.8        3865.51    65.829     16495     
2668.8     4.53       260        236        0          0          244.142    14175      -32        -341       0.8        3863.25    65.802     16488     
2669       4.58       263        215        0          0          244.162    14176      -32        -337       0.8        3861.16    65.781     16483     
2669.2     4.84       278        112        0          0          244.137    14175      -32        -340       0.8        3859.08    65.769     16480     
2669.4     4.31       247        180        0          0          244.162    14176      -32        -343       0.8        3857.04    65.739     16473     
2669.6     3.72       214        202        0          0          244.182    14177      -32        -345       0.8        3854.79    65.699     16463     
2669.8     3.45       198        216        0          0          244.212    14179      -32        -333       0.8        3852.66    65.679     16458     
2670       4.01       231        223        0          0          244.182    14177      -32        -340       0.8        3850.58    65.656     16453     
2670.2     4.37       251        238        0          0          244.262    14181      -32        -336       0.8        3848.49    65.626     16446     
2670.4     4.58       263        147        0          0          244.262    14181      -32        -341       0.82       3846.36    65.599     16439     
2670.6     4.68       269        184        2          0          244.262    14181      -29        -337       0.8        3843.86    65.563     16430     
2670.8     5.08       292        242        0          0          244.302    14183      -29        -334       0.8        3841.79    65.528     16422     
2671       5.1        293        178        0          0          244.329    14184      -29        -338       0.8        3839.61    65.494     16414     
2671.2     4.82       277        215        0          0          244.322    14184      -29        -337       0.8        3837.44    65.463     16406     
2671.4     4.52       260        177        0          0          244.362    14186      -29        -342       0.8        3835.36    65.426     16397     
2671.6     4.64       267        397        0          0          244.382    14187      -29        -340       0.8        3833.27    65.394     16389     
2671.8     4.36       250        574        0          0          244.382    14187      -29        -337       0.8        3831.19    65.366     16382     
2672       4.65       267        1401       0          0          244.402    14188      -29        -338       0.8        3828.99    65.343     16377     
2672.2     4.98       286        16412      0          0          244.461    14191      -29        -336       0.8        3826.87    65.31      16369     
2672.4     5.02       289        19721      0          0          244.461    14191      -29        -340       0.8        3824.79    65.29      16364     
2672.6     5.02       288        343        0          0          244.506    14193      -29        -334       0.8        3822.62    65.271     16359     
2672.8     5.49       315        273        0          0          244.521    14194      -29        -338       0.8        3820.54    65.248     16354     
2673       5.72       329        139        0          0          244.521    14194      -29        -340       0.8        3818.43    65.229     16349     
2673.2     5.48       315        290        0          0          244.541    14195      -29        -332       0.8        3816.29    65.222     16348     
2673.4     5.78       332        195        0          0          244.581    14197      -29        -327       0.8        3814.14    65.199     16342     
2673.6     6.11       351        180        0          0          244.581    14197      -29        -337       0.8        3812.03    65.187     16339     
2673.8     6.04       347        283        0          0          244.601    14198      -29        -329       0.8        3809.86    65.178     16337     
2674       5.84       336        343        0          0          244.636    14200      -29        -335       0.8        3807.72    65.17      16335     
2674.2     5.55       319        239        0          0          244.661    14201      -29        -331       0.8        3805.61    65.156     16332     
2674.4     5.48       315        294        0          0          244.661    14201      -29        -334       0.8        3803.52    65.15      16330     
2674.6     5.71       328        337        0          0          244.701    14203      -29        -340       0.8        3801.42    65.15      16330     
2674.8     6.19       356        178        0          0          244.734    14205      -29        -335       0.8        3799.27    65.133     16326     
2675       6.42       369        89         0          0          244.706    14203      -29        -339       0.8        3797.19    65.129     16325     
2675.2     6.41       368        273        0          0          244.74     14205      -29        -336       0.8        3795.02    65.133     16326     
2675.4     5.89       339        259        0          0          244.78     14207      -29        -341       0.8        3792.94    65.122     16323     
2675.6     6          345        89         0          0          244.78     14207      -29        -342       0.8        3790.83    65.113     16321     
2675.8     5.79       333        209        0          0          244.795    14208      -29        -334       0.8        3788.69    65.113     16321     
2676       5.36       308        403        0          0          244.807    14208      -29        -335       0.8        3786.54    65.1       16318     
2676.2     5.92       340        257        0          0          244.82     14209      -29        -329       0.8        3784.44    65.094     16317     
2676.4     6.03       346        257        0          0          244.81     14208      -29        -337       0.8        3782.26    65.096     16317     
2676.6     6.25       359        224        0          0          244.895    14213      -29        -334       0.8        3780.12    65.08      16313     
2676.8     6.04       347        101        0          0          244.895    14213      -29        -336       0.8        3778.01    65.069     16310     
2677       5.76       331        155        0          0          244.9      14213      -29        -341       0.8        3775.92    65.071     16311     
2677.2     6          345        257        0          0          244.96     14216      -29        -339       0.8        3773.82    65.059     16308     
2677.4     5.46       314        303        0          0          244.973    14217      -29        -338       0.8        3771.67    65.05      16306     
2677.6     5.64       324        257        0          0          244.965    14216      -29        -334       0.8        3769.5     65.047     16305     
2677.8     5.8        333        295        0          0          245.019    14219      -29        -336       0.8        3767.42    65.034     16302     
2678       5.87       337        189        0          0          245.053    14221      -29        -340       0.8        3765.24    65.018     16298     
2678.2     5.39       310        173        0          0          245.044    14220      -29        -341       0.8        3763.17    65.016     16298     
2678.4     5.69       327        206        0          0          245.079    14222      -29        -340       0.8        3760.99    65.007     16295     
2678.6     5.86       337        119        0          0          245.099    14223      -29        -339       0.8        3758.91    64.993     16292     
