~Version
 VERS              .         2.0                           : CWLS LOG ASCII STANDARD - VERSION 2.0
 WRAP              .         NO                            : ONE LINE PER DEPTH STEP
 DLM               .         SPACE                         : DELIMITING CHARACTER(SPACE TAB OR COMMA)
~Well Information
#_______________________________________________________________________________
#
#PARAMETER_NAME    .UNIT     VALUE                         : DESCRIPTION
#_______________________________________________________________________________
STRT               .M        12                            : First reference value
STOP               .M        2758.6                        : Last reference value
STEP               .M        0.2                           : Step increment
NULL               .         -9999                         : Missing value
COMP               .                                       : Company
WELL               .         616                           : Well name
FLD                .                                       : Field
LOC                .                                       : Location
CNTY               .                                       : County
STAT               .                                       : State
CTRY               .                                       : Country
SRVC               .                                       : Service Company
DATE               .                                       : Date
API                .                                       : API number
PROJECT_UPGRADE_TIME .         2021-03-18T21_24_50           : 
group              .         Good                          : 
~Parameter Information Block
#_______________________________________________________________________________
#
#PARAMETER_NAME    .UNIT     VALUE                         : DESCRIPTION
#_______________________________________________________________________________
SET                .         616ULN                        : 
PROJECT_UPGRADE_TIME .         2021-03-18T21_24_49           : 
TLFamily_AK4       .                                       : 
TLFamily_ALFAK     .                                       : 
TLFamily_AMPL      .                                       : 
TLFamily_DEPTH     .         Measured Depth                : 
TLFamily_DK1       .                                       : 
TLFamily_DK2       .                                       : 
TLFamily_DTK       .         Compressional Slowness        : 
TLFamily_QCBL      .                                       : 
TLFamily_T1        .         Travel Time 1                 : 
TLFamily_T2        .         Travel Time 2                 : 
group              .         prim                          : 
~Curve Information
#_______________________________________________________________________________
#
#LOGNAME           .UNIT     LOG_ID                        : DESCRIPTION
#_______________________________________________________________________________
DEPTH              .M                                      : 0 Depth curve 
AK4                .                                       : 2 Амплитуда - Волна по колонне - Канал1 
ALFAK              .дБ/м                                   : 1 Затухание - Волна по колонне 
AMPL               .                                       : 8 Коэффициент усиления ВС 
DK1                .дБ                                     : 3 Кривая ослабления - Волна по колонне - Канал1 
DK2                .дБ                                     : 4 Кривая ослабления - Волна по колонне - Канал2 
DTK                .мкс/м                                  : 5 ДельтаТ - Волна по породе 
QCBL               .                                       : 9 Контакт цемент-колонна 
T1                 .мкс                                    : 6 Время пробега - Волна по породе - Канал1 
T2                 .мкс                                    : 7 Время пробега - Волна по породе - Канал2 
~Ascii
# ...
1282.2     519.059    24.12      1          27.125     40.048     207.472    2          304.671    408.413   
1282.4     527.693    24.905     1          26.986     40.783     215.137    2          304.274    411.848   
1282.6     530.644    24.806     1          26.936     41.307     219.04     2          303.998    413.553   
1282.8     534.536    24.444     1          26.878     41.543     218.628    2          303.966    413.315   
1283       547.192    23.747     1          26.693     41.299     214.698    2          303.951    411.331   
1283.2     557.928    23.243     1          26.541     40.562     210.436    2          303.946    409.195   
1283.4     572.827    22.889     1          26.319     39.682     203.332    2          303.738    405.435   
1283.6     584.712    22.988     1          26.128     38.794     196.594    2          303.508    401.806   
1283.8     598.565    22.981     1          25.908     37.808     193.573    2          303.396    399.194   
1284       594.576    22.905     1          25.955     37.054     193.132    2          303.511    399.089   
1284.2     587.807    22.796     1          26.047     37.237     192.332    2          303.713    398.891   
1284.4     585.332    22.148     1          26.083     37.749     195.233    2          303.898    400.527   
1284.6     586.694    20.837     1          26.081     38.112     198.645    2          304.197    402.531   
1284.8     587.553    19.285     1          26.088     38.195     199.145    2          304.331    402.87    
1285       584.336    18.021     1          26.145     38.022     196.408    2          304.372    401.543   
1285.2     588.836    17.272     1          26.077     37.304     194.121    2          304.301    400.328   
1285.4     578.268    17.4       1          26.234     36.725     191.664    2          304.304    400.079   
1285.6     567.504    17.871     1          26.39      36.664     192.851    2          304.066    400.434   
1285.8     542.801    18.81      1          26.768     36.866     193.582    2          303.797    401.565   
1286       529.018    19.642     1          26.986     37.71      201.215    3          303.524    405.108   
1286.2     498.9      20.727     1          27.294     39.087     208.117    3          303.489    408.524   
1286.4     483.35     22.314     1          27.363     40.285     218.463    3          303.499    412.732   
1286.6     475.105    24.317     1          27.316     41.268     225.14     3          303.488    416.06    
1286.8     482.6      26.157     1          27.187     42.176     232.409    3          303.333    419.539   
1287       483.99     27.873     1          27.165     42.835     236.454    3          303.024    421.253   
1287.2     488.208    29.189     1          27.279     43.174     241.068    3          302.625    423.161   
1287.4     481.835    30.075     1          27.598     43.502     242.168    3          302.236    423.321   
1287.6     469.117    30.998     1          28.034     43.578     242.849    3          302.11     423.536   
1287.8     442.054    31.907     1          28.561     43.555     243.22     3          302.12     423.731   
1288       406.101    32.538     1          29.125     43.129     243.826    3          302.271    424.185   
1288.2     369.467    32.845     1          29.752     42.56      244.375    3          302.405    424.593   
1288.4     333.52     32.734     1          30.408     41.964     244.791    3          302.551    424.948   
1288.6     300.715    32.483     1          30.953     41.636     245.428    3          302.47     424.226   
1288.8     283.757    31.392     1          31.373     41.286     242.488    3          302.164    422.451   
1289       277.06     29.782     1          31.756     41.148     235.642    3          301.594    418.457   
1289.2     285.197    28.284     1          32.041     41.141     228.306    3          300.87     415.074   
1289.4     293.396    27.074     1          32.055     41.335     224.417    3          300.089    412.348   
1289.6     308.435    26.332     1          31.926     41.655     223.767    3          299.518    412.411   
1289.8     321.172    26.783     1          31.605     42.35      229.337    3          299.313    414.992   
1290       333.107    28.002     1          31.31      43.126     237.022    3          300.025    419.546   
1290.2     331.953    29.106     1          30.867     43.715     244.618    3          301.714    424.025   
1290.4     339.413    29.899     1          30.474     44.048     251.262    3          304.332    428.274   
1290.6     341.745    29.786     1          30.222     44.264     256.791    3          306.988    433.695   
1290.8     339.354    28.857     1          30.31      44.172     263.962    3          309.046    437.861   
1291       339.524    27.711     1          30.318     43.97      275.515    3          310.003    441.92    
1291.2     359.396    26.67      1          30.106     43.645     285.564    3          308.99     442.93    
1291.4     398.399    25.913     1          29.497     43.121     291.183    3          306.505    441.624   
1291.6     461.917    24.986     1          28.565     41.649     286.365    3          303.75     433.897   
1291.8     526.206    23.44      1          27.417     39.684     267.059    3          301.322    423.293   
1292       582.297    21.232     1          26.401     37.448     242.052    3          299.442    411.584   
1292.2     601.525    18.447     1          25.984     35.549     217.13     3          299.342    402.024   
1292.4     595.874    15.784     1          26.067     34.02      193.572    3          300.276    394.501   
1292.6     571.533    14.242     1          26.401     33.522     176.768    3          301.978    390.364   
1292.8     547.896    14.365     1          26.718     33.9       169.455    3          303.785    388.514   
1293       526.87     15.459     1          27.002     34.731     166.564    3          304.472    389.134   
1293.2     526.089    17.612     1          27.013     35.696     172.886    3          303.422    391.245   
1293.4     518.084    19.714     1          27.174     36.879     187.167    3          301.88     395.779   
1293.6     494.631    21.883     1          27.641     37.934     203.944    3          300.119    402.85    
1293.8     453.451    23.597     1          28.455     39.021     222.394    3          298.804    410.185   
1294       419.128    26.03      1          29.387     40.338     237.495    3          298.891    416.383   
1294.2     380.045    28.367     1          30.518     42.2       244.398    3          300.473    421.417   
1294.4     348.402    30.648     1          31.526     43.745     243.804    3          302.087    423.799   
1294.6     316.109    32.135     1          32.346     45.29      241.815    3          303.346    423.619   
1294.8     296.675    33.156     1          32.941     46.161     238.485    3          304.167    423.35    
1295       272.348    33.027     1          33.433     46.008     237.465    3          304.605    423.338   
1295.2     253.14     32.361     1          33.584     45.028     237.562    3          304.58     423.363   
1295.4     244.492    31.56      1          33.562     44.294     238.099    3          304.564    422.644   
1295.6     254.21     30.904     1          33.282     43.808     235.205    3          304.456    421.089   
1295.8     272.979    30.432     1          32.703     44.101     232.33     3          304.456    419.652   
1296       295.409    30.124     1          32.008     44.741     228.571    3          304.547    417.863   
1296.2     323        29.239     1          31.351     45.207     224.621    3          304.858    416.199   
1296.4     341.252    28.443     1          30.831     44.841     220.37     3          305.193    415.38    
1296.6     355.158    27.791     1          30.449     43.995     219.931    3          305.456    415.423   
