~Version
 VERS              .         2.0                           : CWLS LOG ASCII STANDARD - VERSION 2.0
 WRAP              .         NO                            : ONE LINE PER DEPTH STEP
 DLM               .         SPACE                         : DELIMITING CHARACTER(SPACE TAB OR COMMA)
~Well Information
#_______________________________________________________________________________
#
#PARAMETER_NAME    .UNIT     VALUE                         : DESCRIPTION
#_______________________________________________________________________________
STRT               .M        209.2                         : First reference value
STOP               .M        612.6                         : Last reference value
STEP               .M        0.2                           : Step increment
NULL               .         -9999                         : Missing value
COMP               .                                       : Company
WELL               .         616                           : Well name
FLD                .                                       : Field
LOC                .                                       : Location
CNTY               .                                       : County
STAT               .                                       : State
CTRY               .                                       : Country
SRVC               .                                       : Service Company
DATE               .                                       : Date
API                .                                       : API number
PROJECT_UPGRADE_TIME .         2021-03-18T21_24_50           : 
group              .         Good                          : 
~Parameter Information Block
#_______________________________________________________________________________
#
#PARAMETER_NAME    .UNIT     VALUE                         : DESCRIPTION
#_______________________________________________________________________________
SET                .         616_3                         : 
CONF               .         00                            : 
END                .         0                             : 
ERR                .         0                             : 
GS00               .M        0610.64                       : 
GS01               .M        0206.79                       : 
MM00               .M        0060.00                       : 
NOKG               .         1                             : 
NPR                .         980119                        : 
PART               .         Палагутин                     : 
PROJECT_UPGRADE_TIME .         2021-03-18T21_24_49           : 
PRZK               .         Шакиров                       : 
TLFamily_AZIMUTH   .         True Dip Azimuth              : 
TLFamily_DEPTH     .         Measured Depth                : 
TLFamily_METKA     .                                       : 
TLFamily_ROLL      .                                       : 
TLFamily_SPEED     .         Spontaneous Potential         : 
TLFamily_ZENIT     .                                       : 
VPRG               .         310                           : 
WAY                .         UP                            : 
group              .         prim                          : 
~Curve Information
#_______________________________________________________________________________
#
#LOGNAME           .UNIT     LOG_ID                        : DESCRIPTION
#_______________________________________________________________________________
DEPTH              .M                                      :  
AZIMUTH            .DEG                                    :  
METKA              .                                       :  
ROLL               .DEG                                    :  
SPEED              .M/H                                    :  
ZENIT              .DEG                                    :  
~Ascii
209.2      248.38     0          231.83     612        20.08     
209.4      246.67     0          233.9      612        19.68     
209.6      247.14     0          234.49     648        19.97     
209.8      249.19     0          234.56     648        20.23     
210        249.77     0          235.06     576        20.55     
210.2      250.67     0          236.33     648        20.73     
210.4      248.97     0          236.59     612        20.36     
210.6      247.09     0          236.56     648        19.97     
210.8      247.14     1          235.97     648        19.91     
211        250.18     0          234.92     900        20.3      
211.2      250.26     0          233.79     612        20.73     
211.4      250.73     0          233.19     648        21        
211.6      248.97     0          233.14     612        20.83     
211.8      248.43     0          233.17     612        20.6      
212        248.35     1          233.33     612        20.55     
212.2      247.7      0          233.58     648        20.47     
212.4      247.95     0          233.74     648        20.55     
212.6      248.81     0          233.95     612        20.81     
212.8      250.24     0          234.81     612        21.11     
213        251.6      0          236.03     648        21.48     
213.2      251.87     0          237.48     648        21.54     
213.4      249.59     0          238.68     648        21.14     
213.6      248.37     0          239.56     648        20.87     
213.8      247.6      0          240.29     612        20.65     
214        248.32     0          241.39     576        20.81     
214.2      250.5      0          242.51     612        21.4      
214.4      252.42     0          243.35     648        21.9      
214.6      251.83     0          244.43     648        21.86     
214.8      249.44     0          245.56     576        21.33     
215        248.25     0          246.69     612        21.03     
215.2      246.55     0          247.36     648        20.74     
215.4      248.15     0          247.56     648        21.13     
215.6      251.17     0          247.92     648        21.85     
215.8      253.63     0          248.62     684        22.37     
216        252.57     0          249.46     612        22.18     
216.2      247.01     0          250.08     648        21.09     
216.4      245.45     0          250.49     648        20.68     
216.6      246.52     0          251.43     612        20.93     
216.8      249.69     0          252.76     648        21.69     
217        252.48     0          254.34     612        22.41     
217.2      255.52     0          255.43     612        23.16     
217.4      254.49     0          256.23     648        22.78     
217.6      250.64     0          256.96     648        21.99     
217.8      248.04     0          257.17     648        21.44     
218        246.42     0          257.51     576        21.02     
218.2      247.48     0          257.83     648        21.18     
218.4      252.12     0          258.17     648        22.08     
218.6      257.73     0          258.68     648        22.92     
218.8      265.67     0          258.81     612        23.3      
219        290.78     0          258.34     612        22.73     
219.2      303.37     0          257.84     612        22.3      
219.4      211.83     0          257.03     612        21.67     
219.6      292.17     0          256.24     648        21.95     
219.8      300.92     0          255.82     648        22.61     
220        265.74     0          256.28     576        23.36     
220.2      258.96     0          257.56     648        23.65     
220.4      256.16     0          260.83     612        23.56     
220.6      249.65     0          265.17     648        22.56     
220.8      245.71     0          269.68     648        21.56     
221        247.32     0          272.28     612        21.72     
221.2      253.44     0          273.2      648        23.15     
221.4      256.16     0          273.8      648        23.6      
221.6      255.02     0          273.71     648        23.28     
221.8      250.59     0          272.07     612        22.29     
222        249.46     0          270.72     648        22.12     
222.2      249.46     1          270.21     612        22.3      
222.4      251.46     0          270.33     612        22.78     
222.6      254.93     0          271.01     648        23.45     
222.8      256.4      0          271.26     612        23.69     
223        255.8      0          269.92     648        23.7      
223.2      250.18     0          269.21     648        22.52     
223.4      251.18     0          268.89     648        22.74     
223.6      247.76     0          270.04     648        22.11     
223.8      247.19     0          272.35     576        22.04     
224        248.86     0          275.61     612        22.55     
224.2      252.63     0          279.26     648        23.48     
224.4      253.82     0          282.55     648        23.72     
224.6      253.48     0          285.15     648        23.65     
224.8      250.46     0          288.75     576        23.08     
225        249.23     0          293.83     648        22.91     
225.2      249.2      0          298.89     612        22.96     
225.4      249.25     0          303.96     648        23.14     
225.6      249.79     0          310.06     648        23.43     
225.8      247.81     0          318.34     648        23.2      
226        249.18     0          328.2      648        23.15     
226.2      252.81     0          335.9      648        23.92     
226.4      255.17     0          346.34     612        24.79     
226.6      251.95     0          3.49       648        23.8      
226.8      251.03     0          19.25      648        22.82     
227        250.36     0          28.19      612        22.85     
227.2      252.93     0          31.1       648        23.6      
227.4      253.47     0          32.23      684        23.69     
227.6      255.56     0          32.88      612        24.18     
227.8      254.94     0          33.23      612        24.1      
228        254.46     0          33.48      648        24.03     
228.2      252.84     0          33.61      612        23.72     
228.4      251.61     0          34.09      684        23.42     
228.6      251.05     0          35.24      648        23.29     
228.8      252.1      0          36.24      648        23.5      
229        253.22     0          36.53      612        23.76     
229.2      254.38     0          36.57      612        24.01     
229.4      254.48     0          36.69      612        24.01     
229.6      253.34     0          36.87      684        23.78     
229.8      252.19     0          37.24      612        23.52     
230        252.67     0          37.96      612        23.59     
230.2      253.24     0          38.78      648        23.67     
230.4      255.02     0          39.01      612        23.94     
230.6      256.49     0          38.74      648        23.99     
230.8      260.05     0          38.79      612        24.04     
231        270.95     0          39.3       648        24.03     
231.2      312.64     0          39.42      648        23.85     
231.4      177.96     0          39.34      648        23.74     
231.6      160.82     0          39.23      648        24.13     
231.8      246.38     0          39.53      576        24.34     
232        304.14     0          40.09      648        24.36     
232.2      265.61     1          40.13      648        24.23     
232.4      256.9      0          38.84      576        24.02     
232.6      255.25     0          37.84      612        24.05     
232.8      253.44     0          38.24      612        23.93     
233        253.49     0          38.55      648        23.87     
233.2      254.38     0          38.79      684        24.04     
233.4      254.7      0          39.03      648        24.17     
