~Version
 VERS              .         2.0                           : CWLS LOG ASCII STANDARD - VERSION 2.0
 WRAP              .         NO                            : ONE LINE PER DEPTH STEP
 DLM               .         SPACE                         : DELIMITING CHARACTER(SPACE TAB OR COMMA)
~Well Information
#_______________________________________________________________________________
#
#PARAMETER_NAME    .UNIT     VALUE                         : DESCRIPTION
#_______________________________________________________________________________
STRT               .M        2338.9                        : First reference value
STOP               .M        2799.2                        : Last reference value
STEP               .M        0.1                           : Step increment
NULL               .         -9999                         : Missing value
COMP               .                                       : Company
WELL               .         616                           : Well name
FLD                .                                       : Field
LOC                .                                       : Location
CNTY               .                                       : County
STAT               .                                       : State
CTRY               .                                       : Country
SRVC               .                                       : Service Company
DATE               .                                       : Date
API                .                                       : API number
PROJECT_UPGRADE_TIME .         2021-03-18T21_24_50           : 
group              .         Good                          : 
~Parameter Information Block
#_______________________________________________________________________________
#
#PARAMETER_NAME    .UNIT     VALUE                         : DESCRIPTION
#_______________________________________________________________________________
SET                .         D2662_D                       : 
OTHER              .         Программное обеспечение станции MONITOR-386EX 25/12/99 15_08_10   BGF V50 26/12/00 07_26_01   3.1_SNGF___BGF_N_092085: 
OTHER_10           .         Тарировки_                    : 
OTHER_11           .         IK1.GRD = IK1$.UE - -5.96     : 
OTHER_12           .         IK5.GRD = IK5$.UE - -0.74     : 
OTHER_13           .         IK4.GRD = IK4$.UE - -0.9      : 
OTHER_14           .         IK3.GRD = IK3$.UE - -1.28     : 
OTHER_15           .         IK2.GRD = IK2$.UE - -3.55     : 
OTHER_2            .         Kedr.exe версия 3.3.2.32      : 
OTHER_3            .         KedrData.dll версия 3.3.2.17  : 
OTHER_4            .         Драйвер версия 2.1.0.4        : 
OTHER_5            .         Мнемоники версия 3.3 S        : 
OTHER_6            .         Прибор_ Викиз                 : 
OTHER_7            .         Номер прибора_ 0006012        : 
OTHER_8            .         Режим_ Викиз                  : 
OTHER_9            .         Форма_ ВИКИЗ                  : 
PROJECT_UPGRADE_TIME .         2021-03-18T21_24_49           : 
TLFamily_DEPT      .         Measured Depth                : 
TLFamily_IK1       .         Extra Shallow Resistivity     : 
TLFamily_IK1$      .         Extra Shallow Resistivity     : 
TLFamily_IK2       .         Shallow Resistivity           : 
TLFamily_IK2$      .         Shallow Resistivity           : 
TLFamily_IK3       .         Medium Resistivity            : 
TLFamily_IK3$      .         Medium Resistivity            : 
TLFamily_IK4       .         Deep Resistivity              : 
TLFamily_IK4$      .         Deep Resistivity              : 
TLFamily_IK5       .         Resistivity 20                : 
TLFamily_IK5$      .         Resistivity 20                : 
TLFamily_METKA     .                                       : 
TLFamily_PS        .         Spontaneous Potential         : 
TLFamily_RCOR      .                                       : 
TLFamily_SPID      .         Spontaneous Potential         : 
TLFamily_TENS      .         Cable Tension                 : 
TLFamily_TIME      .         Time                          : 
group              .         prim                          : 
~Curve Information
#_______________________________________________________________________________
#
#LOGNAME           .UNIT     LOG_ID                        : DESCRIPTION
#_______________________________________________________________________________
DEPT               .M                                      : 1 Глубина, м -    0.0 см 
IK1                .GRD                                    : 13 3Ф0.5, град. -  226.0 см 
IK1$               .UE                                     : 7 3Ф0.5, усл.ед. -  226.0 см 
IK2                .GRD                                    : 17 3Ф0.7, град. -  240.0 см 
IK2$               .UE                                     : 11 3Ф0.7, усл.ед. -  240.0 см 
IK3                .GRD                                    : 16 3Ф1.0, град. -  260.0 см 
IK3$               .UE                                     : 10 3Ф1.0, усл.ед. -  260.0 см 
IK4                .GRD                                    : 15 3Ф1.4, град. -  288.0 см 
IK4$               .UE                                     : 9 3Ф1.4, усл.ед. -  288.0 см 
IK5                .GRD                                    : 14 3Ф2.0, град. -  328.0 см 
IK5$               .UE                                     : 8 3Ф2.0, усл.ед. -  328.0 см 
METKA              .                                       : 3 Метки,  -    0.0 см 
PS                 .mV                                     : 12 ПС, мВ -  372.0 см 
RCOR               .CM/KM                                  : 5 Коррекция по ролику, см/км -    0.0 см 
SPID               .M/H                                    : 2 Скорость, м/час -    0.0 см 
TENS               .T                                      : 6 Натяжение кабеля, т -    0.0 см 
TIME               .S                                      : 4 Время, сек -    0.0 см 
~Ascii
# ...
2429.2     12.62      6.66       12.32      8.77       12.65      11.37      12.67      11.77      13.03      12.29      0          307.11     -383       -1834      0          35320.29  
2429.3     12.28      6.32       12.23      8.68       12.64      11.36      12.83      11.93      13.21      12.47      0          307.44     -383       -1828      0          35320.11  
2429.4     12.4       6.44       12.4       8.85       12.9       11.62      13.23      12.33      13.57      12.83      0          307.39     -383       -1820      0          35319.9   
2429.5     12.91      6.95       12.81      9.26       13.33      12.05      13.71      12.81      14.06      13.32      0          307.26     -383       -1809      0          35319.7   
2429.6     13.59      7.63       13.5       9.95       13.88      12.6       14.26      13.36      14.59      13.85      0          306.74     -383       -1797      0          35319.51  
2429.7     14.38      8.42       14.11      10.56      14.45      13.17      14.92      14.02      15.17      14.43      0          307.57     -383       -1792      0          35319.32  
2429.8     15.44      9.48       15.02      11.47      15.23      13.95      15.51      14.61      15.87      15.13      0          308.04     -383       -1793      0          35319.12  
2429.9     16.65      10.69      16.26      12.71      15.97      14.69      16.13      15.23      16.43      15.69      1          308.59     -383       -1794      0          35318.91  
2430       17.95      11.99      17.25      13.7       16.82      15.54      16.75      15.85      16.93      16.19      0          308.55     -381       -1795      0          35318.67  
2430.1     18.88      12.92      17.94      14.39      17.48      16.2       17.19      16.29      17.39      16.65      0          308.56     -381       -1796      0          35318.46  
2430.2     19.16      13.2       18.27      14.72      17.76      16.48      17.41      16.51      17.65      16.91      0          309.08     -381       -1798      0          35318.26  
2430.3     19.37      13.41      18.51      14.96      17.99      16.71      17.57      16.67      17.82      17.08      0          309.37     -381       -1799      0          35318.07  
2430.4     19.87      13.91      18.86      15.31      18.36      17.08      17.77      16.87      17.94      17.2       0          309.24     -381       -1802      0          35317.88  
2430.5     20.14      14.18      19.14      15.59      18.64      17.36      17.96      17.06      18.03      17.29      0          309.02     -381       -1805      0          35317.66  
2430.6     20.37      14.41      19.37      15.82      18.84      17.56      18.12      17.22      18.1       17.36      0          308.28     -381       -1809      0          35317.48  
2430.7     20.27      14.31      19.33      15.78      18.9       17.62      18.22      17.32      18.12      17.38      0          307.79     -381       -1813      0          35317.29  
2430.8     20.06      14.1       19.18      15.63      18.83      17.55      18.24      17.34      18.09      17.35      0          306.96     -381       -1820      0          35317.06  
2430.9     19.77      13.81      18.87      15.32      18.72      17.44      18.23      17.33      18.04      17.3       0          305.54     -381       -1827      0          35316.86  
2431       19.31      13.35      18.51      14.96      18.56      17.28      18.21      17.31      18         17.26      0          304.62     -381       -1835      0          35316.68  
2431.1     18.75      12.79      18.24      14.69      18.45      17.17      18.24      17.34      18.02      17.28      0          303.6      -381       -1834      0          35316.49  
2431.2     18.72      12.76      18.27      14.72      18.52      17.24      18.35      17.45      18.07      17.33      0          301.91     -381       -1827      0          35316.27  
2431.3     18.9       12.94      18.39      14.84      18.58      17.3       18.43      17.53      18.1       17.36      0          299.84     -381       -1819      0          35316.09  
2431.4     18.31      12.35      17.91      14.36      18.28      17         18.24      17.34      18.03      17.29      0          298.59     -381       -1810      0          35315.9   
2431.5     16.89      10.93      16.89      13.34      17.53      16.25      17.9       17         17.91      17.17      0          297.99     -381       -1795      0          35315.67  
2431.6     15.99      10.03      16.15      12.6       17.12      15.84      17.63      16.73      17.8       17.06      0          298.65     -381       -1782      0          35315.49  
2431.7     16.09      10.13      16.33      12.78      17.22      15.94      17.66      16.76      17.79      17.05      0          299.6      -381       -1780      0          35315.3   
2431.8     16.81      10.85      16.97      13.42      17.73      16.45      17.91      17.01      17.92      17.18      0          300.11     -381       -1777      0          35315.1   
2431.9     17.55      11.59      17.56      14.01      18.07      16.79      18.1       17.2       18.01      17.27      0          299.43     -381       -1773      0          35314.89  
2432       17.83      11.87      17.56      14.01      17.99      16.71      18.01      17.11      17.96      17.22      0          298.48     -381       -1770      0          35314.71  
2432.1     17.3       11.34      16.92      13.37      17.3       16.02      17.44      16.54      17.65      16.91      0          297.3      -381       -1765      0          35314.52  
2432.2     16.48      10.52      15.9       12.35      16.41      15.13      16.7       15.8       17.15      16.41      0          295.74     -381       -1772      0          35314.3   
2432.3     15         9.04       14.64      11.09      15.46      14.18      15.89      14.99      16.6       15.86      0          294.12     -381       -1781      0          35314.11  
2432.4     13.62      7.66       13.51      9.96       14.59      13.31      15.23      14.33      16.11      15.37      0          293.64     -381       -1793      0          35313.92  
2432.5     13.08      7.12       13.32      9.77       14.17      12.89      14.92      14.02      15.75      15.01      0          293.85     -381       -1794      0          35313.7   
2432.6     13.11      7.15       13.6       10.05      14.35      13.07      14.92      14.02      15.66      14.92      0          294.67     -381       -1795      0          35313.49  
2432.7     13.37      7.41       13.91      10.36      14.71      13.43      15.15      14.25      15.72      14.98      0          296.66     -381       -1797      0          35313.3   
2432.8     14.02      8.06       14.32      10.77      15.12      13.84      15.37      14.47      15.86      15.12      0          298.87     -381       -1799      0          35313.09  
2432.9     14.88      8.92       14.91      11.36      15.5       14.22      15.61      14.71      15.98      15.24      0          300.8      -381       -1801      0          35312.9   
2433       15.7       9.74       15.26      11.71      15.71      14.43      15.69      14.79      16.03      15.29      0          301.17     -381       -1803      0          35312.71  
2433.1     15.94      9.98       15.24      11.69      15.6       14.32      15.59      14.69      15.98      15.24      0          301.63     -381       -1806      0          35312.52  
2433.2     16.02      10.06      15.15      11.6       15.37      14.09      15.41      14.51      15.86      15.12      0          301.8      -381       -1811      0          35312.3   
2433.3     16.12      10.16      15.16      11.61      15.19      13.91      15.23      14.33      15.65      14.91      0          301.85     -381       -1816      0          35312.11  
2433.4     16.2       10.24      15.21      11.66      15.07      13.79      15.08      14.18      15.48      14.74      0          301.92     -381       -1822      0          35311.92  
