~Version
 VERS              .         2.0                           : CWLS LOG ASCII STANDARD - VERSION 2.0
 WRAP              .         NO                            : ONE LINE PER DEPTH STEP
 DLM               .         SPACE                         : DELIMITING CHARACTER(SPACE TAB OR COMMA)
~Well Information
#_______________________________________________________________________________
#
#PARAMETER_NAME    .UNIT     VALUE                         : DESCRIPTION
#_______________________________________________________________________________
STRT               .M        2648.8                        : First reference value
STOP               .M        2754.8                        : Last reference value
STEP               .M        0.2                           : Step increment
NULL               .         -9999                         : Missing value
COMP               .                                       : Company
WELL               .         616                           : Well name
FLD                .                                       : Field
LOC                .                                       : Location
CNTY               .                                       : County
STAT               .                                       : State
CTRY               .                                       : Country
SRVC               .                                       : Service Company
DATE               .                                       : Date
API                .                                       : API number
PROJECT_UPGRADE_TIME .         2021-03-18T21_24_50           : 
group              .         Good                          : 
~Parameter Information Block
#_______________________________________________________________________________
#
#PARAMETER_NAME    .UNIT     VALUE                         : DESCRIPTION
#_______________________________________________________________________________
SET                .         D7019_D                       : 
OTHER              .         Kedr.exe версия 2.1.2.32      : 
OTHER_10           .         TM.GRD = 0.00404*TM$.UE + 0.07: 
OTHER_11           .         MN.ATM = (6.33279e-006*TM.GRD + 0.02401)*(MN$.UE + 2.72*TM.GRD + -2018): 
OTHER_12           .         GK.MKR/H = GK$.UE / 43.5489 + 0: 
OTHER_13           .         RES.SM = 0.00476*CRES.UE - 1.51709: 
OTHER_14           .         PL.GSM3 = 0 + 0 * (PL.UE / 1) +  0 * (PL.UE / 1)^2: 
OTHER_15           .         Постоянная времени ГГП = 6 сек: 
OTHER_16           .         Постоянная времени ГК = 6 сек : 
OTHER_2            .         KedrData.dll версия 3.2.2.14  : 
OTHER_3            .         LasInf.dll версия 3.2.0.13    : 
OTHER_4            .         Драйвер версия 1.2.0.5        : 
OTHER_5            .         Прибор_ КСА-M1                : 
OTHER_6            .         Номер прибора_ 155+р204       : 
OTHER_7            .         Режим_ КСА-М1 + ГГП + Резистивиметр: 
OTHER_8            .         Форма_ 223\2                  : 
OTHER_9            .         Тарировки_                    : 
PROJECT_UPGRADE_TIME .         2021-03-18T21_24_50           : 
TLFamily_CRES      .                                       : 
TLFamily_DEPT      .         Measured Depth                : 
TLFamily_GK        .         Gamma Ray                     : 
TLFamily_GK$       .                                       : 
TLFamily_LM        .         Casing Collar locator         : 
TLFamily_METKA     .                                       : 
TLFamily_MN        .                                       : 
TLFamily_MN$       .                                       : 
TLFamily_PL        .                                       : 
TLFamily_PL_2      .                                       : 
TLFamily_RCOR      .                                       : 
TLFamily_RES       .         Mud Resistivity               : 
TLFamily_SPID      .         Spontaneous Potential         : 
TLFamily_STD       .                                       : 
TLFamily_TIME      .         Time                          : 
TLFamily_TM        .         Temperature                   : 
TLFamily_TM$       .         Temperature                   : 
TLFamily_VGD       .         Gas Volume                    : 
group              .         prim                          : 
~Curve Information
#_______________________________________________________________________________
#
#LOGNAME           .UNIT     LOG_ID                        : DESCRIPTION
#_______________________________________________________________________________
DEPT               .M                                      : 1 Глубина, м -    0.0 см 
CRES               .UE                                     : 9 Проводимость, усл.ед. -  222.0 см 
GK                 .MKR/H                                  : 16 Гамма-активность, мкр./ч -  106.0 см 
GK$                .UE                                     : 13 Гамма-активность, усл.ед. -  106.0 см 
LM                 .                                       : 11 Локатор муфт,  -   16.0 см 
METKA              .                                       : 3 Метки,  -    0.0 см 
MN                 .ATM                                    : 15 Давление, атм. -  160.0 см 
MN$                .UE                                     : 7 Давление, усл.ед. -  160.0 см 
PL                 .UE                                     : 10 Плотность, усл.ед. -  270.0 см 
PL_2               .GSM3                                   : 18 Плотность, г./см3 -  270.0 см 
RCOR               .CM/KM                                  : 5 Коррекция по ролику, см/км -    0.0 см 
RES                .SM                                     : 17 Проводимость,  -  222.0 см 
SPID               .M/H                                    : 2 Скорость, м/час -    0.0 см 
STD                .                                       : 12 Приток,  -  170.0 см 
TIME               .S                                      : 4 Время, сек -    0.0 см 
TM                 .GRD                                    : 14 Температура, °C -  180.0 см 
TM$                .UE                                     : 6 Температура, усл.ед. -  180.0 см 
VGD                .                                       : 8 Влагомер,  -  170.0 см 
~Ascii
# ...
2722.6     1229       6.78       308        91         0          250.433    12198      14         0          0          4.333      524        9008       10750.5    45.985     11365      6659      
2722.8     1229       7          326        127        0          250.465    12200      13         0          0          4.3345     580        9008       10751.76   45.975     11363      6658      
2723       1229       7.4        340        126        0          250.425    12198      14         0          0          4.333      580        9009       10753.08   45.972     11362      6660      
2723.2     1229       7.71       362        137        0          250.449    12199      14         0          0          4.333      580        9010       10754.35   45.977     11363      6659      
2723.4     1230       8.01       362        85         0          250.462    12200      14         0          0          4.3377     568        9009       10755.64   45.977     11363      6661      
2723.6     1231       8.12       353        62         0          250.538    12203      14         0          0          4.3409     568        9009       10756.95   45.981     11364      6662      
2723.8     1231       8.08       350        72         0          250.551    12203      13         0          0          4.3425     580        9012       10758.26   45.977     11363      6659      
2724       1232       7.84       310        211        0          250.562    12204      13         0          0          4.3472     568        9011       10759.57   45.977     11363      6662      
2724.2     1232       7.48       310        233        0          250.553    12203      14         0          0          4.3472     580        9014       10760.88   45.983     11365      6662      
2724.4     1233       7.46       332        95         0          250.597    12205      14         0          0          4.3512     540        9016       10762.17   45.988     11366      6660      
2724.6     1234       7.54       332        258        0          250.623    12206      14         0          0          4.3568     530        9016       10763.46   45.993     11367      6659      
2724.8     1234       7.67       346        154        0          250.648    12207      14         0          0          4.3587     520        9016       10764.82   46.002     11369      6660      
2725       1234       7.81       346        104        0          250.674    12208      13         0          0          4.3583     557        9017       10766.07   46.011     11372      6656      
2725.2     1236       8.09       372        66         0          250.675    12208      14         0          0          4.3663     580        9020       10767.39   46.024     11375      6658      
2725.4     1237       8.32       372        82         0          250.701    12209      13         0          0          4.371      580        9022       10768.65   46.03      11376      6659      
2725.6     1239       8.42       371        4433       0          250.723    12210      13         0          0          4.3782     560        9025       10770      46.043     11380      6661      
2725.8     1239       8.47       371        5482       0          250.757    12211      14         0          0          4.3805     545        9024       10771.29   46.054     11382      6660      
2726       1240       7.78       290        2942       0          250.765    12211      13         0          0          4.3853     580        9027       10772.6    46.07      11386      6661      
2726.2     1241       7.22       290        1172       0          250.798    12213      14         0          0          4.3901     580        9029       10773.92   46.083     11389      6652      
2726.4     1241       6.86       283        313        0          250.807    12213      14         0          0          4.3901     580        9030       10775.19   46.097     11393      6653      
2726.6     1242       6.7        286        130        0          250.833    12214      14         0          0          4.3955     557        9033       10776.47   46.11      11396      6655      
2726.8     1243       6.77       298        60         0          250.859    12215      13         0          0          4.4016     510        9035       10777.78   46.123     11399      6659      
2727       1244       6.81       298        53         0          250.883    12216      15         0          0          4.4043     580        9039       10779.09   46.137     11403      6661      
2727.2     1245       6.58       276        51         0          250.889    12216      15         0          0          4.4091     545        9042       10780.34   46.158     11408      6654      
2727.4     1248       6.52       290        60         0          250.904    12217      15         0          0          4.425      580        9046       10781.66   46.18      11413      6662      
2727.6     1248       6.79       308        56         0          250.944    12218      15         0          0          4.4234     580        9052       10782.97   46.199     11418      6662      
2727.8     1250       7.18       365        55         0          250.975    12219      15         0          0          4.4329     533        9056       10784.22   46.229     11426      6659      
2728       1250       7.76       365        63         0          251.014    12220      14         0          0          4.4329     533        9062       10785.54   46.278     11438      6658      
2728.2     1252       8.07       366        44         0          251.038    12221      15         0          0          4.4424     580        9067       10786.83   46.321     11448      6659      
2728.4     1253       8.25       367        62         0          251.043    12221      15         0          0          4.4464     533        9075       10788.15   46.386     11464      6659      
2728.6     1255       8.22       342        73         0          251.075    12222      14         0          0          4.4567     540        9085       10789.42   46.429     11475      6661      
2728.8     1257       8.04       342        73         0          251.107    12223      15         0          0          4.4678     580        9092       10790.72   46.487     11489      6659      
2729       1260       8.01       357        70         0          251.141    12224      15         0          0          4.4789     560        9103       10792.07   46.544     11504      6661      
2729.2     1261       8.19       364        65         0          251.154    12224      14         0          0          4.4853     580        9115       10793.34   46.616     11521      6660      
2729.4     1263       8.71       443        67         0          251.189    12225      15         0          0          4.4964     510        9128       10794.66   46.683     11538      6661      
2729.6     1266       9.43       443        55         0          251.213    12226      15         0          0          4.5067     580        9139       10795.93   46.737     11551      6657      
2729.8     1268       10.1       480        79         0          251.245    12227      14         0          0          4.5178     580        9152       10797.24   46.798     11566      6659      
2730       1269       10.55      480        88         0          251.279    12228      15         0          0          4.5233     580        9166       10798.55   46.857     11581      6660      
2730.2     1270       11.01      518        49         1          251.305    12229      14         0          0          4.5281     533        9180       10800.54   46.927     11598      6657      
2730.4     1272       11.46      518        98         0          251.326    12229      14         0          0          4.536      580        9195       10801.85   47.021     11621      6660      
2730.6     1272       12.45      612        75         0          251.383    12231      15         0          0          4.5376     580        9209       10803.12   47.101     11641      6658      
