~Version
 VERS              .         2.0                           : CWLS LOG ASCII STANDARD - VERSION 2.0
 WRAP              .         NO                            : ONE LINE PER DEPTH STEP
 DLM               .         SPACE                         : DELIMITING CHARACTER(SPACE TAB OR COMMA)
~Well Information
#_______________________________________________________________________________
#
#PARAMETER_NAME    .UNIT     VALUE                         : DESCRIPTION
#_______________________________________________________________________________
STRT               .M        44                            : First reference value
STOP               .M        2769.2                        : Last reference value
STEP               .M        0.2                           : Step increment
NULL               .         -9999                         : Missing value
COMP               .                                       : Company
WELL               .         616                           : Well name
FLD                .                                       : Field
LOC                .                                       : Location
CNTY               .                                       : County
STAT               .                                       : State
CTRY               .                                       : Country
SRVC               .                                       : Service Company
DATE               .                                       : Date
API                .                                       : API number
PROJECT_UPGRADE_TIME .         2021-03-18T21_24_50           : 
group              .         Good                          : 
~Parameter Information Block
#_______________________________________________________________________________
#
#PARAMETER_NAME    .UNIT     VALUE                         : DESCRIPTION
#_______________________________________________________________________________
SET                .         D1160_D                       : 
OTHER              .         Программное обеспечение станции MONITOR-386EX 25/12/99 15_08_10   BGF V52 22/08/01 16_56_30   3.2_BGF_N_3070031: 
OTHER_10           .         Тарировки_                    : 
OTHER_11           .         TM.GRD = 0.00403*TM$.UE + -1.19: 
OTHER_12           .         MN.ATM = (7.1e-006*TM.GRD + 0.02017)*(MN$.UE + -3.03*TM.GRD + -1833): 
OTHER_13           .         Id error                      : 
OTHER_2            .         Kedr.exe версия 3.4.2.51      : 
OTHER_3            .         KedrData.dll версия 3.4.2.24  : 
OTHER_4            .         Драйвер версия 2.1.1.8        : 
OTHER_5            .         Мнемоники версия 3.3 S        : 
OTHER_6            .         Прибор_ КСА-М1                : 
OTHER_7            .         Номер прибора_ 265            : 
OTHER_8            .         Режим_ КСА-М1                 : 
OTHER_9            .         Форма_ ТЕРМОМЕТР              : 
PROJECT_UPGRADE_TIME .         2021-03-18T21_24_49           : 
TLFamily_DEPT      .         Measured Depth                : 
TLFamily_GK        .         Gamma Ray                     : 
TLFamily_GK$       .                                       : 
TLFamily_LM        .         Casing Collar locator         : 
TLFamily_METKA     .                                       : 
TLFamily_MN        .                                       : 
TLFamily_MN$       .                                       : 
TLFamily_RCOR      .                                       : 
TLFamily_SPID      .         Spontaneous Potential         : 
TLFamily_STD       .                                       : 
TLFamily_TENS      .         Cable Tension                 : 
TLFamily_TIME      .         Time                          : 
TLFamily_TM        .         Temperature                   : 
TLFamily_TM$       .         Temperature                   : 
TLFamily_VGD       .         Gas Volume                    : 
group              .         prim                          : 
~Curve Information
#_______________________________________________________________________________
#
#LOGNAME           .UNIT     LOG_ID                        : DESCRIPTION
#_______________________________________________________________________________
DEPT               .M                                      : 1 Глубина, м -    0.0 см 
GK                 .MKR/H                                  : 15 Гамма-активность, мкр./ч -  110.0 см 
GK$                .UE                                     : 12 Гамма-активность, усл.ед. -  110.0 см 
LM                 .                                       : 10 Локатор муфт,  -   20.0 см 
METKA              .                                       : 3 Метки,  -    0.0 см 
MN                 .ATM                                    : 14 Давление, атм. -  160.0 см 
MN$                .UE                                     : 8 Давление, усл.ед. -  160.0 см 
RCOR               .CM/KM                                  : 5 Коррекция по ролику, см/км -    0.0 см 
SPID               .M/H                                    : 2 Скорость, м/час -    0.0 см 
STD                .                                       : 11 Приток,  -  170.0 см 
TENS               .T                                      : 6 Натяжение кабеля, т -    0.0 см 
TIME               .S                                      : 4 Время, сек -    0.0 см 
TM                 .GRD                                    : 13 Температура, °C -  180.0 см 
TM$                .UE                                     : 7 Температура, усл.ед. -  180.0 см 
VGD                .                                       : 9 Влагомер,  -  170.0 см 
~Ascii
# ...
1670.8     8.2        366        1          0          150.325    9311       -1400      1929       18956      0          13514.28   55.614     14095      6403      
1671       8.31       366        1          0          150.35     9313       -1400      1934       18958      0          13514.64   55.62      14097      6403      
1671.2     8.4        366        1          0          150.383    9314       -1400      1934       18961      0          13515.01   55.626     14098      6403      
1671.4     8.45       366        1          0          150.401    9315       -1400      1933       18964      0          13515.38   55.631     14099      6403      
1671.6     8.48       366        1          0          150.401    9315       -1400      1935       18966      0          13515.75   55.641     14102      6402      
1671.8     8.51       366        1          0          150.422    9316       -1400      1939       18968      0          13516.14   55.645     14103      6402      
1672       8.5        363        1          0          150.44     9317       -1400      1939       18970      0          13516.5    55.653     14105      6402      
1672.2     8.43       354        1          0          150.459    9318       -1400      1933       18973      0          13516.86   55.661     14107      6403      
1672.4     8.38       354        1          0          150.479    9319       -1400      1932       18976      0          13517.22   55.668     14109      6402      
1672.6     8.35       354        1          0          150.497    9320       -1400      1931       18980      0          13517.61   55.673     14110      6402      
1672.8     8.33       354        1          0          150.529    9321       -1400      1936       18983      0          13518      55.682     14112      6403      
1673       8.31       354        1          0          150.555    9323       -1400      1934       18985      0          13518.34   55.688     14114      6403      
1673.2     8.3        354        1          0          150.574    9323       -1400      1938       18988      0          13518.71   55.694     14115      6403      
1673.4     8.27       351        1          0          150.594    9324       -1400      1942       18991      0          13519.1    55.699     14116      6403      
1673.6     8.23       349        1          0          150.613    9325       -1400      1941       18994      0          13519.49   55.705     14118      6403      
1673.8     8.21       349        1          0          150.631    9326       -1400      1939       18996      0          13519.83   55.712     14120      6403      
1674       8.2        349        1          0          150.649    9327       -1400      1934       18999      0          13520.2    55.719     14121      6403      
1674.2     8.19       349        1          0          150.669    9328       -1400      1927       19001      0          13520.59   55.723     14122      6403      
1674.4     8.18       349        1          0          150.689    9329       -1400      1926       19003      0          13520.96   55.73      14124      6403      
1674.6     8.22       355        1          0          150.706    9330       -1400      1929       19005      0          13521.32   55.734     14125      6403      
1674.8     8.37       371        1          0          150.726    9331       -1400      1928       19007      0          13521.68   55.737     14126      6403      
1675       8.46       371        1          0          150.745    9332       -1400      1928       19009      0          13522.06   55.745     14128      6403      
1675.2     8.54       371        1          0          150.765    9333       -1400      1933       19012      0          13522.45   55.749     14129      6404      
1675.4     8.58       371        1          0          150.782    9334       -1400      1931       19014      0          13522.8    55.756     14131      6403      
1675.6     8.61       371        1          0          150.801    9335       -1400      1930       19016      0          13523.18   55.76      14132      6404      
1675.8     8.63       371        1          0          150.821    9336       -1400      1929       19019      0          13523.54   55.766     14133      6404      
1676       8.44       345        1          0          150.84     9336       -1400      1929       19021      0          13523.92   55.774     14135      6405      
1676.2     8.24       335        1          0          150.859    9337       -1400      1928       19023      0          13524.3    55.78      14136      6405      
1676.4     8.11       335        30         0          150.877    9338       -1400      1927       19025      0          13524.66   55.785     14138      6404      
1676.6     8.03       335        93         0          150.896    9339       -1400      1930       19027      0          13525.02   55.791     14139      6405      
1676.8     7.97       335        99         0          150.916    9340       -1400      1928       19028      0          13525.4    55.796     14140      6404      
1677       7.92       335        142        0          150.934    9341       -1400      1927       19028      0          13525.77   55.803     14142      6405      
1677.2     7.9        335        105        0          150.953    9342       -1400      1932       19030      0          13526.13   55.811     14144      6405      
1677.4     7.8        326        105        0          150.972    9343       -1400      1936       19032      0          13526.51   55.814     14145      6404      
1677.6     7.5        292        80         0          151.008    9345       -1400      1938       19035      0          13526.9    55.821     14147      6405      
1677.8     7.29       292        75         0          151.016    9345       -1400      1931       19038      0          13527.27   55.826     14148      6404      
1678       7.13       292        1320       0          151.029    9346       -1400      1925       19042      0          13527.62   55.833     14150      6405      
1678.2     7.04       292        4901       0          151.036    9346       -1400      1930       19044      0          13528      55.837     14151      6405      
1678.4     6.98       292        3127       0          151.057    9347       -1400      1929       19048      0          13528.36   55.841     14152      6406      
1678.6     6.93       292        2011       0          151.077    9348       -1400      1928       19051      0          13528.74   55.847     14153      6405      
1678.8     7.06       313        1291       0          151.084    9348       -1400      1928       19054      0          13529.12   55.854     14155      6405      
1679       7.22       323        831        0          151.108    9350       -1400      1923       19056      0          13529.5    55.86      14156      6407      
1679.2     7.32       323        529        0          151.139    9351       -1400      1924       19059      0          13529.86   55.865     14158      6407      
1679.4     7.4        323        334        0          151.144    9351       -1400      1929       19060      0          13530.22   55.873     14159      6408      
1679.6     7.45       323        212        0          151.18     9353       -1400      1934       19063      0          13530.6    55.88      14161      6408      
1679.8     7.48       323        212        0          151.199    9354       -1400      1934       19067      0          13530.99   55.887     14163      6407      
1680       7.52       325        127        0          151.217    9355       -1400      1927       19070      0          13531.36   55.895     14165      6405      
1680.2     7.61       333        73         2          151.236    9356       -1400      1920       19072      0          13531.76   55.905     14167      6406      
1680.4     7.66       333        41         0          151.256    9357       -1400      1916       19072      0          13532.16   55.913     14170      6406      
