~Version
 VERS              .         2.0                           : CWLS LOG ASCII STANDARD - VERSION 2.0
 WRAP              .         NO                            : ONE LINE PER DEPTH STEP
 DLM               .         SPACE                         : DELIMITING CHARACTER(SPACE TAB OR COMMA)
~Well Information
#_______________________________________________________________________________
#
#PARAMETER_NAME    .UNIT     VALUE                         : DESCRIPTION
#_______________________________________________________________________________
STRT               .M        2689.8                        : First reference value
STOP               .M        2754.4                        : Last reference value
STEP               .M        0.1999995                     : Step increment
NULL               .         -9999                         : Missing value
COMP               .                                       : Company
WELL               .         616                           : Well name
FLD                .                                       : Field
LOC                .                                       : Location
CNTY               .                                       : County
STAT               .                                       : State
CTRY               .                                       : Country
SRVC               .                                       : Service Company
DATE               .                                       : Date
API                .                                       : API number
PROJECT_UPGRADE_TIME .         2021-03-18T21_24_50           : 
group              .         Good                          : 
~Parameter Information Block
#_______________________________________________________________________________
#
#PARAMETER_NAME    .UNIT     VALUE                         : DESCRIPTION
#_______________________________________________________________________________
SET                .         D7018_D                       : 
OTHER              .         Kedr.exe версия 2.1.2.32      : 
OTHER_10           .         TM.GRD = 0.00404*TM$.UE + 0.07: 
OTHER_11           .         MN.ATM = (6.33279e-006*TM.GRD + 0.02401)*(MN$.UE + 2.72*TM.GRD + -2018): 
OTHER_12           .         GK.MKR/H = GK$.UE / 43.5489 + 0: 
OTHER_13           .         RES.SM = 0.00476*CRES.UE - 1.51709: 
OTHER_14           .         PL.GSM3 = 0 + 0 * (PL.UE / 1) +  0 * (PL.UE / 1)^2: 
OTHER_15           .         Постоянная времени ГГП = 6 сек: 
OTHER_16           .         Постоянная времени ГК = 6 сек : 
OTHER_2            .         KedrData.dll версия 3.2.2.14  : 
OTHER_3            .         LasInf.dll версия 3.2.0.13    : 
OTHER_4            .         Драйвер версия 1.2.0.5        : 
OTHER_5            .         Прибор_ КСА-M1                : 
OTHER_6            .         Номер прибора_ 155+р204       : 
OTHER_7            .         Режим_ КСА-М1 + ГГП + Резистивиметр: 
OTHER_8            .         Форма_ 223\2                  : 
OTHER_9            .         Тарировки_                    : 
PROJECT_UPGRADE_TIME .         2021-03-18T21_24_50           : 
TLFamily_CRES      .                                       : 
TLFamily_DEPT      .         Measured Depth                : 
TLFamily_GK        .         Gamma Ray                     : 
TLFamily_GK$       .                                       : 
TLFamily_LM        .         Casing Collar locator         : 
TLFamily_METKA     .                                       : 
TLFamily_MN        .                                       : 
TLFamily_MN$       .                                       : 
TLFamily_PL        .                                       : 
TLFamily_PL_2      .                                       : 
TLFamily_RCOR      .                                       : 
TLFamily_RES       .         Mud Resistivity               : 
TLFamily_SPID      .         Spontaneous Potential         : 
TLFamily_STD       .                                       : 
TLFamily_TIME      .         Time                          : 
TLFamily_TM        .         Temperature                   : 
TLFamily_TM$       .         Temperature                   : 
TLFamily_VGD       .         Gas Volume                    : 
group              .         prim                          : 
~Curve Information
#_______________________________________________________________________________
#
#LOGNAME           .UNIT     LOG_ID                        : DESCRIPTION
#_______________________________________________________________________________
DEPT               .M                                      : 1 Глубина, м -    0.0 см 
CRES               .UE                                     : 9 Проводимость, усл.ед. -  222.0 см 
GK                 .MKR/H                                  : 16 Гамма-активность, мкр./ч -  106.0 см 
GK$                .UE                                     : 13 Гамма-активность, усл.ед. -  106.0 см 
LM                 .                                       : 11 Локатор муфт,  -   16.0 см 
METKA              .                                       : 3 Метки,  -    0.0 см 
MN                 .ATM                                    : 15 Давление, атм. -  160.0 см 
MN$                .UE                                     : 7 Давление, усл.ед. -  160.0 см 
PL                 .UE                                     : 10 Плотность, усл.ед. -  270.0 см 
PL_2               .GSM3                                   : 18 Плотность, г./см3 -  270.0 см 
RCOR               .CM/KM                                  : 5 Коррекция по ролику, см/км -    0.0 см 
RES                .SM                                     : 17 Проводимость,  -  222.0 см 
SPID               .M/H                                    : 2 Скорость, м/час -    0.0 см 
STD                .                                       : 12 Приток,  -  170.0 см 
TIME               .S                                      : 4 Время, сек -    0.0 см 
TM                 .GRD                                    : 14 Температура, °C -  180.0 см 
TM$                .UE                                     : 6 Температура, усл.ед. -  180.0 см 
VGD                .                                       : 8 Влагомер,  -  170.0 см 
~Ascii
# ...
2706.2     1209       10.69      486        100        0          248.953    12137      14         0          0          4.2393     -260       9035       9966.46    46.053     11382      6602      
2706.4     1211       10.12      450        123        0          248.953    12137      14         0          0          4.2473     -260       9032       9963.7     46.057     11383      6602      
2706.6     1209       9.99       428        125        0          248.976    12138      14         0          0          4.2376     -260       9033       9960.82    46.056     11383      6602      
2706.8     1210       9.64       437        121        0          249.001    12139      13         0          0          4.2425     -260       9031       9958.06    46.051     11381      6602      
2707       1205       9.65       416        113        0          249.001    12139      13         0          0          4.2187     -260       9031       9955.29    46.053     11382      6604      
2707.2     1208       9.8        425        141        0          249.033    12140      14         0          0          4.233      -260       9033       9952.42    46.053     11382      6604      
2707.4     1202       9.96       425        120        0          249.049    12141      13         0          0          4.2044     -260       9030       9949.66    46.049     11381      6603      
2707.6     1206       10.36      451        105        0          249.057    12141      14         0          0          4.2235     -260       9028       9946.84    46.048     11381      6603      
2707.8     1201       10.29      455        110        0          249.097    12143      13         0          0          4.1997     -213       9027       9944.01    46.044     11380      6605      
2708       1202       10.03      446        146        0          249.096    12143      14         0          0          4.2029     -260       9026       9941       46.041     11379      6605      
2708.2     1202       9.77       431        119        0          249.12     12144      13         0          0          4.206      -260       9022       9938.24    46.038     11378      6605      
2708.4     1191       9.57       422        108        0          249.144    12145      14         0          0          4.1521     -260       9022       9935.48    46.037     11378      6606      
2708.6     1201       9.59       416        163        1          249.144    12145      14         0          0          4.1997     -260       9023       9932.59    46.033     11377      6616      
2708.8     1204       9.66       419        135        0          249.169    12146      14         0          0          4.2156     -260       9024       9929.85    46.029     11376      6607      
2709       1200       9.74       428        139        0          249.201    12147      14         0          0          4.1965     -277       9024       9927.09    46.033     11377      6605      
2709.2     1202       9.52       420        115        0          249.217    12148      14         0          0          4.2044     -260       9024       9924.19    46.033     11377      6607      
2709.4     1199       9.39       409        141        0          249.233    12149      14         0          0          4.1925     -260       9024       9921.45    46.033     11377      6607      
2709.6     1200       9.5        403        109        0          249.241    12149      14         0          0          4.1935     -260       9025       9918.55    46.033     11377      6607      
2709.8     1197       9.68       422        92         1          249.249    12149      13         0          0          4.1791     -260       9022       9915.79    46.029     11376      6606      
2710       1196       9.65       422        100        0          249.314    12152      14         0          0          4.1759     -260       9022       9911.21    46.03      11376      6608      
2710.2     1195       9.9        422        110        0          249.297    12151      13         0          0          4.1711     -260       9020       9908.45    46.029     11376      6607      
2710.4     1199       10.33      440        96         0          249.313    12152      15         0          0          4.1886     -260       9020       9905.68    46.026     11375      6607      
2710.6     1195       10.94      468        90         0          249.338    12153      13         0          0          4.1728     -260       9022       9902.93    46.025     11375      6608      
2710.8     1189       11.31      492        121        0          249.362    12154      14         0          0          4.1426     -300       9020       9900.04    46.025     11375      6609      
2711       1193       11.28      495        107        0          249.386    12155      13         0          0          4.1616     -290       9021       9897.22    46.025     11375      6609      
2711.2     1195       10.12      482        141        1          249.377    12155      13         0          0          4.1711     -260       9019       9894.53    46.025     11375      6609      
2711.4     1193       8.48       394        116        0          249.411    12156      14         0          0          4.16       -260       9020       9891.71    46.021     11374      6609      
2711.6     1192       7.65       342        204        0          249.435    12157      14         0          0          4.1583     -280       9020       9888.89    46.025     11375      6610      
2711.8     1198       7.19       335        106        0          249.435    12157      13         0          0          4.1855     -280       9019       9886.13    46.025     11375      6609      
2712       1188       7.09       298        105        0          249.483    12159      13         0          0          4.1354     -280       9020       9883.38    46.029     11376      6611      
2712.2     1193       7.38       313        318        1          249.484    12159      14         0          0          4.16       -260       9022       9880.49    46.021     11374      6613      
2712.4     1191       7.49       330        456        0          249.508    12160      15         0          0          4.1521     -260       9019       9877.72    46.025     11375      6612      
2712.6     1196       7.2        322        254        0          249.532    12161      14         0          0          4.1774     -260       9020       9874.84    46.025     11375      6611      
2712.8     1198       6.9        283        271        0          249.54     12161      14         0          0          4.1869     -260       9021       9872.09    46.025     11375      6612      
2713       1195       7.57       321        1537       0          249.58     12163      14         0          0          4.1711     -260       9022       9869.2     46.022     11374      6611      
2713.2     1196       7.83       343        300        0          249.581    12163      14         0          0          4.1775     -260       9023       9866.44    46.021     11374      6619      
2713.4     1193       7.69       342        259        0          249.604    12164      14         0          0          4.1616     -233       9024       9863.68    46.025     11375      6630      
2713.6     1195       7.47       332        446        0          249.629    12165      14         0          0          4.1713     -260       9025       9860.8     46.021     11374      6612      
2713.8     1210       7.34       322        230        0          249.653    12166      14         0          0          4.2425     -260       9029       9858.04    46.024     11375      6612      
2714       1201       7.34       321        271        0          249.654    12166      14         0          0          4.1997     -260       9030       9855.29    46.025     11375      6614      
2714.2     1208       7.02       312        66         0          249.67     12167      14         0          0          4.233      -260       9031       9852.53    46.025     11375      6618      
