~Version
 VERS              .         2.0                           : CWLS LOG ASCII STANDARD - VERSION 2.0
 WRAP              .         NO                            : ONE LINE PER DEPTH STEP
 DLM               .         SPACE                         : DELIMITING CHARACTER(SPACE TAB OR COMMA)
~Well Information
#_______________________________________________________________________________
#
#PARAMETER_NAME    .UNIT     VALUE                         : DESCRIPTION
#_______________________________________________________________________________
STRT               .M        19.65                         : First reference value
STOP               .M        2766.85                       : Last reference value
STEP               .M        0.2                           : Step increment
NULL               .         -9999                         : Missing value
COMP               .                                       : Company
WELL               .         616                           : Well name
FLD                .                                       : Field
LOC                .                                       : Location
CNTY               .                                       : County
STAT               .                                       : State
CTRY               .                                       : Country
SRVC               .                                       : Service Company
DATE               .                                       : Date
API                .                                       : API number
PROJECT_UPGRADE_TIME .         2021-03-18T21_24_50           : 
group              .         Good                          : 
~Parameter Information Block
#_______________________________________________________________________________
#
#PARAMETER_NAME    .UNIT     VALUE                         : DESCRIPTION
#_______________________________________________________________________________
SET                .         D7016_D_2                     : 
NPR                .         155                           : Номер прибора
OTHER              .         Kedr.exe версия 2.1.2.32      : 
OTHER_10           .         TM.GRD = 0.00404*TM$.UE + 0.07: 
OTHER_11           .         MN.ATM = (6.33279e-006*TM.GRD + 0.02401)*(MN$.UE + 2.72*TM.GRD + -2018): 
OTHER_12           .         GK.MKR/H = GK$.UE / 43.5489 + 0: 
OTHER_13           .         RES.SM = 0.00476*CRES.UE - 1.51709: 
OTHER_14           .         PL.GSM3 = 0 + 0 * (PL.UE / 1) +  0 * (PL.UE / 1)^2: 
OTHER_15           .         Постоянная времени ГГП = 6 сек: 
OTHER_16           .         Постоянная времени ГК = 6 сек : 
OTHER_2            .         KedrData.dll версия 3.2.2.14  : 
OTHER_3            .         LasInf.dll версия 3.2.0.13    : 
OTHER_4            .         Драйвер версия 1.2.0.5        : 
OTHER_5            .         Прибор_ КСА-M1                : 
OTHER_6            .         Номер прибора_ 155+р204       : 
OTHER_7            .         Режим_ КСА-М1 + ГГП + Резистивиметр: 
OTHER_8            .         Форма_ 223\2                  : 
OTHER_9            .         Тарировки_                    : 
PR                 .         КСА-Т7 М1                     : Тип прибора
PROJECT_UPGRADE_TIME .         2021-03-18T21_24_50           : 
PRTY               .         ПП-223_2                      : Номер партии
SRV                .         ЦКРС                          : Заказчик
SRVC               .         Лузин  А.Б.                   : Начальник партии
TLFamily_DEPT      .         Measured Depth                : 
TLFamily_LM        .         Casing Collar locator         : 
TLFamily_MN        .                                       : 
TLFamily_SPID      .         Spontaneous Potential         : 
TLFamily_TM        .         Temperature                   : 
group              .         second                        : 
~Curve Information
#_______________________________________________________________________________
#
#LOGNAME           .UNIT     LOG_ID                        : DESCRIPTION
#_______________________________________________________________________________
DEPT               .M                                      : Depth curve 
LM                 .е.ацп                                  : Локация муфт 
MN                 .атм                                    : Манометрия, атм 
SPID               .м/ч                                    : Скорость записи,м/час 
TM                 .град.С                                 : Термометрия,град.С 
~Ascii
# ...
2005.25    133.001    179.04     1660       57.48     
2005.45    137        179.04     1660       57.49     
2005.65    134        179.05     1660       57.49     
2005.85    132.002    179.09     1659.997   57.49     
2006.05    148.999    179.09     1638.998   57.5      
2006.25    139.003    179.1      1628.005   57.5      
2006.45    156.996    179.13     1660       57.5      
2006.65    127.996    179.14     1660       57.5      
2006.85    104.798    179.16     1660       57.51     
2007.05    5564.685   179.19     1660       57.51     
2007.25    3407.813   179.19     1660.01    57.51     
2007.45    2128.883   179.22     1729.997   57.51     
2007.65    1330.931   179.24     1707.987   57.52     
2007.85    856.956    179.25     1616.01    57.52     
2008.05    553.974    179.27     1683.007   57.52     
2008.25    375.981    179.3      1729.989   57.52     
2008.45    247.991    179.31     1652.992   57.53     
2008.65    183.996    179.33     1600       57.53     
2008.85    157.995    179.36     1600.008   57.53     
2009.05    121.001    179.36     1654.001   57.53     
2009.25    125.003    179.39     1660       57.54     
2009.45    142.997    179.41     1660       57.54     
2009.65    121        179.42     1659.992   57.54     
2009.85    123.001    179.44     1603       57.54     
2010.05    128        179.47     1603.008   57.55     
2010.25    124.999    179.5      1660       57.55     
2010.45    119.002    179.51     1660       57.55     
2010.65    133.001    179.53     1659.996   57.55     
2010.85    138        179.54     1629.996   57.56     
2011.05    140.998    179.58     1600.007   57.56     
2011.25    127.004    179.58     1646.002   57.56     
2011.45    155.998    179.63     1659.992   57.57     
2011.65    145.01     179.63     1603       57.57     
2011.85    215.994    179.66     1606.008   57.57     
2012.05    173        179.68     1660       57.58     
2012.25    173.003    179.69     1660       57.58     
2012.45    190.998    179.71     1659.995   57.58     
2012.65    176.004    179.72     1627.996   57.58     
2012.85    206.002    179.73     1600.007   57.59     
2013.05    217.994    179.75     1647.002   57.59     
2013.25    173.999    179.78     1660       57.6      
2013.45    167.998    179.81     1660       57.6      
2013.65    157.001    179.81     1660       57.6      
2013.85    162.997    179.84     1660       57.6      
2014.05    145.003    179.86     1660       57.61     
2014.25    162.997    179.87     1660       57.61     
2014.45    140.006    179.9      1660       57.61     
2014.65    180.004    179.9      1660       57.62     
2014.85    208.998    179.93     1660       57.62     
2015.05    197.023    179.95     1660       57.62     
2015.25    356.983    179.96     1660       57.62     
2015.45    241.996    179.98     1660       57.63     
2015.65    215        180.01     1660       57.63     
2015.85    212.004    180.03     1660       57.64     
2016.05    237.996    180.03     1660       57.64     
2016.25    209.996    180.06     1660       57.64     
2016.45    183.005    180.08     1660       57.64     
2016.65    213.996    180.1      1660       57.65     
2016.85    189.003    180.1      1660       57.66     
2017.05    211.999    180.13     1660       57.66     
2017.25    202.996    180.15     1660       57.66     
2017.45    175.017    180.16     1660       57.66     
2017.65    292.992    180.19     1660       57.67     
2017.85    237.743    180.2      1660       57.67     
2018.05    5291.708   180.22     1660       57.67     
2018.25    3307.829   180.24     1660.005   57.68     
2018.45    2143.926   180.25     1692       57.68     
2018.65    1638.951   180.27     1694.995   57.68     
2018.85    1304.95    180.3      1660       57.69     
2019.05    964.963    180.33     1660       57.69     
2019.25    712.975    180.33     1660       57.7      
2019.45    545.983    180.36     1660       57.7      
2019.65    429.995    180.39     1660       57.7      
2019.85    398        180.4      1660       57.7      
2020.05    397.998    180.41     1660       57.71     
2020.25    386.009    180.44     1656.992   57.71     
2020.45    446.996    180.45     1600.002   57.71     
2020.65    421.02     180.47     1616.006   57.71     
2020.85    557.033    180.48     1660       57.71     
2021.05    779.988    180.5      1660       57.72     
2021.25    697.031    180.53     1660       57.72     
2021.45    909.982    180.54     1660       57.72     
2021.65    786.01     180.55     1660       57.72     
2021.85    855.011    180.58     1660       57.72     
2022.05    928.982    180.61     1660       57.73     
2022.25    805.984    180.64     1660       57.73     
2022.45    697.002    180.63     1660       57.73     
2022.65    708.983    180.66     1660       57.73     
2022.85    593.988    180.69     1660       57.74     
2023.05    512.991    180.7      1660.005   57.75     
2023.25    453.991    180.72     1694.999   57.75     
2023.45    394.989    180.75     1690.995   57.75     
2023.65    323.003    180.75     1660       57.76     
2023.85    341.995    180.77     1660       57.76     
2024.05    308.001    180.8      1660       57.77     
2024.25    315.999    180.8      1660.01    57.77     
2024.45    311.003    180.82     1729.99    57.77     
2024.65    329.992    180.84     1660       57.78     
2024.85    276.995    180.86     1660.003   57.78     
2025.05    243.993    180.9      1683.003   57.78     
2025.25    199.004    180.92     1699.994   57.79     
2025.45    224.998    180.92     1660       57.79     
2025.65    209.007    180.95     1660       57.79     
2025.85    257.997    180.97     1660       57.8      
2026.05    238.005    180.97     1660       57.8      
2026.25    272.997    181        1660       57.81     
2026.45    254.996    181.01     1660.001   57.81     
2026.65    225.008    181.05     1668.007   57.81     
2026.85    281.994    181.06     1714.992   57.81     
2027.05    241.003    181.09     1660       57.82     
2027.25    259.996    181.1      1660       57.82     
2027.45    232        181.12     1660       57.82     
2027.65    228.998    181.14     1660       57.83     
2027.85    215.996    181.15     1660       57.83     
2028.05    185.997    181.17     1660.009   57.83     
2028.25    166.995    181.2      1722.001   57.83     
2028.45    133.005    181.2      1729.99    57.84     
2028.65    167.997    181.23     1660       57.85     
2028.85    151.701    181.25     1660       57.85     
2029.05    4891.721   181.26     1660       57.85     
2029.25    3006.833   181.27     1660.008   57.86     
2029.45    1874.899   181.29     1713.003   57.86     
2029.65    1190.901   181.32     1729.999   57.86     
2029.85    522.977    181.34     1722.991   57.87     
2030.05    367.989    181.35     1660       57.87     
2030.25    295.991    181.37     1660       57.87     
2030.45    237.994    181.4      1660       57.87     
2030.65    198.998    181.38     1660       57.88     
2030.85    188.001    181.38     1660       57.88     
2031.05    194.001    181.46     1660       57.88     
2031.25    198.005    181.5      1660       57.88     
2031.45    233.002    181.5      1659.992   57.89     
2031.65    248        181.5      1609.008   57.89     
2031.85    247.995    181.53     1659.997   57.9      
2032.05    214.996    181.55     1636.995   57.9      
2032.25    185        181.57     1600.005   57.9      
2032.45    186.995    181.59     1637.003   57.9      
2032.65    155.021    181.61     1659.992   57.91     
2032.85    293.998    181.62     1607.007   57.91     
2033.05    280.003    181.64     1657       57.91     
2033.25    296.992    181.67     1660       57.91     
2033.45    240.993    181.69     1660       57.92     
2033.65    193.996    181.7      1660       57.92     
2033.85    165.996    181.73     1659.995   57.92     
2034.05    142.004    181.74     1627.996   57.93     
2034.25    171        181.76     1600.007   57.93     
