~Version
 VERS              .         2.0                           : CWLS LOG ASCII STANDARD - VERSION 2.0
 WRAP              .         NO                            : ONE LINE PER DEPTH STEP
 DLM               .         SPACE                         : DELIMITING CHARACTER(SPACE TAB OR COMMA)
~Well Information
#_______________________________________________________________________________
#
#PARAMETER_NAME    .UNIT     VALUE                         : DESCRIPTION
#_______________________________________________________________________________
STRT               .M        2667.4                        : First reference value
STOP               .M        2776                          : Last reference value
STEP               .M        0.2000002                     : Step increment
NULL               .         -9999                         : Missing value
COMP               .                                       : Company
WELL               .         616                           : Well name
FLD                .                                       : Field
LOC                .                                       : Location
CNTY               .                                       : County
STAT               .                                       : State
CTRY               .                                       : Country
SRVC               .                                       : Service Company
DATE               .                                       : Date
API                .                                       : API number
PROJECT_UPGRADE_TIME .         2021-03-18T21_24_50           : 
group              .         Good                          : 
~Parameter Information Block
#_______________________________________________________________________________
#
#PARAMETER_NAME    .UNIT     VALUE                         : DESCRIPTION
#_______________________________________________________________________________
SET                .         D1800_D                       : 
OTHER              .         Программное обеспечение станции MONITOR-386EX 25/12/99 15_08_10   BGF V52 22/08/01 16_56_30   3.1_SNGF___BGF_N_092049: 
OTHER_10           .         Тарировки_                    : 
OTHER_11           .         TM.GRD = 0.00403*TM$.UE + -1.07: 
OTHER_12           .         MN.ATM = (9.34907e-006*TM.GRD + 0.02171)*(MN$.UE + -7.93*TM.GRD + -1787): 
OTHER_13           .         GK.MKR/H = LM. / 42.4676      : 
OTHER_14           .         GK.FLT = 0.1*GK.MKR/H[-1] + (1-0.1)*GK.MKR/H[0]: 
OTHER_2            .         Kedr.exe версия 3.4.2.51      : 
OTHER_3            .         KedrData.dll версия 3.4.2.24  : 
OTHER_4            .         Драйвер версия 2.1.1.3        : 
OTHER_5            .         Мнемоники версия 3.3 S        : 
OTHER_6            .         Прибор_ КСА-Т4                : 
OTHER_7            .         Номер прибора_ 03             : 
OTHER_8            .         Режим_ КСА-Т4                 : 
OTHER_9            .         Форма_ КВА.                   : 
PROJECT_UPGRADE_TIME .         2021-03-18T21_24_49           : 
TLFamily_DEPT      .         Measured Depth                : 
TLFamily_GK        .         Gamma Ray                     : 
TLFamily_GK$       .                                       : 
TLFamily_GK_2      .         Gamma Ray                     : 
TLFamily_LM        .         Casing Collar locator         : 
TLFamily_METKA     .                                       : 
TLFamily_MN        .                                       : 
TLFamily_MN$       .                                       : 
TLFamily_RCOR      .                                       : 
TLFamily_SPID      .         Spontaneous Potential         : 
TLFamily_TENS      .         Cable Tension                 : 
TLFamily_TIME      .         Time                          : 
TLFamily_TM        .         Temperature                   : 
TLFamily_TM$       .         Temperature                   : 
group              .         prim                          : 
~Curve Information
#_______________________________________________________________________________
#
#LOGNAME           .UNIT     LOG_ID                        : DESCRIPTION
#_______________________________________________________________________________
DEPT               .M                                      : 1 Глубина, м -    0.0 см 
GK                 .MKR/H                                  : 13 Гамма-активность, мкр./ч -  110.0 см 
GK$                .UE                                     : 10 Гамма-активность, усл.ед. -  110.0 см 
GK_2               .FLT                                    : 14 Гамма-активность фильтрованная, мкр./ч -  110.0 см 
LM                 .                                       : 9 Локатор муфт,  -   20.0 см 
METKA              .                                       : 3 Метки,  -    0.0 см 
MN                 .ATM                                    : 12 Давление, атм. -  160.0 см 
MN$                .UE                                     : 8 Давление, усл.ед. -  160.0 см 
RCOR               .CM/KM                                  : 5 Коррекция по ролику, см/км -    0.0 см 
SPID               .M/H                                    : 2 Скорость, м/час -    0.0 см 
TENS               .T                                      : 6 Натяжение кабеля, т -    0.0 см 
TIME               .S                                      : 4 Время, сек -    0.0 см 
TM                 .GRD                                    : 11 Температура, °C -  170.0 см 
TM$                .UE                                     : 7 Температура, усл.ед. -  170.0 см 
~Ascii
2667.3999023 -9999      -9999      -9999      -9999      -9999      -9999      -9999      -9999      -9999      -9999      -9999      -9999      -9999     
2667.6     -9999      -9999      -9999      -9999      0          -9999      -9999      -674       -234       0.17       7717.18    -9999      -9999     
2667.8     -9999      -9999      -9999      175        0          -9999      -9999      -674       -224       0.17       7714.06    -9999      -9999     
2668       -9999      -9999      -9999      81         0          -9999      -9999      -674       -229       0.17       7710.94    -9999      -9999     
2668.2     -9999      -9999      -9999      128        0          -9999      -9999      -674       -226       0.17       7707.87    -9999      -9999     
2668.4     -9999      -9999      -9999      77         0          -9999      -9999      -674       -223       0.17       7704.86    -9999      -9999     
2668.6     9.77       415        9.68       116        0          -9999      -9999      -674       -231       0.17       7701.67    -9999      -9999     
2668.8     9.54       405        9.53       66         0          -9999      -9999      -674       -232       0.17       7698.55    -9999      -9999     
2669       8.88       377        8.88       113        0          -9999      -9999      -674       -226       0.17       7695.42    -9999      -9999     
2669.2     9.18       390        9.17       98         0          244.133    13180      -674       -225       0.17       7692.3     46.557     11818     
2669.4     8.24       350        7.95       88         0          244.149    13181      -674       -232       0.17       7689.28    46.536     11813     
2669.6     6.88       292        6.88       129        0          244.179    13182      -674       -222       0.17       7686.15    46.532     11812     
2669.8     7.28       309        7.29       2776       0          244.195    13183      -674       -217       0.17       7683.08    46.519     11809     
2670       7.98       339        8.05       559        2          244.217    13184      -674       -222       0.17       7679.89    46.506     11805     
2670.2     8.69       369        8.8        123        0          244.24     13185      -666       -232       0.17       7675.58    46.504     11805     
2670.4     8.9        378        8.9        129        0          244.263    13186      -666       -230       0.17       7672.38    46.488     11801     
2670.6     9          382        8.99       182        0          244.285    13187      -666       -235       0.17       7669.37    46.488     11801     
2670.8     8.92       379        8.97       138        0          244.307    13188      -666       -232       0.17       7666.19    46.492     11802     
2671       9.54       405        9.71       77         0          244.329    13189      -666       -228       0.17       7663.19    46.496     11803     
2671.2     10.83      460        10.83      73         0          244.331    13189      -666       -232       0.17       7660.13    46.476     11798     
2671.4     10.78      458        10.35      64         0          244.354    13190      -666       -236       0.17       7656.86    46.457     11793     
2671.6     9.42       400        9.42       68         0          244.399    13192      -666       -226       0.17       7653.73    46.449     11791     
2671.8     10.2       433        10.19      83         0          244.422    13193      -666       -232       0.17       7650.61    46.44      11789     
2672       9.89       420        9.86       177        0          244.422    13193      -666       -235       0.17       7647.61    46.428     11786     
2672.2     9.58       407        9.37       152        0          244.445    13194      -666       -229       0.17       7644.47    46.428     11786     
2672.4     8.6        365        8.6        117        0          244.467    13195      -666       -238       0.17       7641.34    46.424     11785     
2672.6     8.5        361        8.5        72         0          244.489    13196      -666       -233       0.17       7638.22    46.426     11786     
2672.8     8.34       354        8.31       58         0          244.512    13197      -666       -242       0.17       7635.22    46.424     11785     
2673       7.84       333        7.75       73         0          244.521    13197      -666       -233       0.17       7632.03    46.403     11780     
2673.2     7.89       335        7.89       83         0          244.558    13199      -666       -233       0.17       7628.83    46.387     11776     
2673.4     7.61       323        7.59       65         0          244.559    13199      -666       -233       0.17       7625.7     46.383     11775     
2673.6     6.59       280        6.56       65         0          244.582    13200      -666       -235       0.17       7622.64    46.371     11772     
2673.8     5.86       249        5.92       72         0          244.607    13201      -666       -241       0.17       7619.58    46.347     11766     
2674       6.05       257        6.05       89         0          244.622    13202      -666       -228       0.17       7616.45    46.327     11761     
2674.2     5.51       234        5.51       66         0          244.652    13203      -666       -233       0.17       7613.32    46.319     11759     
2674.4     5.37       228        5.39       80         0          244.675    13204      -666       -234       0.17       7610.06    46.303     11755     
2674.6     5.77       245        5.97       61         0          244.676    13204      -666       -239       0.17       7607.06    46.301     11755     
2674.8     6.68       283        6.66       60         0          244.699    13205      -666       -231       0.17       7604.06    46.278     11749     
2675       6.57       279        6.57       60         0          244.722    13206      -666       -235       0.17       7600.88    46.274     11748     
2675.2     6.92       294        6.92       71         0          244.744    13207      -666       -225       0.17       7597.69    46.27      11747     
2675.4     6.88       292        6.97       67         0          244.766    13208      -666       -232       0.17       7594.67    46.266     11746     
2675.6     7.21       306        7.21       90         0          244.789    13209      -666       -223       0.17       7591.54    46.265     11746     
2675.8     6.83       290        6.83       56         0          244.811    13210      -666       -228       0.17       7588.3     46.262     11745     
2676       6.52       277        6.54       61         0          244.812    13210      -666       -228       0.17       7585.17    46.254     11743     
2676.2     6.97       296        7.04       62         0          244.834    13211      -666       -228       0.17       7582.09    46.242     11740     
2676.4     6.81       289        6.81       67         0          244.858    13212      -666       -234       0.17       7579.09    46.23      11737     
2676.6     6.83       290        6.83       73         0          244.88     13213      -666       -238       0.17       7575.9     46.23      11737     
2676.8     6.95       295        6.96       89         0          244.903    13214      -666       -234       0.17       7572.78    46.222     11735     
2677       7.32       311        7.27       84         0          244.925    13215      -666       -233       0.17       7569.71    46.21      11732     
2677.2     7.02       298        7.02       61         0          244.932    13215      -666       -224       0.17       7566.64    46.214     11733     
2677.4     7.09       301        7.09       81         0          244.97     13217      -666       -236       0.17       7563.33    46.206     11731     
2677.6     2.81       120        3.86       89         0          244.98     13217      -666       -237       0.17       7560.26    46.186     11726     
