~Version
 VERS              .         2.0                           : CWLS LOG ASCII STANDARD - VERSION 2.0
 WRAP              .         NO                            : ONE LINE PER DEPTH STEP
 DLM               .         SPACE                         : DELIMITING CHARACTER(SPACE TAB OR COMMA)
~Well Information
#_______________________________________________________________________________
#
#PARAMETER_NAME    .UNIT     VALUE                         : DESCRIPTION
#_______________________________________________________________________________
STRT               .M        10.2                          : First reference value
STOP               .M        2753.6                        : Last reference value
STEP               .M        0.2                           : Step increment
NULL               .         -9999                         : Missing value
COMP               .                                       : Company
WELL               .         616                           : Well name
FLD                .                                       : Field
LOC                .                                       : Location
CNTY               .                                       : County
STAT               .                                       : State
CTRY               .                                       : Country
SRVC               .                                       : Service Company
DATE               .                                       : Date
API                .                                       : API number
PROJECT_UPGRADE_TIME .         2021-03-18T21_24_50           : 
group              .         Good                          : 
~Parameter Information Block
#_______________________________________________________________________________
#
#PARAMETER_NAME    .UNIT     VALUE                         : DESCRIPTION
#_______________________________________________________________________________
SET                .         D7028_D                       : 
OTHER              .         Kedr.exe версия 2.1.2.32      : 
OTHER_10           .         TM.GRD = 0.00404*TM$.UE + 0.07: 
OTHER_11           .         MN.ATM = (6.33279e-006*TM.GRD + 0.02401)*(MN$.UE + 2.72*TM.GRD + -2018): 
OTHER_12           .         GK.MKR/H = GK$.UE / 43.5489 + 0: 
OTHER_13           .         RES.SM = 0.00476*CRES.UE - 1.51709: 
OTHER_14           .         PL.GSM3 = 0 + 0 * (PL.UE / 1) +  0 * (PL.UE / 1)^2: 
OTHER_15           .         Постоянная времени ГГП = 6 сек: 
OTHER_16           .         Постоянная времени ГК = 6 сек : 
OTHER_2            .         KedrData.dll версия 3.2.2.14  : 
OTHER_3            .         LasInf.dll версия 3.2.0.13    : 
OTHER_4            .         Драйвер версия 1.2.0.5        : 
OTHER_5            .         Прибор_ КСА-M1                : 
OTHER_6            .         Номер прибора_ 155+р204       : 
OTHER_7            .         Режим_ КСА-М1 + ГГП + Резистивиметр: 
OTHER_8            .         Форма_ 223\2                  : 
OTHER_9            .         Тарировки_                    : 
PROJECT_UPGRADE_TIME .         2021-03-18T21_24_50           : 
TLFamily_CRES      .                                       : 
TLFamily_DEPT      .         Measured Depth                : 
TLFamily_GK        .         Gamma Ray                     : 
TLFamily_GK$       .                                       : 
TLFamily_LM        .         Casing Collar locator         : 
TLFamily_METKA     .                                       : 
TLFamily_MN        .                                       : 
TLFamily_MN$       .                                       : 
TLFamily_PL        .                                       : 
TLFamily_PL_2      .                                       : 
TLFamily_RCOR      .                                       : 
TLFamily_RES       .         Mud Resistivity               : 
TLFamily_SPID      .         Spontaneous Potential         : 
TLFamily_STD       .                                       : 
TLFamily_TIME      .         Time                          : 
TLFamily_TM        .         Temperature                   : 
TLFamily_TM$       .         Temperature                   : 
TLFamily_VGD       .         Gas Volume                    : 
group              .         prim                          : 
~Curve Information
#_______________________________________________________________________________
#
#LOGNAME           .UNIT     LOG_ID                        : DESCRIPTION
#_______________________________________________________________________________
DEPT               .M                                      : 1 Глубина, м -    0.0 см 
CRES               .UE                                     : 9 Проводимость, усл.ед. -  222.0 см 
GK                 .MKR/H                                  : 16 Гамма-активность, мкр./ч -  106.0 см 
GK$                .UE                                     : 13 Гамма-активность, усл.ед. -  106.0 см 
LM                 .                                       : 11 Локатор муфт,  -   16.0 см 
METKA              .                                       : 3 Метки,  -    0.0 см 
MN                 .ATM                                    : 15 Давление, атм. -  160.0 см 
MN$                .UE                                     : 7 Давление, усл.ед. -  160.0 см 
PL                 .UE                                     : 10 Плотность, усл.ед. -  270.0 см 
PL_2               .GSM3                                   : 18 Плотность, г./см3 -  270.0 см 
RCOR               .CM/KM                                  : 5 Коррекция по ролику, см/км -    0.0 см 
RES                .SM                                     : 17 Проводимость,  -  222.0 см 
SPID               .M/H                                    : 2 Скорость, м/час -    0.0 см 
STD                .                                       : 12 Приток,  -  170.0 см 
TIME               .S                                      : 4 Время, сек -    0.0 см 
TM                 .GRD                                    : 14 Температура, °C -  180.0 см 
TM$                .UE                                     : 6 Температура, усл.ед. -  180.0 см 
VGD                .                                       : 8 Влагомер,  -  170.0 см 
~Ascii
# ...
2380       1323       9.36       436        330        0          216.742    10737      14         0          0          4.7791     -1860      11895      19439.66   60.864     15048      6654      
2380.2     1322       9.2        398        513        0          216.751    10737      14         0          0          4.7771     -1810      11896      19439.18   60.864     15048      6655      
2380.4     1323       9.22       398        801        0          216.775    10738      14         0          0          4.7804     -1842      11894      19438.78   60.865     15048      6655      
2380.6     1323       9.24       398        1278       0          216.799    10739      14         0          0          4.7804     -1860      11895      19438.38   60.868     15049      6654      
2380.8     1323       9.26       398        2030       0          216.817    10740      14         0          0          4.7804     -1808      11895      19437.97   60.869     15049      6654      
2381       1323       9.29       398        3244       0          216.831    10741      14         0          0          4.7804     -1840      11895      19437.57   60.871     15050      6653      
2381.2     1323       9.34       401        5277       0          216.872    10742      14         0          0          4.7794     -1811      11895      19437.18   60.869     15049      6654      
2381.4     1322       9.37       406        7395       0          216.89     10743      14         0          0          4.7766     -1790      11896      19436.78   60.872     15050      6655      
2381.6     1323       9.38       406        107        0          216.903    10744      14         0          0          4.7804     -1790      11896      19436.39   60.873     15050      6653      
2381.8     1323       9.4        406        93         0          216.932    10745      14         0          0          4.7804     -1836      11897      19436      60.876     15051      6651      
2382       1323       9.41       406        106        0          216.957    10746      14         0          0          4.7804     -1860      11897      19435.6    60.876     15051      6645      
2382.2     1323       9.43       406        89         0          216.981    10747      14         0          0          4.7804     -1860      11898      19435.21   60.876     15051      6641      
2382.4     1323       9.46       413        84         0          216.988    10747      14         0          0          4.7804     -1860      11899      19434.82   60.876     15051      6643      
2382.6     1323       9.45       424        86         0          217.006    10748      14         0          0          4.7804     -1860      11899      19434.43   60.876     15051      6635      
2382.8     1322       9.39       424        71         0          217.03     10749      14         0          0          4.7774     -1860      11898      19434.02   60.879     15052      6634      
2383       1323       9.31       424        70         0          217.055    10750      14         0          0          4.7786     -1818      11893      19433.63   60.88      15052      6635      
2383.2     1322       9.22       424        79         0          217.062    10750      14         0          0          4.7774     -1790      11898      19433.25   60.883     15053      6635      
2383.4     1322       9.1        424        72         0          217.078    10751      14         0          0          4.7756     -1790      11898      19432.84   60.884     15053      6638      
2383.6     1322       8.95       424        87         0          217.102    10752      14         0          0          4.7756     -1830      11899      19432.45   60.884     15053      6637      
2383.8     1322       8.78       414        75         0          217.126    10753      14         0          0          4.7756     -1821      11899      19432.05   60.884     15053      6639      
2384       1323       8.61       385        76         0          217.15     10754      13         0          0          4.7783     -1790      11899      19431.65   60.884     15053      6646      
2384.2     1323       8.56       385        76         0          217.174    10755      14         0          0          4.7804     -1790      11900      19431.26   60.887     15054      6636      
2384.4     1323       8.49       385        87         0          217.185    10755      14         0          0          4.7804     -1827      11900      19430.86   60.888     15054      6647      
2384.6     1322       8.41       385        109        0          217.2      10756      14         0          0          4.778      -1821      11899      19430.45   60.888     15054      6649      
2384.8     1322       8.31       385        103        0          217.223    10757      13         0          0          4.7779     -1790      11900      19430.05   60.891     15055      6651      
2385       1323       8.19       380        90         0          217.248    10758      14         0          0          4.7781     -1790      11899      19429.65   60.892     15055      6650      
2385.2     1322       8.07       364        89         0          217.272    10759      14         0          0          4.7756     -1827      11899      19429.26   60.892     15055      6651      
2385.4     1322       8.01       364        104        0          217.296    10760      14         0          0          4.7756     -1860      11900      19428.87   60.892     15055      6651      
2385.6     1322       7.92       364        106        0          217.307    10760      14         0          0          4.7756     -1823      11900      19428.47   60.892     15055      6648      
2385.8     1322       7.82       364        109        0          217.32     10761      14         0          0          4.7756     -1757      11900      19428.07   60.894     15056      6644      
2386       1322       7.69       364        113        0          217.345    10762      14         0          0          4.7756     -1802      11901      19427.67   60.896     15056      6639      
2386.2     1322       7.54       355        120        0          217.37     10763      14         0          0          4.7756     -1860      11901      19427.27   60.896     15056      6632      
2386.4     1322       7.4        326        80         0          217.395    10764      14         0          0          4.7777     -1860      11901      19426.85   60.898     15057      6637      
2386.6     1323       7.38       326        95         0          217.406    10764      14         0          0          4.7804     -1820      11901      19426.46   60.9       15057      6640      
2386.8     1323       7.36       326        100        0          217.418    10765      14         0          0          4.7804     -1790      11901      19426.06   60.9       15057      6638      
2387       1323       7.33       326        100        0          217.442    10766      14         0          0          4.7782     -1827      11901      19425.67   60.9       15057      6636      
2387.2     1322       7.29       326        99         0          217.468    10767      14         0          0          4.7756     -1860      11902      19425.28   60.9       15057      6638      
2387.4     1322       7.25       326        74         0          217.479    10767      14         0          0          4.7777     -1860      11903      19424.88   60.902     15058      6633      
2387.6     1323       7.19       319        75         0          217.506    10768      14         0          0          4.7823     -1860      11903      19424.49   60.904     15058      6634      
2387.8     1324       7.16       301        96         0          217.528    10769      14         0          0          4.7831     -1828      11903      19424.1    60.904     15058      6643      
2388       1323       7.22       301        94         0          217.542    10770      14         0          0          4.7804     -1820      11903      19423.71   60.904     15058      6649      
