~Version
 VERS              .         2.0                           : CWLS LOG ASCII STANDARD - VERSION 2.0
 WRAP              .         NO                            : ONE LINE PER DEPTH STEP
 DLM               .         SPACE                         : DELIMITING CHARACTER(SPACE TAB OR COMMA)
~Well Information
#_______________________________________________________________________________
#
#PARAMETER_NAME    .UNIT     VALUE                         : DESCRIPTION
#_______________________________________________________________________________
STRT               .M        2647.6                        : First reference value
STOP               .M        2757.2                        : Last reference value
STEP               .M        0.1999997                     : Step increment
NULL               .         -9999                         : Missing value
COMP               .                                       : Company
WELL               .         616                           : Well name
FLD                .                                       : Field
LOC                .                                       : Location
CNTY               .                                       : County
STAT               .                                       : State
CTRY               .                                       : Country
SRVC               .                                       : Service Company
DATE               .                                       : Date
API                .                                       : API number
PROJECT_UPGRADE_TIME .         2021-03-18T21_24_50           : 
group              .         Good                          : 
~Parameter Information Block
#_______________________________________________________________________________
#
#PARAMETER_NAME    .UNIT     VALUE                         : DESCRIPTION
#_______________________________________________________________________________
SET                .         D7017_D                       : 
OTHER              .         Kedr.exe версия 2.1.2.32      : 
OTHER_10           .         TM.GRD = 0.00404*TM$.UE + 0.07: 
OTHER_11           .         MN.ATM = (6.33279e-006*TM.GRD + 0.02401)*(MN$.UE + 2.72*TM.GRD + -2018): 
OTHER_12           .         GK.MKR/H = GK$.UE / 43.5489 + 0: 
OTHER_13           .         RES.SM = 0.00476*CRES.UE - 1.51709: 
OTHER_14           .         PL.GSM3 = 0 + 0 * (PL.UE / 1) +  0 * (PL.UE / 1)^2: 
OTHER_15           .         Постоянная времени ГГП = 6 сек: 
OTHER_16           .         Постоянная времени ГК = 6 сек : 
OTHER_2            .         KedrData.dll версия 3.2.2.14  : 
OTHER_3            .         LasInf.dll версия 3.2.0.13    : 
OTHER_4            .         Драйвер версия 1.2.0.5        : 
OTHER_5            .         Прибор_ КСА-M1                : 
OTHER_6            .         Номер прибора_ 155+р204       : 
OTHER_7            .         Режим_ КСА-М1 + ГГП + Резистивиметр: 
OTHER_8            .         Форма_ 223\2                  : 
OTHER_9            .         Тарировки_                    : 
PROJECT_UPGRADE_TIME .         2021-03-18T21_24_50           : 
TLFamily_CRES      .                                       : 
TLFamily_DEPT      .         Measured Depth                : 
TLFamily_GK        .         Gamma Ray                     : 
TLFamily_GK$       .                                       : 
TLFamily_LM        .         Casing Collar locator         : 
TLFamily_METKA     .                                       : 
TLFamily_MN        .                                       : 
TLFamily_MN$       .                                       : 
TLFamily_PL        .                                       : 
TLFamily_PL_2      .                                       : 
TLFamily_RCOR      .                                       : 
TLFamily_RES       .         Mud Resistivity               : 
TLFamily_SPID      .         Spontaneous Potential         : 
TLFamily_STD       .                                       : 
TLFamily_TIME      .         Time                          : 
TLFamily_TM        .         Temperature                   : 
TLFamily_TM$       .         Temperature                   : 
TLFamily_VGD       .         Gas Volume                    : 
group              .         prim                          : 
~Curve Information
#_______________________________________________________________________________
#
#LOGNAME           .UNIT     LOG_ID                        : DESCRIPTION
#_______________________________________________________________________________
DEPT               .M                                      : 1 Глубина, м -    0.0 см 
CRES               .UE                                     : 9 Проводимость, усл.ед. -  222.0 см 
GK                 .MKR/H                                  : 16 Гамма-активность, мкр./ч -  106.0 см 
GK$                .UE                                     : 13 Гамма-активность, усл.ед. -  106.0 см 
LM                 .                                       : 11 Локатор муфт,  -   16.0 см 
METKA              .                                       : 3 Метки,  -    0.0 см 
MN                 .ATM                                    : 15 Давление, атм. -  160.0 см 
MN$                .UE                                     : 7 Давление, усл.ед. -  160.0 см 
PL                 .UE                                     : 10 Плотность, усл.ед. -  270.0 см 
PL_2               .GSM3                                   : 18 Плотность, г./см3 -  270.0 см 
RCOR               .CM/KM                                  : 5 Коррекция по ролику, см/км -    0.0 см 
RES                .SM                                     : 17 Проводимость,  -  222.0 см 
SPID               .M/H                                    : 2 Скорость, м/час -    0.0 см 
STD                .                                       : 12 Приток,  -  170.0 см 
TIME               .S                                      : 4 Время, сек -    0.0 см 
TM                 .GRD                                    : 14 Температура, °C -  180.0 см 
TM$                .UE                                     : 6 Температура, усл.ед. -  180.0 см 
VGD                .                                       : 8 Влагомер,  -  170.0 см 
~Ascii
# ...
2696.8     1214       10.93      487        107        0          248.117    12101      14         0          0          4.2615     -260       9099       8485.03    46.306     11445      6631      
2697       1213       10.58      464        119        0          248.132    12102      14         0          0          4.2584     -260       9095       8482.22    46.29      11441      6631      
2697.2     1214       10.56      451        117        0          248.179    12104      13         0          0          4.2615     -260       9090       8479.45    46.282     11438      6628      
2697.4     1214       11.09      456        95         0          248.177    12104      14         0          0          4.26       -255       9092       8476.7     46.267     11435      6630      
2697.6     1213       11.37      498        135        0          248.201    12105      13         0          0          4.2568     -280       9088       8473.88    46.259     11433      6630      
2697.8     1213       11.2       494        109        0          248.2      12105      14         0          0          4.2568     -260       9083       8471.11    46.255     11432      6629      
2698       1213       11.03      480        96         0          248.224    12106      14         0          0          4.2552     -260       9080       8468.24    46.247     11430      6629      
2698.2     1216       11.06      471        107        0          248.247    12107      14         0          0          4.2711     -260       9078       8465.47    46.243     11429      6631      
2698.4     1213       11.64      501        126        0          248.263    12108      14         0          0          4.2584     -260       9076       8462.73    46.234     11427      6631      
2698.6     1212       11.69      527        88         0          248.27     12108      13         0          0          4.252      -260       9077       8459.83    46.231     11426      6630      
2698.8     1214       10.87      497        85         0          248.307    12110      13         0          0          4.26       -260       9074       8457.07    46.227     11425      6631      
2699       1212       10.16      456        108        0          248.318    12110      14         0          0          4.2504     -320       9073       8454.19    46.225     11425      6631      
2699.2     1213       9.61       443        106        0          248.334    12111      14         0          0          4.2568     -260       9073       8451.43    46.221     11424      6631      
2699.4     1214       8.95       411        92         0          248.366    12112      14         0          0          4.26       -260       9072       8448.68    46.216     11422      6632      
2699.6     1212       9.37       393        103        0          248.389    12113      14         0          0          4.2505     -260       9070       8445.91    46.211     11421      6630      
2699.8     1210       10.47      413        108        1          248.387    12113      14         0          0          4.2425     -260       9069       8443.04    46.203     11419      6630      
2700       1207       12.87      527        103        0          248.412    12114      13         0          0          4.2282     -190       9064       8438.69    46.191     11416      6629      
2700.2     1212       14.47      650        101        0          248.451    12116      14         0          0          4.252      -260       9064       8435.95    46.191     11416      6631      
2700.4     1213       13.4       620        130        0          248.459    12116      13         0          0          4.2568     -260       9065       8433.19    46.187     11415      6630      
2700.6     1211       12.14      563        106        0          248.466    12116      14         0          0          4.2473     -260       9062       8430.29    46.183     11414      6628      
2700.8     1212       11.27      497        101        0          248.481    12117      14         0          0          4.2505     -260       9062       8427.54    46.176     11412      6631      
2701       1210       12.38      459        142        0          248.521    12119      14         0          0          4.2409     -260       9063       8424.72    46.166     11410      6629      
2701.2     1209       13.72      604        140        0          248.528    12119      15         0          0          4.2377     -300       9063       8421.9     46.162     11409      6630      
2701.4     1210       13.26      603        117        0          248.551    12120      13         0          0          4.2425     -277       9063       8419.14    46.153     11407      6632      
2701.6     1212       11.7       594        130        0          248.575    12121      14         0          0          4.252      -260       9061       8416.39    46.146     11405      6631      
2701.8     1209       9.2        501        146        0          248.599    12122      14         0          0          4.2378     -320       9060       8413.5     46.138     11403      6631      
2702       1212       7.38       325        442        0          248.624    12123      14         0          0          4.252      -320       9059       8410.75    46.138     11403      6630      
2702.2     1211       7.13       306        4555       0          248.648    12124      14         0          0          4.2489     -300       9059       8407.84    46.142     11404      6631      
2702.4     1206       7.4        317        827        0          248.672    12125      13         0          0          4.2219     -290       9058       8405.02    46.139     11403      6632      
2702.6     1209       7.66       325        111        0          248.672    12125      14         0          0          4.2394     -278       9057       8402.19    46.141     11404      6633      
2702.8     1209       7.92       347        94         0          248.695    12126      14         0          0          4.2376     -260       9055       8399.43    46.136     11402      6631      
2703       1210       8.05       337        140        0          248.702    12126      14         0          0          4.2441     -260       9052       8396.55    46.127     11400      6632      
2703.2     1211       8.95       340        145        0          248.717    12127      13         0          0          4.2457     -260       9048       8393.79    46.118     11398      6627      
2703.4     1210       11.67      406        110        0          248.741    12128      14         0          0          4.2425     -260       9047       8391.03    46.114     11397      6628      
2703.6     1211       14.99      653        103        0          248.766    12129      14         0          0          4.2473     -260       9044       8388.14    46.106     11395      6628      
2703.8     1209       14.89      678        131        0          248.789    12130      14         0          0          4.2378     -260       9043       8385.39    46.11      11396      6627      
2704       1206       13.28      614        126        0          248.801    12131      13         0          0          4.2219     -260       9042       8382.64    46.106     11395      6628      
2704.2     1209       11.58      552        99         0          248.812    12131      13         0          0          4.2354     -260       9041       8379.74    46.104     11394      6628      
2704.4     1210       9.92       454        109        0          248.836    12132      13         0          0          4.2425     -260       9041       8376.99    46.095     11392      6629      
2704.6     1202       9.54       411        109        0          248.859    12133      13         0          0          4.206      -232       9041       8374.23    46.09      11391      6630      
2704.8     1197       9.82       413        89         0          248.884    12134      13         0          0          4.181      -280       9042       8371.47    46.082     11389      6632      
