~Version
 VERS              .         2.0                           : CWLS LOG ASCII STANDARD - VERSION 2.0
 WRAP              .         NO                            : ONE LINE PER DEPTH STEP
 DLM               .         SPACE                         : DELIMITING CHARACTER(SPACE TAB OR COMMA)
~Well Information
#_______________________________________________________________________________
#
#PARAMETER_NAME    .UNIT     VALUE                         : DESCRIPTION
#_______________________________________________________________________________
STRT               .M        2648.8                        : First reference value
STOP               .M        2754.8                        : Last reference value
STEP               .M        0.2                           : Step increment
NULL               .         -9999                         : Missing value
COMP               .                                       : Company
WELL               .         616                           : Well name
FLD                .                                       : Field
LOC                .                                       : Location
CNTY               .                                       : County
STAT               .                                       : State
CTRY               .                                       : Country
SRVC               .                                       : Service Company
DATE               .                                       : Date
API                .                                       : API number
PROJECT_UPGRADE_TIME .         2021-03-18T21_24_50           : 
group              .         Good                          : 
~Parameter Information Block
#_______________________________________________________________________________
#
#PARAMETER_NAME    .UNIT     VALUE                         : DESCRIPTION
#_______________________________________________________________________________
SET                .         D7019_D                       : 
OTHER              .         Kedr.exe версия 2.1.2.32      : 
OTHER_10           .         TM.GRD = 0.00404*TM$.UE + 0.07: 
OTHER_11           .         MN.ATM = (6.33279e-006*TM.GRD + 0.02401)*(MN$.UE + 2.72*TM.GRD + -2018): 
OTHER_12           .         GK.MKR/H = GK$.UE / 43.5489 + 0: 
OTHER_13           .         RES.SM = 0.00476*CRES.UE - 1.51709: 
OTHER_14           .         PL.GSM3 = 0 + 0 * (PL.UE / 1) +  0 * (PL.UE / 1)^2: 
OTHER_15           .         Постоянная времени ГГП = 6 сек: 
OTHER_16           .         Постоянная времени ГК = 6 сек : 
OTHER_2            .         KedrData.dll версия 3.2.2.14  : 
OTHER_3            .         LasInf.dll версия 3.2.0.13    : 
OTHER_4            .         Драйвер версия 1.2.0.5        : 
OTHER_5            .         Прибор_ КСА-M1                : 
OTHER_6            .         Номер прибора_ 155+р204       : 
OTHER_7            .         Режим_ КСА-М1 + ГГП + Резистивиметр: 
OTHER_8            .         Форма_ 223\2                  : 
OTHER_9            .         Тарировки_                    : 
PROJECT_UPGRADE_TIME .         2021-03-18T21_24_50           : 
TLFamily_CRES      .                                       : 
TLFamily_DEPT      .         Measured Depth                : 
TLFamily_GK        .         Gamma Ray                     : 
TLFamily_GK$       .                                       : 
TLFamily_LM        .         Casing Collar locator         : 
TLFamily_METKA     .                                       : 
TLFamily_MN        .                                       : 
TLFamily_MN$       .                                       : 
TLFamily_PL        .                                       : 
TLFamily_PL_2      .                                       : 
TLFamily_RCOR      .                                       : 
TLFamily_RES       .         Mud Resistivity               : 
TLFamily_SPID      .         Spontaneous Potential         : 
TLFamily_STD       .                                       : 
TLFamily_TIME      .         Time                          : 
TLFamily_TM        .         Temperature                   : 
TLFamily_TM$       .         Temperature                   : 
TLFamily_VGD       .         Gas Volume                    : 
group              .         prim                          : 
~Curve Information
#_______________________________________________________________________________
#
#LOGNAME           .UNIT     LOG_ID                        : DESCRIPTION
#_______________________________________________________________________________
DEPT               .M                                      : 1 Глубина, м -    0.0 см 
CRES               .UE                                     : 9 Проводимость, усл.ед. -  222.0 см 
GK                 .MKR/H                                  : 16 Гамма-активность, мкр./ч -  106.0 см 
GK$                .UE                                     : 13 Гамма-активность, усл.ед. -  106.0 см 
LM                 .                                       : 11 Локатор муфт,  -   16.0 см 
METKA              .                                       : 3 Метки,  -    0.0 см 
MN                 .ATM                                    : 15 Давление, атм. -  160.0 см 
MN$                .UE                                     : 7 Давление, усл.ед. -  160.0 см 
PL                 .UE                                     : 10 Плотность, усл.ед. -  270.0 см 
PL_2               .GSM3                                   : 18 Плотность, г./см3 -  270.0 см 
RCOR               .CM/KM                                  : 5 Коррекция по ролику, см/км -    0.0 см 
RES                .SM                                     : 17 Проводимость,  -  222.0 см 
SPID               .M/H                                    : 2 Скорость, м/час -    0.0 см 
STD                .                                       : 12 Приток,  -  170.0 см 
TIME               .S                                      : 4 Время, сек -    0.0 см 
TM                 .GRD                                    : 14 Температура, °C -  180.0 см 
TM$                .UE                                     : 6 Температура, усл.ед. -  180.0 см 
VGD                .                                       : 8 Влагомер,  -  170.0 см 
~Ascii
# ...
2657       1262       7.82       344        104        0          244.09     11920      13         0          0          4.4877     580        9649       10320.28   49.237     12170      6649      
2657.2     1261       7.86       344        239        0          244.114    11921      14         0          0          4.4853     580        9646       10321.56   49.226     12167      6649      
2657.4     1262       8.13       367        187        0          244.136    11922      13         0          0          4.4884     580        9645       10322.86   49.221     12166      6649      
2657.6     1261       8.28       367        222        0          244.134    11922      14         0          0          4.4837     569        9642       10324.18   49.203     12162      6649      
2657.8     1260       8.03       334        134        0          244.176    11924      14         0          0          4.4805     580        9639       10325.45   49.183     12157      6649      
2658       1259       7.85       334        135        0          244.179    11924      14         0          0          4.4758     510        9637       10326.76   49.169     12153      6650      
2658.2     1259       8.12       366        102        0          244.177    11924      14         0          0          4.4767     557        9631       10328.08   49.155     12150      6650      
2658.4     1259       8.32       379        85         0          244.215    11926      14         0          0          4.4781     580        9630       10329.39   49.14      12146      6650      
2658.6     1260       8.67       393        88         0          244.221    11926      14         0          0          4.4805     580        9626       10330.66   49.124     12142      6650      
2658.8     1259       8.84       393        133        0          244.219    11926      13         0          0          4.4757     545        9622       10331.98   49.108     12138      6650      
2659       1259       8.98       397        96         0          244.242    11927      15         0          0          4.4757     530        9618       10333.24   49.095     12135      6650      
2659.2     1258       8.96       377        102        0          244.26     11928      14         0          0          4.4726     580        9617       10334.56   49.079     12131      6646      
2659.4     1256       8.69       367        4214       0          244.263    11928      13         0          0          4.4635     580        9614       10335.83   49.064     12127      6648      
2659.6     1257       8.41       335        5873       0          244.325    11931      13         0          0          4.4679     550        9610       10337.14   49.059     12126      6646      
2659.8     1258       8.05       335        3428       0          244.315    11930      13         0          0          4.471      580        9607       10338.48   49.035     12120      6646      
2660       1259       7.79       323        2872       0          244.33     11931      14         0          0          4.4757     580        9604       10339.75   49.02      12116      6651      
2660.2     1257       7.61       323        1509       1          244.353    11932      14         0          0          4.4662     580        9600       10341.73   49.011     12114      6652      
2660.4     1258       7.65       351        1376       0          244.351    11932      14         0          0          4.4726     510        9597       10343.05   48.997     12111      6649      
2660.6     1258       7.86       351        2278       0          244.373    11933      14         0          0          4.4726     580        9596       10344.34   48.982     12107      6651      
2660.8     1258       8.14       376        2707       0          244.395    11934      13         0          0          4.471      560        9593       10345.6    48.967     12103      6652      
2661       1258       8.38       376        2727       0          244.397    11934      13         0          0          4.4694     580        9591       10346.99   48.946     12098      6652      
2661.2     1258       8.73       390        1353       0          244.43     11936      14         0          0          4.469      510        9587       10348.32   48.933     12095      6648      
2661.4     1256       8.91       407        1839       0          244.475    11937      14         0          0          4.4615     522        9583       10349.64   48.924     12093      6652      
2661.6     1257       9.5        441        1098       0          244.462    11937      13         0          0          4.4655     580        9580       10350.94   48.91      12089      6651      
2661.8     1256       9.84       446        373        0          244.483    11938      14         0          0          4.4608     580        9576       10352.22   48.901     12087      6650      
2662       1255       10.05      447        3632       0          244.485    11938      13         0          0          4.4591     545        9574       10353.49   48.881     12082      6651      
2662.2     1255       10.01      422        1820       0          244.528    11940      13         0          0          4.4551     522        9572       10354.82   48.866     12078      6649      
2662.4     1254       9.85       422        1128       0          244.544    11941      13         0          0          4.452      568        9569       10356.14   48.853     12075      6651      
2662.6     1254       9.48       385        401        0          244.554    11941      14         0          0          4.452      580        9566       10357.43   48.839     12072      6652      
2662.8     1254       9.16       385        135        0          244.572    11942      13         0          0          4.452      580        9564       10358.71   48.827     12069      6652      
2663       1253       8.73       341        103        0          244.594    11943      13         0          0          4.4472     570        9561       10359.98   48.811     12065      6653      
2663.2     1253       8.28       341        76         0          244.596    11943      15         0          0          4.448      522        9558       10361.29   48.797     12061      6652      
2663.4     1253       7.82       313        93         0          244.607    11944      15         0          0          4.4472     545        9556       10362.6    48.784     12058      6651      
2663.6     1253       7.51       313        97         0          244.626    11945      13         0          0          4.4472     521        9553       10363.94   48.775     12056      6653      
2663.8     1253       7.12       289        71         0          244.64     11945      13         0          0          4.4472     568        9549       10365.25   48.764     12053      6652      
2664       1252       6.88       289        106        0          244.663    11946      13         0          0          4.4424     580        9547       10366.5    48.744     12048      6652      
2664.2     1253       6.54       262        129        0          244.681    11947      14         0          0          4.4464     557        9545       10367.83   48.738     12046      6654      
2664.4     1253       6.28       262        87         0          244.704    11948      14         0          0          4.4448     580        9541       10369.15   48.72      12042      6652      
2664.6     1251       5.91       239        3080       0          244.701    11948      14         0          0          4.4377     580        9539       10370.41   48.709     12039      6653      
2664.8     1251       5.73       245        2007       0          244.747    11950      14         0          0          4.4377     580        9536       10371.67   48.687     12034      6653      
2665       1251       6.02       276        526        0          244.757    11951      14         0          0          4.4361     557        9531       10372.99   48.662     12028      6651      
