~Version
 VERS              .         2.0                           : CWLS LOG ASCII STANDARD - VERSION 2.0
 WRAP              .         NO                            : ONE LINE PER DEPTH STEP
 DLM               .         SPACE                         : DELIMITING CHARACTER(SPACE TAB OR COMMA)
~Well Information
#_______________________________________________________________________________
#
#PARAMETER_NAME    .UNIT     VALUE                         : DESCRIPTION
#_______________________________________________________________________________
STRT               .M        2648.2                        : First reference value
STOP               .M        2758.600166                   : Last reference value
STEP               .M        0.2000003                     : Step increment
NULL               .         -9999                         : Missing value
COMP               .                                       : Company
WELL               .         616                           : Well name
FLD                .                                       : Field
LOC                .                                       : Location
CNTY               .                                       : County
STAT               .                                       : State
CTRY               .                                       : Country
SRVC               .                                       : Service Company
DATE               .                                       : Date
API                .                                       : API number
PROJECT_UPGRADE_TIME .         2021-03-18T21_24_50           : 
group              .         Good                          : 
~Parameter Information Block
#_______________________________________________________________________________
#
#PARAMETER_NAME    .UNIT     VALUE                         : DESCRIPTION
#_______________________________________________________________________________
SET                .         D7020_D                       : 
OTHER              .         Kedr.exe версия 2.1.2.32      : 
OTHER_10           .         TM.GRD = 0.00404*TM$.UE + 0.07: 
OTHER_11           .         MN.ATM = (6.33279e-006*TM.GRD + 0.02401)*(MN$.UE + 2.72*TM.GRD + -2018): 
OTHER_12           .         GK.MKR/H = GK$.UE / 43.5489 + 0: 
OTHER_13           .         RES.SM = 0.00476*CRES.UE - 1.51709: 
OTHER_14           .         PL.GSM3 = 0 + 0 * (PL.UE / 1) +  0 * (PL.UE / 1)^2: 
OTHER_15           .         Постоянная времени ГГП = 6 сек: 
OTHER_16           .         Постоянная времени ГК = 6 сек : 
OTHER_2            .         KedrData.dll версия 3.2.2.14  : 
OTHER_3            .         LasInf.dll версия 3.2.0.13    : 
OTHER_4            .         Драйвер версия 1.2.0.5        : 
OTHER_5            .         Прибор_ КСА-M1                : 
OTHER_6            .         Номер прибора_ 155+р204       : 
OTHER_7            .         Режим_ КСА-М1 + ГГП + Резистивиметр: 
OTHER_8            .         Форма_ 223\2                  : 
OTHER_9            .         Тарировки_                    : 
PROJECT_UPGRADE_TIME .         2021-03-18T21_24_50           : 
TLFamily_CRES      .                                       : 
TLFamily_DEPT      .         Measured Depth                : 
TLFamily_GK        .         Gamma Ray                     : 
TLFamily_GK$       .                                       : 
TLFamily_LM        .         Casing Collar locator         : 
TLFamily_METKA     .                                       : 
TLFamily_MN        .                                       : 
TLFamily_MN$       .                                       : 
TLFamily_PL        .                                       : 
TLFamily_PL_2      .                                       : 
TLFamily_RCOR      .                                       : 
TLFamily_RES       .         Mud Resistivity               : 
TLFamily_SPID      .         Spontaneous Potential         : 
TLFamily_STD       .                                       : 
TLFamily_TIME      .         Time                          : 
TLFamily_TM        .         Temperature                   : 
TLFamily_TM$       .         Temperature                   : 
TLFamily_VGD       .         Gas Volume                    : 
group              .         prim                          : 
~Curve Information
#_______________________________________________________________________________
#
#LOGNAME           .UNIT     LOG_ID                        : DESCRIPTION
#_______________________________________________________________________________
DEPT               .M                                      : 1 Глубина, м -    0.0 см 
CRES               .UE                                     : 9 Проводимость, усл.ед. -  222.0 см 
GK                 .MKR/H                                  : 16 Гамма-активность, мкр./ч -  106.0 см 
GK$                .UE                                     : 13 Гамма-активность, усл.ед. -  106.0 см 
LM                 .                                       : 11 Локатор муфт,  -   16.0 см 
METKA              .                                       : 3 Метки,  -    0.0 см 
MN                 .ATM                                    : 15 Давление, атм. -  160.0 см 
MN$                .UE                                     : 7 Давление, усл.ед. -  160.0 см 
PL                 .UE                                     : 10 Плотность, усл.ед. -  270.0 см 
PL_2               .GSM3                                   : 18 Плотность, г./см3 -  270.0 см 
RCOR               .CM/KM                                  : 5 Коррекция по ролику, см/км -    0.0 см 
RES                .SM                                     : 17 Проводимость,  -  222.0 см 
SPID               .M/H                                    : 2 Скорость, м/час -    0.0 см 
STD                .                                       : 12 Приток,  -  170.0 см 
TIME               .S                                      : 4 Время, сек -    0.0 см 
TM                 .GRD                                    : 14 Температура, °C -  180.0 см 
TM$                .UE                                     : 6 Температура, усл.ед. -  180.0 см 
VGD                .                                       : 8 Влагомер,  -  170.0 см 
~Ascii
# ...
2738.400135 1343       10.83      470        81         0          252.307    12255      13         0          0          4.8756     580        9770       11754.96   49.726     12291      6642      
2738.600136 1349       10.81      470        165        0          252.352    12256      14         0          0          4.9042     522        9784       11756.27   49.807     12311      6643      
2738.800136 1349       10.64      455        160        0          252.393    12257      13         0          0          4.905      580        9802       11757.53   49.907     12336      6647      
2739.000136 1353       10.53      452        95         0          252.445    12258      14         0          0          4.9216     557        9821       11758.85   50.002     12359      6642      
2739.200136 1353       10.4       447        72         0          252.481    12259      14         0          0          4.9248     580        9841       11760.17   50.152     12397      6644      
2739.400137 1355       10.31      441        90         0          252.498    12259      14         0          0          4.9327     557        9867       11761.49   50.33      12441      6643      
2739.600137 1357       10.21      440        72         0          252.542    12260      14         0          0          4.943      580        9889       11762.76   50.461     12473      6643      
2739.800137 1361       10.16      441        69         0          252.572    12261      14         0          0          4.9613     560        9910       11764.02   50.604     12508      6643      
2740.000138 1365       10.17      443        81         0          252.604    12261      14         0          0          4.9789     510        9929       11765.32   50.713     12535      6643      
2740.200138 1365       10.33      479        82         1          252.642    12262      14         0          0          4.9803     580        9948       11767.3    50.86      12572      6639      
2740.400138 1368       10.65      479        74         0          252.681    12263      15         0          0          4.993      580        9975       11768.57   51         12607      6644      
2740.600139 1369       10.7       458        89         0          252.678    12262      13         0          0          5.0017     545        9997       11769.89   51.11      12634      6640      
2740.800139 1373       10.61      458        111        0          252.712    12263      14         0          0          5.0176     522        10022      11771.2    51.206     12657      6639      
2741.000139 1375       10.59      461        85         0          252.763    12264      14         0          0          5.0279     580        10051      11772.47   51.346     12692      6636      
2741.200139 1380       10.59      461        67         0          252.8      12265      13         0          0          5.0501     522        10078      11773.72   51.482     12726      6634      
2741.40014 1381       10.87      487        48         0          252.844    12266      13         0          0          5.0581     580        10104      11775.03   51.639     12765      6632      
2741.60014 1385       10.98      477        55         0          252.884    12267      14         0          0          5.0755     524        10129      11776.34   51.786     12801      6636      
2741.80014 1386       10.85      467        53         0          252.905    12267      14         0          0          5.0811     510        10161      11777.62   51.911     12832      6636      
2742.000141 1390       10.61      425        65         0          252.973    12269      14         0          0          5.0993     580        10186      11778.86   52.069     12871      6634      
2742.200141 1393       10.19      425        67         0          253.009    12270      14         0          0          5.1122     533        10210      11780.11   52.215     12907      6634      
2742.400141 1398       9.98       426        75         0          253.048    12270      15         0          0          5.139      580        10238      11781.45   52.396     12952      6633      
2742.600142 1400       9.9        427        57         0          253.094    12271      14         0          0          5.1477     520        10268      11782.71   52.597     13002      6632      
2742.800142 1403       10.02      467        84         0          253.117    12271      14         0          0          5.162      580        10298      11784.01   52.76      13042      6633      
2743.000142 1405       10.36      467        94         0          253.134    12271      14         0          0          5.1731     580        10331      11785.28   52.933     13085      6631      
2743.200142 1408       10.67      490        77         0          253.199    12273      14         0          0          5.185      575        10363      11786.53   53.061     13117      6631      
2743.400143 1410       10.96      490        70         0          253.223    12273      14         0          0          5.1938     566        10393      11787.83   53.227     13158      6630      
2743.600143 1414       11.17      506        70         0          253.267    12274      14         0          0          5.2144     580        10421      11789.11   53.374     13194      6631      
2743.800143 1414       11.38      506        65         0          253.293    12274      14         0          0          5.2155     580        10448      11790.36   53.521     13231      6628      
2744.000144 1419       11.44      496        67         0          253.321    12275      15         0          0          5.2389     580        10473      11791.65   53.655     13264      6630      
2744.200144 1422       11.42      496        63         0          253.369    12276      15         0          0          5.2516     580        10499      11792.94   53.807     13301      6630      
2744.400144 1427       11.4       495        64         0          253.377    12275      13         0          0          5.2754     580        10526      11794.2    53.945     13335      6632      
2744.600145 1429       11.38      495        87         0          253.423    12276      13         0          0          5.2866     580        10553      11795.51   54.108     13376      6630      
2744.800145 1433       11.28      477        72         0          253.484    12278      14         0          0          5.304      510        10583      11796.78   54.268     13415      6629      
2745.000145 1435       11.12      477        63         0          253.504    12278      13         0          0          5.3126     580        10611      11798.09   54.424     13454      6628      
2745.200145 1436       10.71      429        45         0          253.524    12278      14         0          0          5.3183     580        10641      11799.35   54.571     13490      6631      
2745.400146 1443       10.28      429        50         0          253.564    12279      14         0          0          5.3524     580        10673      11800.67   54.727     13529      6631      
2745.600146 1445       9.82       398        74         0          253.602    12279      14         0          0          5.3592     580        10700      11801.96   54.877     13566      6629      
2745.800146 1447       9.49       398        76         0          253.675    12281      14         0          0          5.3691     580        10730      11803.24   55.055     13610      6630      
2746.000147 1447       8.92       358        78         0          253.685    12281      14         0          0          5.3713     580        10762      11804.49   55.255     13660      6626      
2746.200147 1451       8.57       358        87         0          253.709    12281      14         0          0          5.3897     580        10795      11805.76   55.392     13694      6629      
2746.400147 1452       8.47       366        121        0          253.749    12282      14         0          0          5.3928     580        10835      11807.05   55.539     13730      6629      
