~Version
 VERS              .         2.0                           : CWLS LOG ASCII STANDARD - VERSION 2.0
 WRAP              .         NO                            : ONE LINE PER DEPTH STEP
 DLM               .         SPACE                         : DELIMITING CHARACTER(SPACE TAB OR COMMA)
~Well Information
#_______________________________________________________________________________
#
#PARAMETER_NAME    .UNIT     VALUE                         : DESCRIPTION
#_______________________________________________________________________________
STRT               .M        5.8                           : First reference value
STOP               .M        2774.6                        : Last reference value
STEP               .M        0.2                           : Step increment
NULL               .         -9999                         : Missing value
COMP               .                                       : Company
WELL               .         616                           : Well name
FLD                .                                       : Field
LOC                .                                       : Location
CNTY               .                                       : County
STAT               .                                       : State
CTRY               .                                       : Country
SRVC               .                                       : Service Company
DATE               .                                       : Date
API                .                                       : API number
PROJECT_UPGRADE_TIME .         2021-03-18T21_24_50           : 
group              .         Good                          : 
~Parameter Information Block
#_______________________________________________________________________________
#
#PARAMETER_NAME    .UNIT     VALUE                         : DESCRIPTION
#_______________________________________________________________________________
SET                .         D1747_D                       : 
OTHER              .         Программное обеспечение станции MONITOR-386EX 25/12/99 15_08_10   BGF V52 22/08/01 16_56_30   3.1_SNGF___BGF_N_111239: 
OTHER_10           .         Тарировки_                    : 
OTHER_11           .         <_techsia_sc_> Постоянная времени фильтра ГК  3.0 сек, kf=0.016529: 
OTHER_12           .         <_techsia_sc_> Постоянная времени фильтра ННК  3.0 сек, kf=0.016529: 
OTHER_13           .         GK.MKR/H = GK$.IMP/476        : 
OTHER_14           .         WSAT.PERC = -12.5 + 78.0 * (NKT2$.IMP / NKT1$.IMP) * 1731/33716: 
OTHER_15           .         NKT2.PRIV = NKT2$.IMP/33716   : 
OTHER_16           .         NKT1.PRIV = NKT1$.IMP/1731    : 
OTHER_2            .         Kedr.exe версия 3.3.2.32      : 
OTHER_3            .         KedrData.dll версия 3.3.2.17  : 
OTHER_4            .         Драйвер версия 2.1.1.9        : 
OTHER_5            .         Мнемоники версия 3.2 S        : 
OTHER_6            .         Прибор_ СРК-73Ц-1N            : 
OTHER_7            .         Номер прибора_ 906            : 
OTHER_8            .         Режим_ с локатором            : 
OTHER_9            .         Форма_ 623-1                  : 
PROJECT_UPGRADE_TIME .         2021-03-18T21_24_49           : 
TLFamily_DEPT      .         Measured Depth                : 
TLFamily_GK        .         Gamma Ray                     : 
TLFamily_GK$       .                                       : 
TLFamily_LM        .         Casing Collar locator         : 
TLFamily_METKA     .                                       : 
TLFamily_NKT1      .         Neutron Far                   : 
TLFamily_NKT1$     .         Neutron Far                   : 
TLFamily_NKT2      .         Neutron Near                  : 
TLFamily_NKT2$     .         Neutron Near                  : 
TLFamily_RCOR      .                                       : 
TLFamily_SPID      .         Spontaneous Potential         : 
TLFamily_TENS      .         Cable Tension                 : 
TLFamily_TIME      .         Time                          : 
TLFamily_WSAT      .         Neutron Porosity              : 
group              .         prim                          : 
~Curve Information
#_______________________________________________________________________________
#
#LOGNAME           .UNIT     LOG_ID                        : DESCRIPTION
#_______________________________________________________________________________
DEPT               .M                                      : 1 Глубина, м -    0.0 см 
GK                 .MKR/H                                  : 11 Гамма-активность, мкр./ч -   97.0 см 
GK$                .IMP                                    : 9 Гамма-активность, имп/мин -   97.0 см 
LM                 .                                       : 10 Локатор муфт,  -   27.0 см 
METKA              .                                       : 3 Метки,  -    0.0 см 
NKT1               .PRIV                                   : 14 Большой зонд приведенный,  -  278.0 см 
NKT1$              .IMP                                    : 8 Большой зонд, имп/мин -  278.0 см 
NKT2               .PRIV                                   : 13 Малый зонд приведенный,  -  289.0 см 
NKT2$              .IMP                                    : 7 Малый зонд, имп/мин -  289.0 см 
RCOR               .CM/KM                                  : 5 Коррекция по ролику, см/км -    0.0 см 
SPID               .M/H                                    : 2 Скорость, м/час -    0.0 см 
TENS               .T                                      : 6 Натяжение кабеля, т -    0.0 см 
TIME               .S                                      : 4 Время, сек -    0.0 см 
WSAT               .PERC                                   : 12 Водонасыщенная пористость, % -  284.0 см 
~Ascii
# ...
193        2.81       1339       33         0          0.65       1125.28    0.6        20390.35   -455       -699       0          28965.74   24.9      
193.2      2.76       1315       59         0          0.62       1068.37    0.61       20652.76   -455       -709       0          28964.69   26.72     
193.4      2.68       1276       71         0          0.58       1010.11    0.62       20819.78   -455       -700       0          28963.69   25.77     
193.6      2.83       1349       40         0          0.62       1078.81    0.61       20631.95   -455       -695       0          28962.69   26.17     
193.8      2.98       1419       66         0          0.61       1051.77    0.63       21237.85   -455       -642       0          28961.66   26.5      
194        2.85       1359       65         0          0.63       1091.59    0.63       21138.17   -455       -700       0          28960.58   26.09     
194.2      2.8        1332       10         0          0.57       988.37     0.61       20449.21   -455       -699       0          28959.52   22.03     
194.4      2.74       1305       41         0          0.6        1033.82    0.61       20566.18   -455       -689       0          28958.47   24.39     
194.6      2.39       1138       38         0          0.56       977.11     0.6        20229.63   -455       -700       0          28957.44   23.33     
194.8      2.21       1050       34         0          0.56       975.67     0.63       21124.59   -455       -700       0          28956.42   24.12     
195        2.1        1001       41         0          0.56       969.87     0.62       21003.4    -455       -695       0          28955.39   21.48     
195.2      2.1        1001       66         0          0.54       930.99     0.62       20751.68   -455       -768       0          28954.37   21.92     
195.4      2.17       1031       33         0          0.55       950.63     0.62       21069.52   -455       -700       0          28953.38   23.44     
195.6      2.21       1053       38         0          0.59       1026.43    0.62       21045.7    -455       -700       0          28952.34   22.32     
195.8      2.28       1085       40         0          0.6        1046.63    0.63       21200.33   -455       -700       0          28951.32   22.78     
196        2.26       1078       32         0          0.59       1017.38    0.63       21086.38   -455       -595       0          28950.31   21.86     
196.2      2.38       1135       74         0          0.61       1055.01    0.62       20880.94   -455       -700       0          28949.21   23.55     
196.4      2.15       1022       49         0          0.63       1085.77    0.61       20670.42   -455       -700       0          28948.18   24.18     
196.6      2.24       1064       56         0          0.55       952.77     0.61       20617.05   -455       -700       0          28947.15   22.25     
196.8      2          952        38         0          0.52       893.04     0.61       20421.2    -455       -700       0          28946.1    20.24     
197        2.19       1043       53         0          0.51       888.7      0.6        20304.16   -455       -672       0          28945.1    18.96     
197.2      2.41       1149       45         0          0.52       896.87     0.59       20054.69   -455       -700       0          28944.05   20.1      
197.4      2.33       1108       70         0          0.6        1036.91    0.61       20405.77   -455       -700       0          28943      20.55     
197.6      2.51       1194       58         0          0.65       1119.04    0.61       20477.29   -455       -643       0          28942      22.7      
197.8      2.38       1133       19         0          0.68       1173.66    0.6        20155.13   -455       -700       0          28940.95   19.71     
198        2.37       1130       28         0          0.74       1283.93    0.61       20400.71   -455       -699       0          28939.92   21.42     
198.2      2.56       1220       62         0          0.7        1207.16    0.61       20447.92   -455       -676       0          28938.92   21.6      
198.4      2.4        1141       57         0          0.74       1280.44    0.62       20771.64   -455       -725       0          28937.87   23.18     
198.6      2.45       1166       31         0          0.73       1255.18    0.62       20774.89   -455       -693       0          28936.84   22.29     
198.8      2.37       1128       65         0          0.74       1276.96    0.62       20813.51   -455       -700       0          28935.84   23.46     
199        2.5        1189       32         0          0.65       1118.75    0.6        20312.49   -455       -700       0          28934.79   20.77     
199.2      2.85       1354       49         0          0.55       954.23     0.6        20232.33   -455       -700       0          28933.74   18.64     
199.4      2.77       1320       59         0          0.53       916.18     0.59       19906.59   -455       -700       0          28932.73   17        
199.6      2.52       1199       7          0          0.58       998.78     0.6        20149.46   -455       -657       0          28931.71   19.44     
199.8      2.57       1222       21         1          0.56       961.14     0.6        20061.74   -455       -700       0          28930.68   20.39     
200        2.71       1288       44         0          0.61       1048.01    0.6        20277.86   -455       -700       0          28929.68   21.37     
200.2      2.64       1257       47         0          0.64       1104.33    0.62       20767.95   -456       -698       0          28928.68   23.44     
200.4      2.45       1165       35         0          0.56       969.61     0.62       20770.01   -456       -700       0          28927.63   22.18     
200.6      2.33       1111       1093       0          0.5        869.42     0.6        20248.85   -456       -700       0          28926.52   17.58     
200.8      2.3        1097       472        0          0.47       807.4      0.58       19581.29   -456       -700       0          28925.46   16.89     
201        2.31       1097       66         0          0.48       833.89     0.59       19926.92   -456       -700       0          28924.46   18.7      
201.2      2.44       1160       70         0          0.47       810.96     0.6        20119.63   -456       -700       0          28923.46   18.33     
201.4      2.33       1110       76         0          0.48       838.87     0.58       19668.16   -456       -700       0          28922.46   17.94     
201.6      2.49       1183       96         0          0.52       899.89     0.59       20018.91   -456       -700       0          28921.46   18.4      
201.8      2.48       1179       58         0          0.56       967.7      0.58       19465.79   -456       -700       0          28920.43   20.11     
202        2.47       1174       88         0          0.57       992.41     0.59       19818.57   -456       -683       0          28919.38   20.08     
202.2      2.4        1140       56         0          0.62       1068.06    0.59       19959.32   -456       -700       0          28918.33   20.68     
202.4      2.38       1132       58         0          0.55       960.65     0.6        20226.73   -456       -700       0          28917.3    19.89     
202.6      2.41       1148       47         0          0.59       1020.19    0.6        20333.13   -456       -643       0          28916.25   19.39     
202.8      2.36       1126       63         0          0.56       974.2      0.6        20370.53   -456       -699       0          28915.22   19.25     
203        2.27       1081       146        0          0.57       983        0.6        20389.68   -456       -694       0          28914.2    18.45     
203.2      2.25       1069       65         0          0.51       884.98     0.6        20074.23   -456       -700       0          28913.14   20.27     
