~Version
 VERS              .         2.0                           : CWLS LOG ASCII STANDARD - VERSION 2.0
 WRAP              .         NO                            : ONE LINE PER DEPTH STEP
 DLM               .         SPACE                         : DELIMITING CHARACTER(SPACE TAB OR COMMA)
~Well Information
#_______________________________________________________________________________
#
#PARAMETER_NAME    .UNIT     VALUE                         : DESCRIPTION
#_______________________________________________________________________________
STRT               .M        2338.9                        : First reference value
STOP               .M        2799.2                        : Last reference value
STEP               .M        0.1                           : Step increment
NULL               .         -9999                         : Missing value
COMP               .                                       : Company
WELL               .         616                           : Well name
FLD                .                                       : Field
LOC                .                                       : Location
CNTY               .                                       : County
STAT               .                                       : State
CTRY               .                                       : Country
SRVC               .                                       : Service Company
DATE               .                                       : Date
API                .                                       : API number
PROJECT_UPGRADE_TIME .         2021-03-18T21_24_50           : 
group              .         Good                          : 
~Parameter Information Block
#_______________________________________________________________________________
#
#PARAMETER_NAME    .UNIT     VALUE                         : DESCRIPTION
#_______________________________________________________________________________
SET                .         D2662_D                       : 
OTHER              .         Программное обеспечение станции MONITOR-386EX 25/12/99 15_08_10   BGF V50 26/12/00 07_26_01   3.1_SNGF___BGF_N_092085: 
OTHER_10           .         Тарировки_                    : 
OTHER_11           .         IK1.GRD = IK1$.UE - -5.96     : 
OTHER_12           .         IK5.GRD = IK5$.UE - -0.74     : 
OTHER_13           .         IK4.GRD = IK4$.UE - -0.9      : 
OTHER_14           .         IK3.GRD = IK3$.UE - -1.28     : 
OTHER_15           .         IK2.GRD = IK2$.UE - -3.55     : 
OTHER_2            .         Kedr.exe версия 3.3.2.32      : 
OTHER_3            .         KedrData.dll версия 3.3.2.17  : 
OTHER_4            .         Драйвер версия 2.1.0.4        : 
OTHER_5            .         Мнемоники версия 3.3 S        : 
OTHER_6            .         Прибор_ Викиз                 : 
OTHER_7            .         Номер прибора_ 0006012        : 
OTHER_8            .         Режим_ Викиз                  : 
OTHER_9            .         Форма_ ВИКИЗ                  : 
PROJECT_UPGRADE_TIME .         2021-03-18T21_24_49           : 
TLFamily_DEPT      .         Measured Depth                : 
TLFamily_IK1       .         Extra Shallow Resistivity     : 
TLFamily_IK1$      .         Extra Shallow Resistivity     : 
TLFamily_IK2       .         Shallow Resistivity           : 
TLFamily_IK2$      .         Shallow Resistivity           : 
TLFamily_IK3       .         Medium Resistivity            : 
TLFamily_IK3$      .         Medium Resistivity            : 
TLFamily_IK4       .         Deep Resistivity              : 
TLFamily_IK4$      .         Deep Resistivity              : 
TLFamily_IK5       .         Resistivity 20                : 
TLFamily_IK5$      .         Resistivity 20                : 
TLFamily_METKA     .                                       : 
TLFamily_PS        .         Spontaneous Potential         : 
TLFamily_RCOR      .                                       : 
TLFamily_SPID      .         Spontaneous Potential         : 
TLFamily_TENS      .         Cable Tension                 : 
TLFamily_TIME      .         Time                          : 
group              .         prim                          : 
~Curve Information
#_______________________________________________________________________________
#
#LOGNAME           .UNIT     LOG_ID                        : DESCRIPTION
#_______________________________________________________________________________
DEPT               .M                                      : 1 Глубина, м -    0.0 см 
IK1                .GRD                                    : 13 3Ф0.5, град. -  226.0 см 
IK1$               .UE                                     : 7 3Ф0.5, усл.ед. -  226.0 см 
IK2                .GRD                                    : 17 3Ф0.7, град. -  240.0 см 
IK2$               .UE                                     : 11 3Ф0.7, усл.ед. -  240.0 см 
IK3                .GRD                                    : 16 3Ф1.0, град. -  260.0 см 
IK3$               .UE                                     : 10 3Ф1.0, усл.ед. -  260.0 см 
IK4                .GRD                                    : 15 3Ф1.4, град. -  288.0 см 
IK4$               .UE                                     : 9 3Ф1.4, усл.ед. -  288.0 см 
IK5                .GRD                                    : 14 3Ф2.0, град. -  328.0 см 
IK5$               .UE                                     : 8 3Ф2.0, усл.ед. -  328.0 см 
METKA              .                                       : 3 Метки,  -    0.0 см 
PS                 .mV                                     : 12 ПС, мВ -  372.0 см 
RCOR               .CM/KM                                  : 5 Коррекция по ролику, см/км -    0.0 см 
SPID               .M/H                                    : 2 Скорость, м/час -    0.0 см 
TENS               .T                                      : 6 Натяжение кабеля, т -    0.0 см 
TIME               .S                                      : 4 Время, сек -    0.0 см 
~Ascii
# ...
2549.6     17.05      11.09      16.11      12.56      16.12      14.84      16.1       15.2       16.21      15.47      0          315.19     -364       -1807      0          35080.29  
2549.7     17.18      11.22      16.28      12.73      16.13      14.85      16.07      15.17      16.19      15.45      0          315.85     -364       -1812      0          35080.07  
2549.8     17.24      11.28      16.38      12.83      16.16      14.88      16.06      15.16      16.19      15.45      0          316.35     -364       -1817      0          35079.88  
2549.9     17.34      11.38      16.48      12.93      16.24      14.96      16.06      15.16      16.2       15.46      1          316.75     -364       -1823      0          35079.69  
2550       17.43      11.47      16.59      13.04      16.34      15.06      16.08      15.18      16.22      15.48      0          317.17     -364       -1834      0          35079.44  
2550.1     17.5       11.54      16.68      13.13      16.44      15.16      16.12      15.22      16.23      15.49      0          317.49     -361       -1834      0          35079.18  
2550.2     17.67      11.71      16.82      13.27      16.59      15.31      16.17      15.27      16.25      15.51      0          317.69     -361       -1828      0          35079     
2550.3     17.9       11.94      17.01      13.46      16.73      15.45      16.23      15.33      16.26      15.52      0          317.64     -361       -1819      0          35078.77  
2550.4     18.01      12.05      17.08      13.53      16.79      15.51      16.26      15.36      16.24      15.5       0          317.6      -361       -1809      0          35078.58  
2550.5     18         12.04      17.05      13.5       16.76      15.48      16.22      15.32      16.2       15.46      0          317.49     -361       -1797      0          35078.39  
2550.6     17.92      11.96      16.97      13.42      16.68      15.4       16.14      15.24      16.1       15.36      0          317.43     -361       -1784      0          35078.18  
2550.7     17.81      11.85      16.83      13.28      16.58      15.3       16.06      15.16      16         15.26      0          317.16     -361       -1782      0          35077.99  
2550.8     17.66      11.7       16.7       13.15      16.48      15.2       15.97      15.07      15.9       15.16      0          316.98     -361       -1780      0          35077.81  
2550.9     17.46      11.5       16.57      13.02      16.37      15.09      15.89      14.99      15.8       15.06      0          316.89     -361       -1782      0          35077.6   
2551       17.37      11.41      16.52      12.97      16.32      15.04      15.85      14.95      15.73      14.99      0          316.48     -361       -1795      0          35077.41  
2551.1     17.36      11.4       16.5       12.95      16.31      15.03      15.82      14.92      15.66      14.92      0          316.38     -361       -1812      0          35077.2   
2551.2     17.32      11.36      16.45      12.9       16.26      14.98      15.76      14.86      15.59      14.85      0          316.24     -361       -1817      0          35077.02  
2551.3     17.22      11.26      16.35      12.8       16.14      14.86      15.66      14.76      15.5       14.76      0          315.81     -361       -1804      0          35076.79  
2551.4     17.11      11.15      16.18      12.63      15.98      14.7       15.54      14.64      15.41      14.67      0          315.34     -361       -1791      0          35076.6   
2551.5     16.96      11         15.98      12.43      15.79      14.51      15.36      14.46      15.29      14.55      0          314.97     -361       -1786      0          35076.41  
2551.6     16.67      10.71      15.74      12.19      15.53      14.25      15.19      14.29      15.15      14.41      0          314.55     -361       -1785      0          35076.2   
2551.7     16.39      10.43      15.49      11.94      15.34      14.06      15.04      14.14      15.05      14.31      0          314.04     -361       -1784      0          35076.01  
2551.8     16.16      10.2       15.34      11.79      15.21      13.93      14.93      14.03      14.97      14.23      0          313.69     -361       -1783      0          35075.82  
2551.9     16.04      10.08      15.28      11.73      15.16      13.88      14.88      13.98      14.93      14.19      0          313.36     -361       -1781      0          35075.63  
2552       16         10.04      15.25      11.7       15.14      13.86      14.86      13.96      14.92      14.18      0          313.16     -361       -1779      0          35075.41  
2552.1     15.97      10.01      15.2       11.65      15.12      13.84      14.85      13.95      14.92      14.18      0          313.2      -361       -1776      0          35075.22  
2552.2     15.93      9.97       15.13      11.58      15.09      13.81      14.81      13.91      14.92      14.18      0          313.13     -361       -1773      0          35075.03  
2552.3     15.91      9.95       15.07      11.52      15.03      13.75      14.78      13.88      14.91      14.17      0          313.08     -361       -1772      0          35074.82  
2552.4     15.9       9.94       15.01      11.46      14.98      13.7       14.75      13.85      14.89      14.15      0          313.01     -361       -1782      0          35074.62  
2552.5     15.87      9.91       14.97      11.42      14.92      13.64      14.72      13.82      14.87      14.13      0          313.17     -361       -1794      0          35074.43  
2552.6     15.84      9.88       14.94      11.39      14.86      13.58      14.7       13.8       14.85      14.11      0          313.14     -361       -1805      0          35074.24  
2552.7     15.73      9.77       14.85      11.3       14.8       13.52      14.68      13.78      14.84      14.1       0          312.95     -361       -1809      0          35074.02  
2552.8     15.53      9.57       14.75      11.2       14.76      13.48      14.66      13.76      14.84      14.1       0          313.05     -361       -1815      0          35073.82  
2552.9     15.49      9.53       14.79      11.24      14.85      13.57      14.71      13.81      14.85      14.11      0          313.42     -361       -1821      0          35073.61  
2553       15.74      9.78       15.08      11.53      15.05      13.77      14.83      13.93      14.91      14.17      0          313.62     -361       -1829      0          35073.4   
2553.1     16.08      10.12      15.35      11.8       15.26      13.98      14.97      14.07      14.97      14.23      0          314.15     -361       -1838      0          35073.22  
2553.2     16.35      10.39      15.5       11.95      15.38      14.1       15.06      14.16      15.03      14.29      0          314.36     -361       -1836      0          35073.02  
2553.3     16.42      10.46      15.51      11.96      15.39      14.11      15.06      14.16      15.05      14.31      0          314.31     -361       -1830      0          35072.8   
2553.4     16.41      10.45      15.44      11.89      15.34      14.06      15.03      14.13      15.01      14.27      0          314.09     -361       -1823      0          35072.62  
2553.5     16.33      10.37      15.34      11.79      15.27      13.99      14.97      14.07      14.94      14.2       0          314.08     -361       -1814      0          35072.43  
2553.6     16.25      10.29      15.29      11.74      15.22      13.94      14.92      14.02      14.87      14.13      0          313.94     -361       -1801      0          35072.21  
2553.7     16.23      10.27      15.31      11.76      15.22      13.94      14.9       14         14.82      14.08      0          313.83     -361       -1790      0          35072.03  
2553.8     16.22      10.26      15.35      11.8       15.25      13.97      14.9       14         14.78      14.04      0          313.61     -361       -1790      0          35071.84  
