~Version
 VERS              .         2.0                           : CWLS LOG ASCII STANDARD - VERSION 2.0
 WRAP              .         NO                            : ONE LINE PER DEPTH STEP
 DLM               .         SPACE                         : DELIMITING CHARACTER(SPACE TAB OR COMMA)
~Well Information
#_______________________________________________________________________________
#
#PARAMETER_NAME    .UNIT     VALUE                         : DESCRIPTION
#_______________________________________________________________________________
STRT               .M        2718.8                        : First reference value
STOP               .M        2774.8                        : Last reference value
STEP               .M        0.2                           : Step increment
NULL               .         -9999                         : Missing value
COMP               .                                       : Company
WELL               .         616                           : Well name
FLD                .                                       : Field
LOC                .                                       : Location
CNTY               .                                       : County
STAT               .                                       : State
CTRY               .                                       : Country
SRVC               .                                       : Service Company
DATE               .                                       : Date
API                .                                       : API number
PROJECT_UPGRADE_TIME .         2021-03-18T21_24_50           : 
group              .         Good                          : 
~Parameter Information Block
#_______________________________________________________________________________
#
#PARAMETER_NAME    .UNIT     VALUE                         : DESCRIPTION
#_______________________________________________________________________________
SET                .         D1746_D                       : 
OTHER              .         Программное обеспечение станции MONITOR-386EX 25/12/99 15_08_10   BGF V52 22/08/01 16_56_30   3.1_SNGF___BGF_N_111239: 
OTHER_10           .         Тарировки_                    : 
OTHER_11           .         <_techsia_sc_> Постоянная времени фильтра ГК  3.0 сек, kf=0.016529: 
OTHER_12           .         <_techsia_sc_> Постоянная времени фильтра ННК  3.0 сек, kf=0.016529: 
OTHER_13           .         GK.MKR/H = GK$.IMP/476        : 
OTHER_14           .         WSAT.PERC = -12.5 + 78.0 * (NKT2$.IMP / NKT1$.IMP) * 1731/33716: 
OTHER_15           .         NKT2.PRIV = NKT2$.IMP/33716   : 
OTHER_16           .         NKT1.PRIV = NKT1$.IMP/1731    : 
OTHER_2            .         Kedr.exe версия 3.3.2.32      : 
OTHER_3            .         KedrData.dll версия 3.3.2.17  : 
OTHER_4            .         Драйвер версия 2.1.1.9        : 
OTHER_5            .         Мнемоники версия 3.2 S        : 
OTHER_6            .         Прибор_ СРК-73Ц-1N            : 
OTHER_7            .         Номер прибора_ 906            : 
OTHER_8            .         Режим_ с локатором            : 
OTHER_9            .         Форма_ 623-1                  : 
PROJECT_UPGRADE_TIME .         2021-03-18T21_24_49           : 
TLFamily_DEPT      .         Measured Depth                : 
TLFamily_GK        .         Gamma Ray                     : 
TLFamily_GK$       .                                       : 
TLFamily_LM        .         Casing Collar locator         : 
TLFamily_METKA     .                                       : 
TLFamily_NKT1      .         Neutron Far                   : 
TLFamily_NKT1$     .         Neutron Far                   : 
TLFamily_NKT2      .         Neutron Near                  : 
TLFamily_NKT2$     .         Neutron Near                  : 
TLFamily_RCOR      .                                       : 
TLFamily_SPID      .         Spontaneous Potential         : 
TLFamily_TENS      .         Cable Tension                 : 
TLFamily_TIME      .         Time                          : 
TLFamily_WSAT      .         Neutron Porosity              : 
group              .         prim                          : 
~Curve Information
#_______________________________________________________________________________
#
#LOGNAME           .UNIT     LOG_ID                        : DESCRIPTION
#_______________________________________________________________________________
DEPT               .M                                      : 1 Глубина, м -    0.0 см 
GK                 .MKR/H                                  : 11 Гамма-активность, мкр./ч -   97.0 см 
GK$                .IMP                                    : 9 Гамма-активность, имп/мин -   97.0 см 
LM                 .                                       : 10 Локатор муфт,  -   27.0 см 
METKA              .                                       : 3 Метки,  -    0.0 см 
NKT1               .PRIV                                   : 14 Большой зонд приведенный,  -  278.0 см 
NKT1$              .IMP                                    : 8 Большой зонд, имп/мин -  278.0 см 
NKT2               .PRIV                                   : 13 Малый зонд приведенный,  -  289.0 см 
NKT2$              .IMP                                    : 7 Малый зонд, имп/мин -  289.0 см 
RCOR               .CM/KM                                  : 5 Коррекция по ролику, см/км -    0.0 см 
SPID               .M/H                                    : 2 Скорость, м/час -    0.0 см 
TENS               .T                                      : 6 Натяжение кабеля, т -    0.0 см 
TIME               .S                                      : 4 Время, сек -    0.0 см 
WSAT               .PERC                                   : 12 Водонасыщенная пористость, % -  284.0 см 
~Ascii
2718.8     -9999      -9999      -9999      -9999      -9999      -9999      -9999      -9999      -9999      -9999      -9999      -9999      -9999     
2719       -9999      -9999      -9999      -9999      -9999      -9999      -9999      -9999      -9999      -9999      -9999      -9999      -9999     
2719.2     -9999      -9999      -9999      0          -9999      -9999      -9999      -9999      -421       -380       0          12897.59   -9999     
2719.4     -9999      -9999      16         0          -9999      -9999      -9999      -9999      -421       -363       0          12895.68   -9999     
2719.6     -9999      -9999      13         0          -9999      -9999      -9999      -9999      -421       -320       0          12893.73   -9999     
2719.8     -9999      -9999      11         0          -9999      -9999      -9999      -9999      -421       -369       0          12891.63   -9999     
2720       5.19       2471       19         1          -9999      -9999      -9999      -9999      -421       -380       0          12889.76   -9999     
2720.2     5.5        2618       20         0          -9999      -9999      -9999      -9999      -420       -379       0          12887.61   -9999     
2720.4     5.44       2589       8          0          -9999      -9999      -9999      -9999      -420       -380       0          12885.61   -9999     
2720.6     5.64       2683       20         0          -9999      -9999      -9999      -9999      -420       -380       0          12883.65   -9999     
2720.8     5.56       2646       28         0          -9999      -9999      -9999      -9999      -420       -380       0          12881.7    -9999     
2721       5.52       2627       9          0          -9999      -9999      -9999      -9999      -420       -380       0          12879.75   -9999     
2721.2     5          2378       19         0          -9999      -9999      -9999      -9999      -420       -326       0          12877.85   -9999     
2721.4     4.97       2365       18         0          -9999      -9999      -9999      -9999      -420       -380       0          12875.84   -9999     
2721.6     5.22       2484       13         0          -9999      -9999      -9999      -9999      -420       -330       0          12873.89   -9999     
2721.8     5.34       2541       27         0          1.98       3426.93    -9999      -9999      -420       -380       0          12871.94   -9999     
2722       5.44       2591       9          0          1.98       3434.82    1          33710.8    -420       -276       0          12869.99   33.75     
2722.2     5.27       2508       12         0          1.91       3300.05    1.03       34561.57   -420       -322       0          12867.93   31.92     
2722.4     4.95       2358       20         0          1.85       3210.54    1.02       34549.71   -420       -335       0          12866.07   35.99     
2722.6     5.04       2399       20         0          1.82       3154.09    1.02       34409.12   -420       -322       0          12864.03   36.45     
2722.8     4.86       2312       18         0          1.85       3201.13    1          33670.7    -420       -343       0          12862.02   32.9      
2723       5          2378       39         0          1.69       2925.78    1.01       33963.45   -420       -380       0          12860.07   36.8      
2723.2     5.16       2458       16         0          1.85       3210.35    1.02       34360.77   -420       -380       0          12858.07   37.2      
2723.4     5.07       2415       14         0          1.86       3211.79    1.02       34540.04   -420       -380       0          12856.16   38.54     
2723.6     5.21       2480       33         0          1.87       3244.19    1.01       33991.27   -420       -365       0          12854.2    38.85     
2723.8     5.49       2612       34         0          1.85       3208.57    1          33588.28   -420       -379       0          12852.25   41.9      
2724       4.85       2308       17         0          1.83       3167.8     1          33595.57   -420       -380       0          12850.3    38.68     
2724.2     5.34       2544       12         0          1.75       3020.67    1.01       34110.66   -420       -379       0          12848.34   40.44     
2724.4     5.21       2479       17         0          1.79       3105.93    1.01       34178.33   -420       -287       0          12846.39   39.37     
2724.6     4.85       2306       26         0          1.72       2972.61    1          33679.11   -420       -380       0          12844.29   36.22     
2724.8     5.33       2538       30         0          1.77       3062.48    0.99       33394.82   -420       -380       0          12842.34   39.83     
2725       5.37       2558       23         0          1.77       3063.91    1          33769.27   -420       -380       0          12840.38   35.52     
2725.2     5.15       2452       13         0          1.83       3160.14    1          33770.3    -420       -348       0          12838.43   34.29     
2725.4     5.24       2493       20         0          1.75       3036.2     0.99       33297.71   -420       -377       0          12836.48   37.64     
2725.6     5.32       2535       30         0          1.87       3237.75    0.98       32980.78   -420       -380       0          12834.57   33.33     
2725.8     4.99       2375       19         0          1.83       3168.83    0.96       32287.99   -420       -377       0          12832.57   35.95     
2726       4.79       2279       70         0          1.92       3319.36    0.96       32401.92   -420       -354       0          12830.62   34.54     
2726.2     4.6        2189       96         0          1.86       3227.45    0.96       32330.18   -420       -323       0          12828.67   32.78     
2726.4     4.96       2361       2177       0          1.77       3072.33    0.93       31331.9    -420       -355       0          12826.66   33.08     
2726.6     5.41       2575       243        0          1.8        3111.03    0.97       32699.3    -420       -323       0          12824.7    36.71     
2726.8     5.43       2584       7          0          1.91       3310.8     0.99       33275.22   -420       -321       0          12822.65   33.84     
2727       5.76       2742       15         0          1.92       3331.59    1          33677.89   -420       -373       0          12820.7    32.71     
2727.2     5.17       2460       25         0          1.87       3229.22    0.98       33195.17   -420       -379       0          12818.74   34.63     
2727.4     5.3        2522       12         0          1.81       3137.68    0.99       33527.78   -420       -375       0          12816.79   36.79     
2727.6     4.9        2332       36         0          1.79       3096.19    1.01       33996.31   -420       -321       0          12814.79   37.39     
2727.8     5.35       2548       12         0          1.78       3075.99    1.01       34213.29   -420       -328       0          12812.93   35.33     
2728       5.51       2621       24         0          1.84       3185.1     1.01       33928.6    -420       -379       0          12810.88   35.72     
2728.2     5.56       2647       11         0          1.87       3235.99    1.01       33920.34   -420       -380       0          12808.98   36.65     
2728.4     5.01       2384       36         0          1.83       3159.38    1          33742.62   -420       -379       0          12806.98   33        
2728.6     5.13       2442       18         0          1.95       3367.65    1.01       34042.5    -420       -375       0          12805.02   34.03     
2728.8     5.25       2500       13         0          1.9        3288.28    1.01       34136.5    -420       -379       0          12803.07   32.06     
2729       5.31       2528       9          0          1.84       3189.44    1.02       34407.47   -420       -374       0          12801.12   35.44     
