~Version
 VERS              .         2.0                           : CWLS LOG ASCII STANDARD - VERSION 2.0
 WRAP              .         NO                            : ONE LINE PER DEPTH STEP
 DLM               .         SPACE                         : DELIMITING CHARACTER(SPACE TAB OR COMMA)
~Well Information
#_______________________________________________________________________________
#
#PARAMETER_NAME    .UNIT     VALUE                         : DESCRIPTION
#_______________________________________________________________________________
STRT               .M        2659.2                        : First reference value
STOP               .M        2769.000055                   : Last reference value
STEP               .M        0.2000001                     : Step increment
NULL               .         -9999                         : Missing value
COMP               .                                       : Company
WELL               .         616                           : Well name
FLD                .                                       : Field
LOC                .                                       : Location
CNTY               .                                       : County
STAT               .                                       : State
CTRY               .                                       : Country
SRVC               .                                       : Service Company
DATE               .                                       : Date
API                .                                       : API number
PROJECT_UPGRADE_TIME .         2021-03-18T21_24_50           : 
group              .         Good                          : 
~Parameter Information Block
#_______________________________________________________________________________
#
#PARAMETER_NAME    .UNIT     VALUE                         : DESCRIPTION
#_______________________________________________________________________________
SET                .         D1165_D                       : 
OTHER              .         Программное обеспечение станции MONITOR-386EX 25/12/99 15_08_10   BGF V52 22/08/01 16_56_30   3.2_BGF_N_3070031: 
OTHER_10           .         Тарировки_                    : 
OTHER_11           .         TM.GRD = 0.00403*TM$.UE + -1.19: 
OTHER_12           .         MN.ATM = (7.1e-006*TM.GRD + 0.02017)*(MN$.UE + -3.03*TM.GRD + -1833): 
OTHER_13           .         Id error                      : 
OTHER_2            .         Kedr.exe версия 3.4.2.51      : 
OTHER_3            .         KedrData.dll версия 3.4.2.24  : 
OTHER_4            .         Драйвер версия 2.1.1.8        : 
OTHER_5            .         Мнемоники версия 3.3 S        : 
OTHER_6            .         Прибор_ КСА-М1                : 
OTHER_7            .         Номер прибора_ 265            : 
OTHER_8            .         Режим_ КСА-М1                 : 
OTHER_9            .         Форма_ ТЕРМОМЕТР              : 
PROJECT_UPGRADE_TIME .         2021-03-18T21_24_49           : 
TLFamily_DEPT      .         Measured Depth                : 
TLFamily_GK        .         Gamma Ray                     : 
TLFamily_GK$       .                                       : 
TLFamily_LM        .         Casing Collar locator         : 
TLFamily_METKA     .                                       : 
TLFamily_MN        .                                       : 
TLFamily_MN$       .                                       : 
TLFamily_RCOR      .                                       : 
TLFamily_SPID      .         Spontaneous Potential         : 
TLFamily_STD       .                                       : 
TLFamily_TENS      .         Cable Tension                 : 
TLFamily_TIME      .         Time                          : 
TLFamily_TM        .         Temperature                   : 
TLFamily_TM$       .         Temperature                   : 
TLFamily_VGD       .         Gas Volume                    : 
group              .         prim                          : 
~Curve Information
#_______________________________________________________________________________
#
#LOGNAME           .UNIT     LOG_ID                        : DESCRIPTION
#_______________________________________________________________________________
DEPT               .M                                      : 1 Глубина, м -    0.0 см 
GK                 .MKR/H                                  : 15 Гамма-активность, мкр./ч -  110.0 см 
GK$                .UE                                     : 12 Гамма-активность, усл.ед. -  110.0 см 
LM                 .                                       : 10 Локатор муфт,  -   20.0 см 
METKA              .                                       : 3 Метки,  -    0.0 см 
MN                 .ATM                                    : 14 Давление, атм. -  160.0 см 
MN$                .UE                                     : 8 Давление, усл.ед. -  160.0 см 
RCOR               .CM/KM                                  : 5 Коррекция по ролику, см/км -    0.0 см 
SPID               .M/H                                    : 2 Скорость, м/час -    0.0 см 
STD                .                                       : 11 Приток,  -  170.0 см 
TENS               .T                                      : 6 Натяжение кабеля, т -    0.0 см 
TIME               .S                                      : 4 Время, сек -    0.0 см 
TM                 .GRD                                    : 13 Температура, °C -  180.0 см 
TM$                .UE                                     : 7 Температура, усл.ед. -  180.0 см 
VGD                .                                       : 9 Влагомер,  -  170.0 см 
~Ascii
# ...
2747.400044 7.69       316        1          0          358.672    19342      -1400      644        32373      0          21498.45   90.182     22673      6553      
2747.600044 7.34       306        1          0          357.587    19289      -1400      641        32374      0          21499.54   90.186     22674      6553      
2747.800044 7.22       306        3178       0          360.106    19410      -1400      647        32373      0          21500.63   90.19      22675      6554      
2748.000044 7          293        1828       0          358.728    19344      -1400      645        32373      0          21501.74   90.194     22676      6553      
2748.200044 6.9        293        553        0          359.243    19369      -1400      638        32374      0          21502.9    90.198     22677      6553      
2748.400045 7.06       312        1          0          361.527    19479      -1400      639        32373      0          21504.02   90.198     22677      6555      
2748.600045 7.22       312        1          0          358.39     19328      -1400      645        32373      0          21505.1    90.206     22679      6554      
2748.800045 7.78       362        1          0          358.913    19353      -1400      643        32372      0          21506.29   90.21      22680      6554      
2749.000045 8.22       362        1          0          359.906    19401      -1400      643        32374      0          21507.42   90.214     22681      6555      
2749.200045 8.31       353        1          0          358.719    19344      -1400      642        32373      0          21508.46   90.218     22682      6556      
2749.400045 8.14       344        1          0          357.934    19306      -1400      642        32374      0          21509.56   90.223     22683      6555      
2749.600045 8.08       344        1          0          359.255    19369      -1400      634        32374      0          21510.75   90.227     22684      6555      
2749.800045 7.81       325        1          0          360.843    19446      -1400      637        32374      0          21511.82   90.227     22684      6556      
2750.000045 7.67       325        1          2          359.183    19366      -1400      638        32374      0          21513.06   90.231     22685      6555      
2750.200045 7.98       351        1          0          359.429    19378      -1400      631        32373      0          21514.2    90.239     22687      6556      
2750.400046 8.13       351        1          0          360.875    19447      -1400      630        32373      0          21515.31   90.243     22688      6555      
2750.600046 8.27       360        1          0          358.023    19310      -1400      632        32373      0          21516.43   90.247     22689      6555      
2750.800046 8.37       360        1          0          359.157    19365      -1400      639        32373      0          21517.51   90.255     22691      6556      
2751.000046 8.42       362        1          0          358.528    19334      -1400      629        32373      0          21518.66   90.255     22691      6556      
2751.200046 8.51       366        1          0          360.067    19408      -1400      632        32373      0          21519.81   90.262     22693      6558      
2751.400046 8.54       365        1          0          359.268    19370      -1400      634        32373      0          21520.92   90.269     22695      6557      
2751.600046 8.54       365        1          0          359.391    19376      -1400      635        32372      0          21522.06   90.271     22695      6556      
2751.800046 8.54       365        1          0          361.409    19473      -1400      636        32373      0          21523.18   90.275     22696      6558      
2752.000046 8.45       359        1          0          358.935    19354      -1400      637        32374      0          21524.24   90.28      22697      6554      
2752.200046 8.42       359        1          0          359.848    19398      -1400      642        32373      0          21525.38   90.283     22698      6557      
2752.400047 8.09       326        1          0          360.676    19438      -1400      638        32374      0          21526.55   90.289     22699      6557      
2752.600047 7.79       326        1          0          358.161    19317      -1400      644        32372      0          21527.64   90.287     22699      6559      
2752.800047 7.69       327        1          0          358.5      19333      -1400      643        32373      0          21528.73   90.299     22702      6558      
2753.000047 7.66       327        1          0          358.488    19332      -1400      637        32372      0          21529.85   90.299     22702      6558      
2753.200047 7.75       339        1          0          360.816    19444      -1400      637        32373      0          21531.01   90.306     22704      6559      
2753.400047 8.1        354        1          0          359.266    19370      -1400      638        32373      0          21532.11   90.308     22704      6557      
2753.600047 8.22       354        1          0          360.067    19408      -1400      649        32372      0          21533.21   90.315     22706      6558      
2753.800047 8.22       351        1          0          361.446    19474      -1400      642        32373      0          21534.37   90.32      22707      6558      
2754.000047 8.21       351        1          0          358.946    19354      -1400      652        32373      0          21535.43   90.323     22708      6558      
2754.200047 8.14       346        1          0          359.648    19388      -1400      649        32373      0          21536.53   90.331     22710      6559      
2754.400048 8.11       346        1          0          359.771    19394      -1400      643        32373      0          21537.7    90.332     22710      6558      
2754.600048 8.25       363        1          0          359.997    19405      -1400      647        32372      0          21538.79   90.335     22711      6560      
2754.800048 8.41       363        1          0          359.179    19365      -1400      650        32373      0          21539.93   90.339     22712      6555      
2755.000048 8.43       359        1          0          359.794    19395      -1400      654        32373      0          21541      90.345     22714      6556      
2755.200048 8.22       347        1          0          361.323    19468      -1400      650        32374      0          21542.16   90.347     22714      6556      
2755.400048 8.13       344        1          0          358.908    19352      -1400      648        32372      0          21543.25   90.351     22715      6555      
2755.600048 8.03       341        1          0          360.326    19421      -1400      646        32373      0          21544.36   90.36      22717      6556      
2755.800048 8          341        1          0          360.484    19428      -1400      642        32374      0          21545.52   90.362     22718      6556      
2756.000048 8.21       359        1          0          358.052    19311      -1400      638        32372      0          21546.67   90.364     22718      6557      
2756.200048 8.34       359        1          0          359.142    19364      -1400      638        32373      0          21547.75   90.372     22720      6556      
2756.400049 8.24       342        1          0          358.481    19332      -1400      644        32372      0          21548.88   90.376     22721      6557      
2756.600049 8.08       342        1          0          361.263    19466      -1400      632        32373      0          21549.98   90.38      22722      6557      
2756.800049 7.83       319        1          0          359.553    19383      -1400      640        32373      0          21551.08   90.384     22723      6557      
2757.000049 7.59       319        1          0          360.254    19417      -1400      640        32373      0          21552.18   90.388     22724      6557      
