~Version
 VERS              .         2.0                           : CWLS LOG ASCII STANDARD - VERSION 2.0
 WRAP              .         NO                            : ONE LINE PER DEPTH STEP
 DLM               .         SPACE                         : DELIMITING CHARACTER(SPACE TAB OR COMMA)
~Well Information
#_______________________________________________________________________________
#
#PARAMETER_NAME    .UNIT     VALUE                         : DESCRIPTION
#_______________________________________________________________________________
STRT               .M        2338.9                        : First reference value
STOP               .M        2799.2                        : Last reference value
STEP               .M        0.1                           : Step increment
NULL               .         -9999                         : Missing value
COMP               .                                       : Company
WELL               .         616                           : Well name
FLD                .                                       : Field
LOC                .                                       : Location
CNTY               .                                       : County
STAT               .                                       : State
CTRY               .                                       : Country
SRVC               .                                       : Service Company
DATE               .                                       : Date
API                .                                       : API number
PROJECT_UPGRADE_TIME .         2021-03-18T21_24_50           : 
group              .         Good                          : 
~Parameter Information Block
#_______________________________________________________________________________
#
#PARAMETER_NAME    .UNIT     VALUE                         : DESCRIPTION
#_______________________________________________________________________________
SET                .         D2662_D                       : 
OTHER              .         Программное обеспечение станции MONITOR-386EX 25/12/99 15_08_10   BGF V50 26/12/00 07_26_01   3.1_SNGF___BGF_N_092085: 
OTHER_10           .         Тарировки_                    : 
OTHER_11           .         IK1.GRD = IK1$.UE - -5.96     : 
OTHER_12           .         IK5.GRD = IK5$.UE - -0.74     : 
OTHER_13           .         IK4.GRD = IK4$.UE - -0.9      : 
OTHER_14           .         IK3.GRD = IK3$.UE - -1.28     : 
OTHER_15           .         IK2.GRD = IK2$.UE - -3.55     : 
OTHER_2            .         Kedr.exe версия 3.3.2.32      : 
OTHER_3            .         KedrData.dll версия 3.3.2.17  : 
OTHER_4            .         Драйвер версия 2.1.0.4        : 
OTHER_5            .         Мнемоники версия 3.3 S        : 
OTHER_6            .         Прибор_ Викиз                 : 
OTHER_7            .         Номер прибора_ 0006012        : 
OTHER_8            .         Режим_ Викиз                  : 
OTHER_9            .         Форма_ ВИКИЗ                  : 
PROJECT_UPGRADE_TIME .         2021-03-18T21_24_49           : 
TLFamily_DEPT      .         Measured Depth                : 
TLFamily_IK1       .         Extra Shallow Resistivity     : 
TLFamily_IK1$      .         Extra Shallow Resistivity     : 
TLFamily_IK2       .         Shallow Resistivity           : 
TLFamily_IK2$      .         Shallow Resistivity           : 
TLFamily_IK3       .         Medium Resistivity            : 
TLFamily_IK3$      .         Medium Resistivity            : 
TLFamily_IK4       .         Deep Resistivity              : 
TLFamily_IK4$      .         Deep Resistivity              : 
TLFamily_IK5       .         Resistivity 20                : 
TLFamily_IK5$      .         Resistivity 20                : 
TLFamily_METKA     .                                       : 
TLFamily_PS        .         Spontaneous Potential         : 
TLFamily_RCOR      .                                       : 
TLFamily_SPID      .         Spontaneous Potential         : 
TLFamily_TENS      .         Cable Tension                 : 
TLFamily_TIME      .         Time                          : 
group              .         prim                          : 
~Curve Information
#_______________________________________________________________________________
#
#LOGNAME           .UNIT     LOG_ID                        : DESCRIPTION
#_______________________________________________________________________________
DEPT               .M                                      : 1 Глубина, м -    0.0 см 
IK1                .GRD                                    : 13 3Ф0.5, град. -  226.0 см 
IK1$               .UE                                     : 7 3Ф0.5, усл.ед. -  226.0 см 
IK2                .GRD                                    : 17 3Ф0.7, град. -  240.0 см 
IK2$               .UE                                     : 11 3Ф0.7, усл.ед. -  240.0 см 
IK3                .GRD                                    : 16 3Ф1.0, град. -  260.0 см 
IK3$               .UE                                     : 10 3Ф1.0, усл.ед. -  260.0 см 
IK4                .GRD                                    : 15 3Ф1.4, град. -  288.0 см 
IK4$               .UE                                     : 9 3Ф1.4, усл.ед. -  288.0 см 
IK5                .GRD                                    : 14 3Ф2.0, град. -  328.0 см 
IK5$               .UE                                     : 8 3Ф2.0, усл.ед. -  328.0 см 
METKA              .                                       : 3 Метки,  -    0.0 см 
PS                 .mV                                     : 12 ПС, мВ -  372.0 см 
RCOR               .CM/KM                                  : 5 Коррекция по ролику, см/км -    0.0 см 
SPID               .M/H                                    : 2 Скорость, м/час -    0.0 см 
TENS               .T                                      : 6 Натяжение кабеля, т -    0.0 см 
TIME               .S                                      : 4 Время, сек -    0.0 см 
~Ascii
# ...
2614.1     13.73      7.77       12.73      9.18       12.66      11.38      12.5       11.6       12.64      11.9       0          318.68     -350       -1750      0          34949.81  
2614.2     14.32      8.36       13.16      9.61       12.98      11.7       12.81      11.91      13         12.26      0          318.34     -350       -1755      0          34949.63  
2614.3     14.81      8.85       13.66      10.11      13.25      11.97      13.04      12.14      13.24      12.5       0          318.18     -350       -1761      0          34949.41  
2614.4     15.34      9.38       14.06      10.51      13.52      12.24      13.22      12.32      13.39      12.65      0          318.1      -350       -1767      0          34949.21  
2614.5     15.65      9.69       14.36      10.81      13.78      12.5       13.35      12.45      13.52      12.78      0          318.26     -350       -1760      0          34948.98  
2614.6     15.84      9.88       14.69      11.14      13.99      12.71      13.46      12.56      13.6       12.86      0          318.43     -350       -1753      0          34948.8   
2614.7     16.03      10.07      14.98      11.43      14.23      12.95      13.58      12.68      13.67      12.93      0          318.61     -350       -1750      0          34948.59  
2614.8     16.16      10.2       15.18      11.63      14.51      13.23      13.72      12.82      13.73      12.99      0          318.96     -350       -1756      0          34948.38  
2614.9     16.18      10.22      15.31      11.76      14.7       13.42      13.83      12.93      13.78      13.04      0          319.35     -350       -1762      0          34948.18  
2615       16.17      10.21      15.37      11.82      14.86      13.58      13.95      13.05      13.82      13.08      0          319.81     -350       -1760      0          34948     
2615.1     16.31      10.35      15.47      11.92      15.05      13.77      14.11      13.21      13.87      13.13      0          319.81     -350       -1752      0          34947.78  
2615.2     16.38      10.42      15.53      11.98      15.16      13.88      14.25      13.35      13.92      13.18      0          319.97     -350       -1742      0          34947.57  
2615.3     16.3       10.34      15.47      11.92      15.19      13.91      14.36      13.46      13.97      13.23      0          319.95     -350       -1744      0          34947.38  
2615.4     16.2       10.24      15.41      11.86      15.19      13.91      14.48      13.58      14.02      13.28      0          320.33     -350       -1748      0          34947.17  
2615.5     16.21      10.25      15.44      11.89      15.23      13.95      14.59      13.69      14.1       13.36      0          320.59     -350       -1753      0          34946.95  
2615.6     16.27      10.31      15.55      12         15.31      14.03      14.73      13.83      14.19      13.45      0          321.09     -350       -1759      0          34946.76  
2615.7     16.39      10.43      15.64      12.09      15.39      14.11      14.89      13.99      14.29      13.55      0          321.24     -350       -1766      0          34946.57  
2615.8     16.36      10.4       15.68      12.13      15.45      14.17      14.98      14.08      14.41      13.67      0          321.5      -350       -1769      0          34946.33  
2615.9     16.35      10.39      15.73      12.18      15.5       14.22      15.06      14.16      14.52      13.78      0          321.51     -350       -1764      0          34946.14  
2616       16.52      10.56      15.86      12.31      15.57      14.29      15.11      14.21      14.61      13.87      0          321.32     -350       -1758      0          34945.95  
2616.1     16.61      10.65      15.91      12.36      15.61      14.33      15.12      14.22      14.68      13.94      0          321.02     -350       -1748      0          34945.72  
2616.2     16.57      10.61      15.86      12.31      15.55      14.27      15.08      14.18      14.72      13.98      0          320.91     -350       -1738      0          34945.53  
2616.3     16.49      10.53      15.79      12.24      15.45      14.17      15.01      14.11      14.71      13.97      0          320.51     -350       -1725      0          34945.34  
2616.4     16.4       10.44      15.7       12.15      15.34      14.06      14.91      14.01      14.68      13.94      0          320.1      -350       -1723      0          34945.12  
2616.5     16.28      10.32      15.58      12.03      15.24      13.96      14.84      13.94      14.66      13.92      0          319.86     -350       -1721      0          34944.93  
2616.6     16.17      10.21      15.5       11.95      15.18      13.9       14.79      13.89      14.65      13.91      0          319.62     -350       -1721      0          34944.73  
2616.7     16.11      10.15      15.48      11.93      15.17      13.89      14.78      13.88      14.67      13.93      0          319.64     -350       -1738      0          34944.51  
2616.8     16.18      10.22      15.54      11.99      15.23      13.95      14.82      13.92      14.73      13.99      0          319.52     -350       -1758      0          34944.31  
2616.9     16.34      10.38      15.67      12.12      15.33      14.05      14.91      14.01      14.82      14.08      0          319.44     -350       -1769      0          34944.11  
2617       16.47      10.51      15.77      12.22      15.44      14.16      15.03      14.13      14.92      14.18      0          319.65     -350       -1764      0          34943.92  
2617.1     16.67      10.71      15.89      12.34      15.56      14.28      15.13      14.23      15.05      14.31      0          319.62     -350       -1755      0          34943.67  
2617.2     16.81      10.85      16.01      12.46      15.65      14.37      15.24      14.34      15.14      14.4       0          319.53     -350       -1759      0          34943.47  
2617.3     16.94      10.98      16.12      12.57      15.75      14.47      15.33      14.43      15.25      14.51      0          319.6      -350       -1766      0          34943.29  
2617.4     17.1       11.14      16.25      12.7       15.87      14.59      15.45      14.55      15.36      14.62      0          319.59     -350       -1775      0          34943.06  
2617.5     17.28      11.32      16.44      12.89      16.02      14.74      15.56      14.66      15.46      14.72      0          319.73     -350       -1771      0          34942.85  
2617.6     17.47      11.51      16.63      13.08      16.16      14.88      15.69      14.79      15.58      14.84      0          319.53     -350       -1766      0          34942.66  
2617.7     17.64      11.68      16.76      13.21      16.29      15.01      15.79      14.89      15.66      14.92      0          319.48     -350       -1760      0          34942.46  
2617.8     17.71      11.75      16.83      13.28      16.39      15.11      15.87      14.97      15.76      15.02      0          319.51     -350       -1753      0          34942.25  
2617.9     17.79      11.83      16.93      13.38      16.48      15.2       15.95      15.05      15.85      15.11      0          319.66     -350       -1744      0          34942.07  
2618       17.95      11.99      17.05      13.5       16.63      15.35      16.08      15.18      15.95      15.21      0          319.53     -350       -1738      0          34941.86  
2618.1     18.13      12.17      17.21      13.66      16.81      15.53      16.22      15.32      16.08      15.34      0          319.6      -350       -1741      0          34941.64  
2618.2     18.27      12.31      17.37      13.82      16.94      15.66      16.36      15.46      16.19      15.45      0          319.72     -350       -1744      0          34941.46  
2618.3     18.43      12.47      17.5       13.95      17.08      15.8       16.52      15.62      16.3       15.56      0          319.76     -350       -1747      0          34941.27  
