~Version
 VERS              .         2.0                           : CWLS LOG ASCII STANDARD - VERSION 2.0
 WRAP              .         NO                            : ONE LINE PER DEPTH STEP
 DLM               .         SPACE                         : DELIMITING CHARACTER(SPACE TAB OR COMMA)
~Well Information
#_______________________________________________________________________________
#
#PARAMETER_NAME    .UNIT     VALUE                         : DESCRIPTION
#_______________________________________________________________________________
STRT               .M        21.55                         : First reference value
STOP               .M        2764.75                       : Last reference value
STEP               .M        0.2                           : Step increment
NULL               .         -9999                         : Missing value
COMP               .                                       : Company
WELL               .         616                           : Well name
FLD                .                                       : Field
LOC                .                                       : Location
CNTY               .                                       : County
STAT               .                                       : State
CTRY               .                                       : Country
SRVC               .                                       : Service Company
DATE               .                                       : Date
API                .                                       : API number
PROJECT_UPGRADE_TIME .         2021-03-18T21_24_50           : 
group              .         Good                          : 
~Parameter Information Block
#_______________________________________________________________________________
#
#PARAMETER_NAME    .UNIT     VALUE                         : DESCRIPTION
#_______________________________________________________________________________
SET                .         D7028_D_2                     : 
NPR                .         155                           : Номер прибора
OTHER              .         Kedr.exe версия 2.1.2.32      : 
OTHER_10           .         TM.GRD = 0.00404*TM$.UE + 0.07: 
OTHER_11           .         MN.ATM = (6.33279e-006*TM.GRD + 0.02401)*(MN$.UE + 2.72*TM.GRD + -2018): 
OTHER_12           .         GK.MKR/H = GK$.UE / 43.5489 + 0: 
OTHER_13           .         RES.SM = 0.00476*CRES.UE - 1.51709: 
OTHER_14           .         PL.GSM3 = 0 + 0 * (PL.UE / 1) +  0 * (PL.UE / 1)^2: 
OTHER_15           .         Постоянная времени ГГП = 6 сек: 
OTHER_16           .         Постоянная времени ГК = 6 сек : 
OTHER_2            .         KedrData.dll версия 3.2.2.14  : 
OTHER_3            .         LasInf.dll версия 3.2.0.13    : 
OTHER_4            .         Драйвер версия 1.2.0.5        : 
OTHER_5            .         Прибор_ КСА-M1                : 
OTHER_6            .         Номер прибора_ 155+р204       : 
OTHER_7            .         Режим_ КСА-М1 + ГГП + Резистивиметр: 
OTHER_8            .         Форма_ 223\2                  : 
OTHER_9            .         Тарировки_                    : 
PR                 .         КСА-Т7 М1                     : Тип прибора
PROJECT_UPGRADE_TIME .         2021-03-18T21_24_50           : 
PRTY               .         ПП-223_2                      : Номер партии
SRV                .         ЦКРС                          : Заказчик
SRVC               .         Лузин  А.Б.                   : Начальник партии
TLFamily_DEPT      .         Measured Depth                : 
TLFamily_LM        .         Casing Collar locator         : 
TLFamily_MN        .                                       : 
TLFamily_SPID      .         Spontaneous Potential         : 
TLFamily_TM        .         Temperature                   : 
group              .         second                        : 
~Curve Information
#_______________________________________________________________________________
#
#LOGNAME           .UNIT     LOG_ID                        : DESCRIPTION
#_______________________________________________________________________________
DEPT               .M                                      : Depth curve 
LM                 .е.ацп                                  : Локация муфт 
MN                 .атм                                    : Манометрия, атм 
SPID               .м/ч                                    : Скорость записи,м/час 
TM                 .град.С                                 : Термометрия,град.С 
~Ascii
# ...
576.35     1712.005   53.23      -1790.003  24.47     
576.55     1843.024   53.23      -1860      24.47     
576.75     2471.014   53.24      -1848.998  24.48     
576.95     2836.052   53.31      -1805.002  24.48     
577.15     4226.09    53.32      -1859.999  24.49     
577.35     6623.839   53.32      -1833.998  24.5      
577.55     2328.99    53.32      -1790.001  24.5      
577.75     2054.991   53.37      -1818.002  24.5      
577.95     1824.997   53.35      -1859.999  24.51     
578.15     1737.999   53.38      -1822.999  24.52     
578.35     1699.998   53.4       -1790      24.52     
578.55     1641.988   53.43      -1790      24.53     
578.75     1314.012   53.45      -1790      24.54     
578.95     1624.008   53.46      -1790      24.55     
579.15     1826.999   53.47      -1789.998  24.55     
579.35     1790.989   53.48      -1733.005  24.56     
579.55     1504.002   53.5       -1854      24.56     
579.75     1570.013   53.52      -1852.998  24.57     
579.95     1912.003   53.56      -1790      24.57     
580.15     1979.016   53.57      -1790.001  24.58     
580.35     2401.983   53.59      -1811.002  24.58     
580.55     1958.998   53.6       -1860      24.59     
580.75     1916.007   53.62      -1859.999  24.6      
580.95     2089.984   53.67      -1828.999  24.6      
581.15     1661.014   53.65      -1790      24.61     
581.35     2032.998   53.65      -1790      24.61     
581.55     1972.995   53.7       -1790.001  24.61     
581.75     1842.999   53.7       -1805.001  24.62     
581.95     1828.992   53.73      -1825.996  24.63     
582.15     1628.009   53.76      -1730.002  24.64     
582.35     1876.998   53.78      -1781.003  24.65     
582.55     1817.999   53.8       -1860      24.65     
582.75     1778.997   53.8       -1859.998  24.66     
582.95     1704.991   53.8       -1819.001  24.66     
583.15     1477.011   53.85      -1834.001  24.67     
583.35     1776.998   53.85      -1859.998  24.68     
583.55     1714.999   53.87      -1807.999  24.68     
583.75     1699.013   53.89      -1790      24.69     
583.95     2045.993   53.91      -1790.002  24.7      
584.15     1874.988   53.93      -1853      24.71     
584.35     1553.009   53.97      -1860      24.71     
584.55     1784.003   53.96      -1860      24.72     
584.75     1857.997   53.96      -1852.998  24.72     
584.95     1791.998   53.99      -1790      24.73     
585.15     1745.02    54.03      -1790      24.73     
585.35     2268.985   54.04      -1790      24.74     
585.55     1878.998   54.04      -1790.001  24.74     
585.75     1838.01    54.07      -1816      24.75     
585.95     2095.991   54.12      -1828.999  24.75     
586.15     1864.993   54.12      -1790.001  24.75     
586.35     1673.009   54.12      -1827      24.76     
586.55     1916.994   54.14      -1818.999  24.77     
586.75     1766.995   54.15      -1790.002  24.78     
586.95     1649.004   54.2       -1840.997  24.78     
587.15     1755.001   54.22      -1761.999  24.78     
587.35     1769.018   54.22      -1730.005  24.79     
587.55     2233.017   54.24      -1852.998  24.8      
587.75     2670.048   54.26      -1793      24.81     
587.95     3915.081   54.27      -1794.002  24.82     
588.15     6024.954   54.31      -1855.997  24.82     
588.35     4834.856   54.3       -1790      24.83     
588.55     1085.019   54.33      -1802.002  24.83     
588.75     1587.004   54.36      -1841.998  24.84     
588.95     1703.995   54.39      -1790.001  24.84     
589.15     1572.006   54.37      -1816.002  24.85     
589.35     1732.004   54.39      -1860      24.86     
589.55     1826.002   54.42      -1859.999  24.86     
589.75     1876.996   54.44      -1825      24.86     
589.95     1786.001   54.46      -1829.001  24.87     
590.15     1823.006   54.45      -1859.998  24.87     
590.35     1983.999   54.52      -1813.001  24.88     
590.55     1952.996   54.52      -1839.001  24.89     
590.75     1839.999   54.53      -1860      24.89     
590.95     1818.996   54.55      -1860      24.9      
591.15     1709       54.55      -1859.999  24.91     
591.35     1705.009   54.57      -1826.999  24.92     
591.55     1937.989   54.59      -1790      24.92     
591.75     1647.005   54.62      -1790      24.93     
591.95     1771.007   54.62      -1790.002  24.94     
592.15     1953.989   54.65      -1841.001  24.94     
592.35     1658.003   54.67      -1859.998  24.95     
592.55     1730.002   54.69      -1802      24.96     
592.75     1785.996   54.73      -1790      24.96     
592.95     1674.002   54.73      -1790.003  24.96     
593.15     1733.994   54.76      -1859.997  24.97     
593.35     1567.997   54.79      -1790      24.98     
593.55     1498       54.8       -1798.002  24.98     
593.75     1510.004   54.81      -1844.998  24.99     
593.95     1623.013   54.81      -1790      25        
594.15     1961.006   54.85      -1790      25        
594.35     2112.99    54.86      -1790      25.01     
594.55     1867.999   54.89      -1790      25.01     
594.75     1849.998   54.94      -1790.001  25.02     
594.95     1794.996   54.92      -1828.001  25.02     
595.15     1703.002   54.94      -1860      25.03     
595.35     1742.994   54.94      -1859.998  25.03     
595.55     1600.001   54.97      -1807.999  25.04     
595.75     1633.015   54.99      -1790      25.04     
595.95     2017       55.01      -1790      25.05     
596.15     2018.996   55.02      -1790      25.05     
596.35     1906.996   55.06      -1790.003  25.06     
596.55     1813.003   55.07      -1859.997  25.07     
596.75     1880.984   55.09      -1790      25.08     
596.95     1479       55.09      -1800.002  25.07     
597.15     1489.01    55.11      -1847.998  25.08     
597.35     1741.008   55.13      -1790.001  25.1      
597.55     1946.008   55.16      -1813.001  25.1      
597.75     2155.996   55.18      -1831.998  25.11     
597.95     2051.982   55.18      -1790.001  25.11     
598.15     1600.008   55.19      -1825.001  25.11     
598.35     1806.007   55.23      -1860      25.11     
598.55     1990.023   55.24      -1859.998  25.13     
598.75     2567.046   55.24      -1811.999  25.14     
598.95     3734.077   55.29      -1790      25.14     
599.15     5710.003   55.31      -1790.002  25.15     
599.35     5797.834   55.32      -1845.001  25.15     
599.55     1566.997   55.34      -1860      25.15     
599.75     1502.002   55.37      -1859.997  25.16     
599.95     1550.992   55.37      -1790      25.16     
600.15     1335.002   55.39      -1790      25.17     
600.35     1377.019   55.41      -1797.002  25.18     
600.55     1868.995   55.43      -1851.998  25.18     
600.75     1743.009   55.45      -1790      25.18     
600.95     1973.992   55.48      -1790      25.19     
601.15     1782.007   55.48      -1790      25.2      
601.35     1970.984   55.48      -1790.003  25.2      
601.55     1553.996   55.51      -1855.998  25.21     
601.75     1450.023   55.53      -1793      25.22     
601.95     2033.991   55.55      -1797.002  25.23     
602.15     1816.991   55.54      -1852.998  25.24     
602.35     1587.011   55.58      -1790      25.24     
602.55     1855.002   55.59      -1790      25.24     
602.75     1912.998   55.61      -1790      25.24     
602.95     1850.992   55.65      -1789.999  25.25     
603.15     1656.011   55.66      -1765      25.25     
603.35     1925.993   55.68      -1760.001  25.26     
603.55     1761.003   55.68      -1790      25.26     
603.75     1835.001   55.71      -1790.002  25.27     
603.95     1865.012   55.75      -1845.001  25.28     
604.15     2160.995   55.76      -1859.998  25.28     
604.35     2038.993   55.76      -1797      25.29     
604.55     1853.996   55.79      -1790      25.29     
604.75     1752.018   55.82      -1794.002  25.3      
604.95     2196.999   55.83      -1852.998  25.31     
605.15     2160.008   55.85      -1790      25.31     
605.35     2368.991   55.86      -1802.002  25.32     
