~Version
 VERS              .         2.0                           : CWLS LOG ASCII STANDARD - VERSION 2.0
 WRAP              .         NO                            : ONE LINE PER DEPTH STEP
 DLM               .         SPACE                         : DELIMITING CHARACTER(SPACE TAB OR COMMA)
~Well Information
#_______________________________________________________________________________
#
#PARAMETER_NAME    .UNIT     VALUE                         : DESCRIPTION
#_______________________________________________________________________________
STRT               .M        2659.4                        : First reference value
STOP               .M        2769.4                        : Last reference value
STEP               .M        0.2                           : Step increment
NULL               .         -9999                         : Missing value
COMP               .                                       : Company
WELL               .         616                           : Well name
FLD                .                                       : Field
LOC                .                                       : Location
CNTY               .                                       : County
STAT               .                                       : State
CTRY               .                                       : Country
SRVC               .                                       : Service Company
DATE               .                                       : Date
API                .                                       : API number
PROJECT_UPGRADE_TIME .         2021-03-18T21_24_50           : 
group              .         Good                          : 
~Parameter Information Block
#_______________________________________________________________________________
#
#PARAMETER_NAME    .UNIT     VALUE                         : DESCRIPTION
#_______________________________________________________________________________
SET                .         D1171_D                       : 
OTHER              .         Программное обеспечение станции MONITOR-386EX 25/12/99 15_08_10   BGF V52 22/08/01 16_56_30   3.2_BGF_N_3070031: 
OTHER_10           .         Тарировки_                    : 
OTHER_11           .         TM.GRD = 0.00403*TM$.UE + -1.19: 
OTHER_12           .         MN.ATM = (7.1e-006*TM.GRD + 0.02017)*(MN$.UE + -3.03*TM.GRD + -1833): 
OTHER_13           .         Id error                      : 
OTHER_2            .         Kedr.exe версия 3.4.2.51      : 
OTHER_3            .         KedrData.dll версия 3.4.2.24  : 
OTHER_4            .         Драйвер версия 2.1.1.8        : 
OTHER_5            .         Мнемоники версия 3.3 S        : 
OTHER_6            .         Прибор_ КСА-М1                : 
OTHER_7            .         Номер прибора_ 265            : 
OTHER_8            .         Режим_ КСА-М1                 : 
OTHER_9            .         Форма_ ТЕРМОМЕТР              : 
PROJECT_UPGRADE_TIME .         2021-03-18T21_24_49           : 
TLFamily_DEPT      .         Measured Depth                : 
TLFamily_GK        .         Gamma Ray                     : 
TLFamily_GK$       .                                       : 
TLFamily_LM        .         Casing Collar locator         : 
TLFamily_METKA     .                                       : 
TLFamily_MN        .                                       : 
TLFamily_MN$       .                                       : 
TLFamily_RCOR      .                                       : 
TLFamily_SPID      .         Spontaneous Potential         : 
TLFamily_STD       .                                       : 
TLFamily_TENS      .         Cable Tension                 : 
TLFamily_TIME      .         Time                          : 
TLFamily_TM        .         Temperature                   : 
TLFamily_TM$       .         Temperature                   : 
TLFamily_VGD       .         Gas Volume                    : 
group              .         prim                          : 
~Curve Information
#_______________________________________________________________________________
#
#LOGNAME           .UNIT     LOG_ID                        : DESCRIPTION
#_______________________________________________________________________________
DEPT               .M                                      : 1 Глубина, м -    0.0 см 
GK                 .MKR/H                                  : 15 Гамма-активность, мкр./ч -  110.0 см 
GK$                .UE                                     : 12 Гамма-активность, усл.ед. -  110.0 см 
LM                 .                                       : 10 Локатор муфт,  -   20.0 см 
METKA              .                                       : 3 Метки,  -    0.0 см 
MN                 .ATM                                    : 14 Давление, атм. -  160.0 см 
MN$                .UE                                     : 8 Давление, усл.ед. -  160.0 см 
RCOR               .CM/KM                                  : 5 Коррекция по ролику, см/км -    0.0 см 
SPID               .M/H                                    : 2 Скорость, м/час -    0.0 см 
STD                .                                       : 11 Приток,  -  170.0 см 
TENS               .T                                      : 6 Натяжение кабеля, т -    0.0 см 
TIME               .S                                      : 4 Время, сек -    0.0 см 
TM                 .GRD                                    : 13 Температура, °C -  180.0 см 
TM$                .UE                                     : 7 Температура, усл.ед. -  180.0 см 
VGD                .                                       : 9 Влагомер,  -  170.0 см 
~Ascii
# ...
2718.2     7.79       360        1          0          260.606    14635      -1400      602        31320      0          27951.37   85.552     21524      6575      
2718.4     8.22       360        1          0          260.647    14637      -1400      605        31305      0          27952.53   85.521     21516      6575      
2718.6     8.44       370        1          0          260.646    14637      -1400      608        31293      0          27953.7    85.495     21510      6575      
2718.8     8.65       374        1          0          260.667    14638      -1400      610        31283      0          27954.87   85.48      21506      6575      
2719       8.65       366        1          0          260.687    14639      -1400      604        31273      0          27956.13   85.462     21502      6575      
2719.2     8.19       341        1          0          260.707    14640      -1400      605        31260      0          27957.27   85.445     21497      6576      
2719.4     8.04       341        1          0          260.728    14641      -1400      609        31253      0          27958.45   85.43      21494      6577      
2719.6     7.07       278        1          0          260.748    14642      -1400      606        31246      0          27959.67   85.416     21490      6577      
2719.8     6.63       272        1          0          260.768    14643      -1400      606        31237      0          27960.84   85.404     21487      6576      
2720       5.79       233        1          2          260.788    14644      -1400      605        31229      0          27962.07   85.375     21480      6575      
2720.2     5.57       233        1          0          260.79     14644      -1400      605        31218      0          27963.24   85.349     21474      6575      
2720.4     5.32       222        1          0          260.828    14646      -1400      602        31207      0          27964.48   85.32      21466      6576      
2720.6     5.23       222        1          0          260.849    14647      -1400      601        31195      0          27965.64   85.297     21461      6576      
2720.8     5.36       233        1          0          260.869    14648      -1400      603        31187      0          27966.81   85.274     21455      6576      
2721       5.42       233        1          0          260.887    14649      -1400      603        31177      0          27968.08   85.256     21451      6576      
2721.2     5.47       236        1          0          260.924    14651      -1400      597        31165      0          27969.21   85.234     21445      6575      
2721.4     5.51       236        1          0          260.93     14651      -1400      601        31159      0          27970.38   85.21      21439      6575      
2721.6     5.52       236        1          0          260.957    14652      -1400      609        31153      0          27971.54   85.205     21438      6575      
2721.8     5.52       236        1          0          260.971    14653      -1400      602        31152      0          27972.77   85.205     21438      6575      
2722       5.55       239        1          0          260.992    14654      -1400      602        31153      0          27973.95   85.205     21438      6574      
2722.2     5.58       239        1          0          261.004    14655      -1400      602        31153      0          27975.11   85.209     21439      6574      
2722.4     5.57       237        1          0          261.034    14656      -1400      601        31158      0          27976.38   85.213     21440      6573      
2722.6     5.55       237        1          0          261.055    14657      -1400      602        31162      0          27977.56   85.218     21441      6572      
2722.8     5.47       228        1          0          261.073    14658      -1400      602        31164      0          27978.68   85.23      21444      6573      
2723       5.31       224        1          0          261.097    14659      -1400      602        31167      0          27979.91   85.237     21446      6572      
2723.2     5.3        229        1          0          261.118    14660      -1400      599        31175      0          27981.08   85.244     21448      6572      
2723.4     5.58       244        1          0          261.142    14661      -1400      598        31178      0          27982.25   85.255     21450      6572      
2723.6     5.67       244        1          0          261.16     14662      -1400      603        31185      0          27983.42   85.267     21453      6571      
2723.8     6.05       268        1          0          261.182    14663      -1400      598        31190      0          27984.65   85.285     21458      6572      
2724       6.2        268        1          0          261.203    14664      -1400      602        31201      0          27985.88   85.294     21460      6573      
2724.2     6.1        257        1          0          261.224    14665      -1400      604        31205      0          27987.03   85.312     21465      6572      
2724.4     6.04       257        1          0          261.242    14666      -1400      607        31211      0          27988.21   85.323     21467      6571      
2724.6     5.76       240        1          0          261.26     14667      -1400      605        31218      0          27989.45   85.334     21470      6572      
2724.8     5.66       240        1          0          261.287    14668      -1400      604        31222      0          27990.55   85.346     21473      6571      
2725       5.85       256        1          0          261.308    14669      -1400      605        31228      0          27991.78   85.352     21474      6571      
2725.2     5.94       256        1          0          261.326    14670      -1400      602        31232      0          27993.01   85.359     21476      6571      
2725.4     5.78       238        1          0          261.344    14671      -1400      601        31236      0          27994.14   85.373     21480      6570      
2725.6     5.63       238        1687       0          261.362    14672      -1400      608        31239      0          27995.35   85.384     21482      6571      
2725.8     5.34       209        927        0          261.392    14673      -1400      606        31246      0          27996.5    85.401     21487      6571      
2726       5.03       209        223        0          261.414    14674      -1400      599        31254      0          27997.74   85.413     21490      6570      
2726.2     5.04       223        1          0          261.435    14675      -1400      599        31262      0          27998.87   85.431     21494      6570      
2726.4     5.29       231        1          0          261.457    14676      -1400      605        31270      0          28000.06   85.454     21500      6570      
2726.6     5.5        246        1          0          261.478    14677      -1400      602        31280      0          28001.28   85.48      21506      6570      
2726.8     5.67       246        1          0          261.5      14678      -1400      604        31292      0          28002.42   85.519     21516      6569      
2727       5.74       248        1          0          261.522    14679      -1400      608        31307      0          28003.66   85.561     21526      6570      
2727.2     5.8        249        1          0          261.544    14680      -1400      605        31325      0          28004.83   85.596     21535      6570      
2727.4     5.81       248        1          0          261.572    14681      -1400      601        31341      0          28006.03   85.65      21548      6569      
2727.6     5.71       242        1          0          261.592    14682      -1400      602        31363      0          28007.22   85.716     21565      6570      
2727.8     5.67       242        1          0          261.627    14684      -1400      611        31389      0          28008.35   85.784     21582      6569      
