~Version
 VERS              .         2.0                           : CWLS LOG ASCII STANDARD - VERSION 2.0
 WRAP              .         NO                            : ONE LINE PER DEPTH STEP
 DLM               .         SPACE                         : DELIMITING CHARACTER(SPACE TAB OR COMMA)
~Well Information
#_______________________________________________________________________________
#
#PARAMETER_NAME    .UNIT     VALUE                         : DESCRIPTION
#_______________________________________________________________________________
STRT               .M        2656                          : First reference value
STOP               .M        2756.3999                     : Last reference value
STEP               .M        0.1999998                     : Step increment
NULL               .         -9999                         : Missing value
COMP               .                                       : Company
WELL               .         616                           : Well name
FLD                .                                       : Field
LOC                .                                       : Location
CNTY               .                                       : County
STAT               .                                       : State
CTRY               .                                       : Country
SRVC               .                                       : Service Company
DATE               .                                       : Date
API                .                                       : API number
PROJECT_UPGRADE_TIME .         2021-03-18T21_24_50           : 
group              .         Good                          : 
~Parameter Information Block
#_______________________________________________________________________________
#
#PARAMETER_NAME    .UNIT     VALUE                         : DESCRIPTION
#_______________________________________________________________________________
SET                .         D4404_D                       : 
OTHER              .         Запись производится в присутствии: 
OTHER_10           .         Максимальная температура      : 
OTHER_11           .         Тип промывочной жидкости      : 
OTHER_12           .         Сопротивление ПЖ (Ом*м) при 20°C: 
OTHER_13           .         Плотность ПЖ(г/см3)           : 
OTHER_14           .         Вязкость ПЖ(с)                : 
OTHER_15           .         Водоотдача ПЖ(см3/30мин)      : 
OTHER_16           .         Уровень ПЖ                    : 
OTHER_17           .         Нефть ПЖ (%)                  : 
OTHER_18           .         Барит ПЖ (%)                  : 
OTHER_19           .         Гематит ПЖ (%)                : 
OTHER_2            .         Заказчик ННСН  ЦДНГ-1         : 
OTHER_20           .         КМЦ ПЖ (%)                    : 
OTHER_21           .         Разгазирование ПЖ (да,нет)    : 
OTHER_22           .         Подъемник                     : 
OTHER_23           .         Лаборатория                   : 
OTHER_24           .         Тип кабеля                    : 
OTHER_25           .         Длина кабеля (м)              : 
OTHER_26           .         Цена последней метки          : 
OTHER_27           .         Цена контрольной метки        : 
OTHER_28           .         Диаметр долота (мм)           : 
OTHER_29           .         Глубина бурения (м)           : 
OTHER_3            .         Площадь                       : 
OTHER_30           .         Искусственный забой (м)       : 
OTHER_31           .         Диаметр колонны (мм)          : 
OTHER_32           .         Толщина колонны (мм)          : 
OTHER_33           .         Башмак колонны (м)            : 
OTHER_34           .         Диаметр НКТ (мм)              : 
OTHER_35           .         Толщина НКТ (мм)              : 
OTHER_36           .         Воронка НКТ (м)               : 
OTHER_37           .         Дата цементожа                : 
OTHER_38           .         Тип, количество(т) и плотность цемента: 
OTHER_39           .         Интервалы перфорации (м)      : 
OTHER_4            .         Категория                     : 
OTHER_40           .         Направление, диаметр (мм)     : 
OTHER_41           .         Направление, глубина (м)      : 
OTHER_42           .         Кондуктор, диаметр (мм)       : 
OTHER_43           .         Кондуктор, глубина (м)        : 
OTHER_44           .         Техническая колонна, диаметр (мм): 
OTHER_45           .         Техническая колонна, глубина (м): 
OTHER_46           .         Эксплуатационная колонна, диаметр (мм): 
OTHER_47           .         Эксплуатационная колонна, глубина (м): 
OTHER_48           .         Программа Кедр-02 версия 3.4  : 
OTHER_49           .         Операционная система Windows NT 5.1 build 2600 Service Pack 2: 
OTHER_5            .         Назначение исследований       : 
OTHER_50           .         Программное обеспечение станции MONITOR-386EX 25/12/99 15_08_10   BGF V54 20/09/05 15_32_17   3.3__BGF_9030071: 
OTHER_51           .         Kedr.exe версия 3.4.2.74      : 
OTHER_52           .         KedrData.dll версия 3.4.2.29  : 
OTHER_53           .         Мнемоники версия 3.18 S       : 
OTHER_54           .         Драйвер версия 2.1.1.4        : 
OTHER_55           .         LasInf.dll 4.3.0.35           : 
OTHER_56           .         Прибор_ КСА-Т4                : 
OTHER_57           .         Номер прибора_ 160            : 
OTHER_58           .         Режим_ КСА-Т4                 : 
OTHER_59           .         Форма_ С.А.Б.                 : 
OTHER_6            .         Альтитуда стола ротора        : 
OTHER_60           .         Тарировки_                    : 
OTHER_61           .         <_techsia_sc_> Дата тарировки температуры 25.05.2010: 
OTHER_62           .         Ручной ввод коэффициентов     : 
OTHER_63           .         TM.DEGC = 0.00402*RTM.E.ACP + -0.994: 
OTHER_64           .         <_techsia_sc_> Дата тарировки давления 25.05.2010: 
OTHER_65           .         Ручной ввод коэффициентов     : 
OTHER_66           .         MN.ATM = (2.27521e-006*TM.DEGC + 0.02078)*(RMN.E.ACP + 6.2*TM.DEGC + -1688): 
OTHER_67           .         <_techsia_sc_> Дата тарировки ГК 25.05.2010: 
OTHER_68           .         Ручной ввод коэффициентов     : 
OTHER_69           .         GR.UR/H = RGR.IMP/MIN / 45.5144: 
OTHER_7            .         Вид исследований 3  6         : 
OTHER_70           .         GK.FLT = 0.1*GR.UR/H[-1] + (1-0.1)*GR.UR/H[0]: 
OTHER_8            .         Начало бурения интервала каротажа: 
OTHER_9            .         Окончание бурения интервала каротажа: 
PROJECT_UPGRADE_TIME .         2021-03-18T21_24_50           : 
TLFamily_CCLC      .                                       : 
TLFamily_DEPT      .         Measured Depth                : 
TLFamily_GK        .         Gamma Ray                     : 
TLFamily_GR        .         Gamma Ray                     : 
TLFamily_METKA     .                                       : 
TLFamily_MN        .                                       : 
TLFamily_RCOR      .                                       : 
TLFamily_RGR       .                                       : 
TLFamily_RMN       .                                       : 
TLFamily_RTEN      .                                       : 
TLFamily_RTM       .                                       : 
TLFamily_SPEE      .         Cable Speed                   : 
TLFamily_TIME      .         Time                          : 
TLFamily_TM        .         Temperature                   : 
group              .         prim                          : 
~Curve Information
#_______________________________________________________________________________
#
#LOGNAME           .UNIT     LOG_ID                        : DESCRIPTION
#_______________________________________________________________________________
DEPT               .M                                      : 1 Глубина, м -    0.0 см 
CCLC               .E.ACP                                  : 9 Локатор муфт,  -   20.0 см 
GK                 .FLT                                    : 14 Гамма-активность фильтрованная, мкр./ч -  110.0 см 
GR                 .UR/H                                   : 13 Гамма-активность, мкр./ч -  110.0 см 
METKA              .CU                                     : 3 Метки,  -    0.0 см 
MN                 .ATM                                    : 12 Давление, атм. -  160.0 см 
RCOR               .CM/KM                                  : 5 Коррекция по ролику, см/км -    0.0 см 
RGR                .IMP/MIN                                : 10 Гамма-активность, усл.ед. -  110.0 см 
RMN                .E.ACP                                  : 8 Давление, усл.ед. -  160.0 см 
RTEN               .T                                      : 6 Натяжение кабеля, т -    0.0 см 
RTM                .E.ACP                                  : 7 Температура, усл.ед. -  170.0 см 
SPEE               .M/H                                    : 2 Скорость, м/час -    0.0 см 
TIME               .S                                      : 4 Время, сек -    0.0 см 
TM                 .DEGC                                   : 11 Температура, °C -  170.0 см 
~Ascii
# ...
2718.399938 104        9.69       9.69       0          244.062    -1108      441        13060      0.21       12667      582        388.75     49.927    
2718.599937 109        9.69       9.69       0          244.089    -1108      441        13061      0.21       12665      581        389.95     49.918    
2718.799937 97         10.02      10.02      0          244.117    -1108      456        13062      0.21       12663      581        391.2      49.911    
2718.999937 81         10.02      10.02      0          244.149    -1108      456        13064      0.21       12661      580        392.52     49.903    
2719.199937 127        10.02      10.02      0          244.168    -1108      456        13065      0.21       12660      581        393.73     49.898    
2719.399937 61         10.02      10.02      0          244.208    -1108      456        13067      0.21       12655      581        394.96     49.88     
2719.599936 67         9.8        9.8        0          244.226    -1108      446        13068      0.21       12652      581        396.21     49.867    
2719.799936 80         9.8        9.8        0          244.246    -1108      446        13069      0.21       12649      580        397.5      49.854    
2719.999936 70         9.91       9.91       0          244.287    -1108      451        13071      0.21       12647      581        398.73     49.847    
2720.199936 75         9.91       9.91       0          244.306    -1108      451        13072      0.21       12645      582        399.97     49.839    
2720.399936 85         10.79      10.79      0          244.325    -1108      491        13073      0.21       12643      582        401.22     49.83     
2720.599935 126        10.79      10.79      0          244.366    -1108      491        13075      0.21       12641      582        402.41     49.823    
2720.799935 63         11.01      11.01      0          244.385    -1108      501        13076      0.21       12638      582        403.72     49.811    
2720.999935 85         11.01      11.01      0          244.405    -1108      501        13077      0.21       12636      582        404.97     49.803    
2721.199935 107        10.59      10.59      0          244.428    -1108      482        13078      0.21       12634      583        406.17     49.795    
2721.399935 119        10.59      10.59      0          244.465    -1108      482        13080      0.21       12632      582        407.41     49.787    
2721.599934 85         10.59      10.59      0          244.485    -1108      482        13081      0.21       12631      583        408.72     49.783    
2721.799934 64         10.59      10.59      0          244.509    -1108      482        13082      0.21       12629      583        409.96     49.777    
2721.999934 57         9.32       9.32       0          244.536    -1108      424        13084      0.21       12628      582        411.16     49.771    
2722.199934 112        9.32       9.32       0          244.566    -1108      424        13085      0.21       12627      583        412.42     49.766    
2722.399934 105        8.44       8.44       0          244.589    -1108      384        13086      0.21       12625      582        413.63     49.758    
2722.599933 58         8.44       8.44       0          244.616    -1108      384        13088      0.21       12623      583        414.92     49.75     
2722.799933 59         10         10         0          244.646    -1108      455        13089      0.21       12621      583        416.17     49.742    
2722.999933 72         10         10         0          244.666    -1108      455        13090      0.21       12620      582        417.4      49.737    
2723.199933 52         11.12      11.12      0          244.687    -1108      506        13091      0.21       12618      582        418.61     49.73     
2723.399933 102        11.12      11.12      0          244.723    -1108      506        13093      0.21       12617      581        419.92     49.726    
2723.599932 92         10.94      10.94      0          244.748    -1108      498        13094      0.21       12617      582        421.17     49.726    
2723.799932 107        10.94      10.94      0          244.776    -1108      498        13095      0.21       12617      581        422.36     49.726    
2723.999932 80         10.48      10.48      0          244.797    -1108      477        13097      0.21       12612      582        423.61     49.706    
2724.199932 73         10.48      10.48      0          244.801    -1108      477        13097      0.21       12603      582        424.86     49.671    
2724.399932 132        8.57       8.57       0          244.84     -1108      390        13099      0.21       12598      582        426.12     49.651    
2724.599931 241        8.57       8.57       0          244.859    -1108      390        13100      0.21       12595      582        427.36     49.638    
2724.799931 431        7.49       7.49       0          244.88     -1108      341        13101      0.21       12593      582        428.62     49.63     
2724.999931 400        7.49       7.49       0          244.922    -1108      341        13103      0.21       12593      583        429.81     49.63     
2725.199931 2884       8.04       8.04       0          244.942    -1108      366        13104      0.21       12592      582        431.13     49.626    
2725.399931 1508       8.04       8.04       0          244.963    -1108      366        13105      0.21       12592      583        432.35     49.626    
2725.59993 481        7.78       7.78       0          244.984    -1108      354        13106      0.21       12592      583        433.57     49.626    
2725.79993 521        7.78       7.78       0          245.005    -1108      354        13107      0.21       12593      583        434.77     49.63     
2725.99993 289        7.49       7.49       2          245.047    -1109      341        13109      0.21       12593      583        436.14     49.629    
2726.19993 493        7.49       7.49       0          245.067    -1110      341        13110      0.21       12592      581        437.45     49.626    
2726.39993 143        7.87       7.87       0          245.088    -1110      358        13111      0.21       12592      581        438.69     49.626    
2726.599929 152        7.87       7.87       0          245.109    -1110      358        13112      0.21       12592      581        439.92     49.626    
2726.799929 107        8.09       8.09       0          245.134    -1110      368        13113      0.21       12592      582        441.14     49.626    
2726.999929 83         8.09       8.09       0          245.16     -1110      368        13114      0.21       12593      582        442.4      49.63     
2727.199929 75         8          8          0          245.194    -1110      364        13116      0.21       12593      581        443.64     49.63     
2727.399929 157        8          8          0          245.215    -1110      364        13117      0.21       12594      581        444.89     49.635    
2727.599928 264        7.36       7.36       0          245.247    -1110      335        13119      0.21       12596      582        446.14     49.642    
2727.799928 184        7.36       7.36       0          245.258    -1110      335        13119      0.21       12596      582        447.35     49.642    
2727.999928 198        7.01       7.01       0          245.285    -1110      319        13120      0.21       12597      583        448.64     49.646    
2728.199928 175        7.01       7.01       0          245.322    -1110      319        13122      0.21       12598      583        449.9      49.65     
2728.399928 176        8.09       8.09       0          245.34     -1110      368        13123      0.21       12599      582        451.12     49.654    
2728.599927 205        8.09       8.09       0          245.365    -1110      368        13124      0.21       12600      583        452.34     49.658    
