~Version
 VERS              .         2.0                           : CWLS LOG ASCII STANDARD - VERSION 2.0
 WRAP              .         NO                            : ONE LINE PER DEPTH STEP
 DLM               .         SPACE                         : DELIMITING CHARACTER(SPACE TAB OR COMMA)
~Well Information
#_______________________________________________________________________________
#
#PARAMETER_NAME    .UNIT     VALUE                         : DESCRIPTION
#_______________________________________________________________________________
STRT               .M        12                            : First reference value
STOP               .M        2758.6                        : Last reference value
STEP               .M        0.2                           : Step increment
NULL               .         -9999                         : Missing value
COMP               .                                       : Company
WELL               .         616                           : Well name
FLD                .                                       : Field
LOC                .                                       : Location
CNTY               .                                       : County
STAT               .                                       : State
CTRY               .                                       : Country
SRVC               .                                       : Service Company
DATE               .                                       : Date
API                .                                       : API number
PROJECT_UPGRADE_TIME .         2021-03-18T21_24_50           : 
group              .         Good                          : 
~Parameter Information Block
#_______________________________________________________________________________
#
#PARAMETER_NAME    .UNIT     VALUE                         : DESCRIPTION
#_______________________________________________________________________________
SET                .         616ULN                        : 
PROJECT_UPGRADE_TIME .         2021-03-18T21_24_49           : 
TLFamily_AK4       .                                       : 
TLFamily_ALFAK     .                                       : 
TLFamily_AMPL      .                                       : 
TLFamily_DEPTH     .         Measured Depth                : 
TLFamily_DK1       .                                       : 
TLFamily_DK2       .                                       : 
TLFamily_DTK       .         Compressional Slowness        : 
TLFamily_QCBL      .                                       : 
TLFamily_T1        .         Travel Time 1                 : 
TLFamily_T2        .         Travel Time 2                 : 
group              .         prim                          : 
~Curve Information
#_______________________________________________________________________________
#
#LOGNAME           .UNIT     LOG_ID                        : DESCRIPTION
#_______________________________________________________________________________
DEPTH              .M                                      : 0 Depth curve 
AK4                .                                       : 2 Амплитуда - Волна по колонне - Канал1 
ALFAK              .дБ/м                                   : 1 Затухание - Волна по колонне 
AMPL               .                                       : 8 Коэффициент усиления ВС 
DK1                .дБ                                     : 3 Кривая ослабления - Волна по колонне - Канал1 
DK2                .дБ                                     : 4 Кривая ослабления - Волна по колонне - Канал2 
DTK                .мкс/м                                  : 5 ДельтаТ - Волна по породе 
QCBL               .                                       : 9 Контакт цемент-колонна 
T1                 .мкс                                    : 6 Время пробега - Волна по породе - Канал1 
T2                 .мкс                                    : 7 Время пробега - Волна по породе - Канал2 
~Ascii
# ...
742        3241.609   11.557     1          11.195     16.973     178.546    2          306.559    395.833   
742.2      3266.705   11.992     1          11.129     17.125     178.544    2          306.388    395.661   
742.4      3312.261   12.371     1          11.01      17.196     178.497    2          306.203    395.453   
742.6      3351.724   12.637     1          10.907     17.225     178.168    2          306.107    395.192   
742.8      3376.009   12.623     1          10.842     17.154     177.872    2          305.98     394.918   
743        3378.232   12.483     1          10.836     17.077     177.263    2          305.967    394.6     
743.2      3360.854   12.181     1          10.881     16.971     176.887    2          305.951    394.395   
743.4      3328.074   11.91      1          10.966     16.921     176.551    2          305.931    394.208   
743.6      3279.924   11.581     1          11.094     16.884     176.559    2          305.818    394.099   
743.8      3221.127   11.274     1          11.255     16.891     177.018    2          305.609    394.119   
744        3146.7     10.988     1          11.462     16.956     178.042    2          305.362    394.385   
744.2      3051.421   10.74      1          11.734     17.104     178.884    2          305.187    394.63    
744.4      2951.169   10.573     1          12.024     17.31      179.49     2          305.126    394.873   
744.6      2854.914   10.387     1          12.31      17.503     179.687    2          305.1      394.944   
744.8      2794.811   10.529     1          12.49      17.754     179.59     2          305.095    394.891   
745        2753.733   10.675     1          12.616     17.953     179.279    2          304.96     394.601   
745.2      2743.64    11.102     1          12.646     18.197     179.338    2          304.707    394.377   
745.4      2723.176   11.318     1          12.712     18.371     179.551    2          304.362    394.139   
745.6      2700.383   11.72      1          12.789     18.648     179.74     2          304.159    394.031   
745.8      2639.985   11.728     1          12.99      18.854     179.89     2          303.954    393.9     
746        2571.637   11.777     1          13.22      19.109     180.138    2          303.859    393.929   
746.2      2502.559   11.569     1          13.452     19.236     180.156    2          303.752    393.831   
746.4      2475.778   11.598     1          13.542     19.341     179.724    2          303.855    393.718   
746.6      2492.825   11.67      1          13.485     19.32      179.151    2          303.917    393.494   
746.8      2554.208   12.032     1          13.279     19.295     178.614    2          304.073    393.381   
747        2632.909   12.361     1          13.016     19.196     178.226    2          304.147    393.261   
747.2      2700.993   12.619     1          12.787     19.097     178.066    2          304.281    393.316   
747.4      2750.632   12.779     1          12.624     19.013     178.527    2          304.189    393.453   
747.6      2779.257   12.9       1          12.532     18.982     179.279    2          304.081    393.721   
747.8      2789.78    13.001     1          12.499     19         179.691    2          303.947    393.794   
748        2778.868   12.925     1          12.534     18.996     179.997    2          303.831    393.831   
748.2      2751.941   12.815     1          12.621     19.028     180.122    2          303.668    393.731   
748.4      2700.235   12.531     1          12.773     19.038     180.315    2          303.518    393.676   
748.6      2621.625   11.776     1          13.337     19.233     178.924    2          303.888    393.351   
748.8      2472.3     10.052     1          14.309     19.682     178.148    2          304.47     393.546   
749        2225.118   8.371      1          15.648     20.52      177.443    2          305.307    394.029   
749.2      1991.406   7.26       1          17.032     21.678     178.306    2          305.884    395.038   
749.4      1801.755   7.784      1          18.162     23.031     178.575    2          306.436    395.725   
749.6      1656.165   10.058     1          18.646     24.351     179.71     2          306.71     396.566   
749.8      1606.846   14.051     1          18.399     25.47      180.412    2          306.562    396.769   
750        1696.888   17.973     1          17.678     26.073     181.011    2          306.018    396.524   
750.2      1793.606   21.239     1          16.817     26.176     181.339    2          305.249    395.919   
750.4      1878.548   22.433     1          16.109     25.764     181.752    2          304.49     395.367   
750.6      1963.559   21.757     1          15.562     24.831     182.464    2          303.578    394.811   
750.8      2048.785   19.963     1          15.231     23.896     182.216    2          302.996    394.105   
751        2140.979   18.261     1          14.833     22.945     182.113    2          302.651    393.708   
751.2      2257.549   16.607     1          14.38      22.005     180.899    2          302.724    393.174   
751.4      2395.292   15.449     1          13.866     21.251     180.145    2          302.832    392.905   
751.6      2519.859   14.687     1          13.412     20.755     179.772    2          302.855    392.742   
751.8      2624.345   14.073     1          13.045     20.082     180.45     2          302.865    393.091   
752        2696.818   13.403     1          12.8       19.502     180.639    2          302.869    393.19    
752.2      2749.866   12.852     1          12.625     19.051     180.29     2          303.071    393.217   
752.4      2773.267   12.437     1          12.55      18.769     180.025    2          303.13     393.143   
752.6      2775.973   12.159     1          12.541     18.621     179.981    2          303.073    393.065   
752.8      2758.254   12.047     1          12.599     18.622     180.181    2          302.843    392.935   
753        2745.515   12.19      1          12.64      18.736     180.13     2          302.753    392.819   
753.2      2798.18    12.779     1          12.504     18.894     179.951    2          302.805    392.781   
753.4      3045.968   14.172     1          11.931     19.017     178.792    2          303.352    392.749   
753.6      3503.277   16.306     1          10.91      19.062     177.047    2          304.311    392.836   
753.8      4122.875   17.967     1          9.574      18.868     175.386    2          305.525    393.219   
754        4767.946   19.085     1          8.211      18.065     174.776    2          306.609    393.998   
754.2      5357.172   18.628     1          7.02       16.645     175.262    2          307.426    395.058   
754.4      5758.327   16.486     1          6.257      14.811     176.635    2          307.855    396.173   
754.6      5963.87    13.57      1          5.9        12.996     178.375    2          308.011    397.199   
754.8      6016.38    11.125     1          5.822      11.385     179.714    2          308.004    397.862   
755        6031.835   9.157      1          5.799      10.378     180.465    2          307.991    398.224   
755.2      6034.339   8.363      1          5.796      9.977      180.653    2          307.975    398.302   
755.4      6023.278   8.373      1          5.812      9.998      181.146    2          307.852    398.426   
755.6      5989.737   8.359      1          5.861      10.041     182.041    2          307.586    398.608   
755.8      5930.444   8.244      1          5.949      10.071     183.13     2          307.312    398.878   
756        5781.538   7.813      1          6.188      10.095     183.787    2          307.17     399.064   
756.2      5519.394   7.079      1          6.632      10.172     184.246    2          307.038    399.162   
756.4      5142.646   6.212      1          7.292      10.398     184.258    2          306.933    399.063   
