~Version
 VERS              .         2.0                           : CWLS LOG ASCII STANDARD - VERSION 2.0
 WRAP              .         NO                            : ONE LINE PER DEPTH STEP
 DLM               .         SPACE                         : DELIMITING CHARACTER(SPACE TAB OR COMMA)
~Well Information
#_______________________________________________________________________________
#
#PARAMETER_NAME    .UNIT     VALUE                         : DESCRIPTION
#_______________________________________________________________________________
STRT               .M        46                            : First reference value
STOP               .M        2756.6                        : Last reference value
STEP               .M        0.2                           : Step increment
NULL               .         -9999                         : Missing value
COMP               .                                       : Company
WELL               .         616                           : Well name
FLD                .                                       : Field
LOC                .                                       : Location
CNTY               .                                       : County
STAT               .                                       : State
CTRY               .                                       : Country
SRVC               .                                       : Service Company
DATE               .                                       : Date
API                .                                       : API number
PROJECT_UPGRADE_TIME .         2021-03-18T21_24_50           : 
group              .         Good                          : 
~Parameter Information Block
#_______________________________________________________________________________
#
#PARAMETER_NAME    .UNIT     VALUE                         : DESCRIPTION
#_______________________________________________________________________________
SET                .         D4390_D                       : 
OTHER              .         Запись производится в присутствии: 
OTHER_10           .         Максимальная температура      : 
OTHER_100          .         GK.FLT = 0.1*GR.UR/H[-1] + (1-0.1)*GR.UR/H[0]: 
OTHER_11           .         Тип промывочной жидкости      : 
OTHER_12           .         Сопротивление ПЖ (Ом*м) при 20°C: 
OTHER_13           .         Плотность ПЖ(г/см3)           : 
OTHER_14           .         Вязкость ПЖ(с)                : 
OTHER_15           .         Водоотдача ПЖ(см3/30мин)      : 
OTHER_16           .         Уровень ПЖ                    : 
OTHER_17           .         Нефть ПЖ (%)                  : 
OTHER_18           .         Барит ПЖ (%)                  : 
OTHER_19           .         Гематит ПЖ (%)                : 
OTHER_2            .         Заказчик ННСН  ЦДНГ-1         : 
OTHER_20           .         КМЦ ПЖ (%)                    : 
OTHER_21           .         Разгазирование ПЖ (да,нет)    : 
OTHER_22           .         Подъемник                     : 
OTHER_23           .         Лаборатория                   : 
OTHER_24           .         Тип кабеля                    : 
OTHER_25           .         Длина кабеля (м)              : 
OTHER_26           .         Цена последней метки          : 
OTHER_27           .         Цена контрольной метки        : 
OTHER_28           .         Диаметр долота (мм)           : 
OTHER_29           .         Глубина бурения (м)           : 
OTHER_3            .         Площадь                       : 
OTHER_30           .         Искусственный забой (м)       : 
OTHER_31           .         Диаметр колонны (мм)          : 
OTHER_32           .         Толщина колонны (мм)          : 
OTHER_33           .         Башмак колонны (м)            : 
OTHER_34           .         Диаметр НКТ (мм)              : 
OTHER_35           .         Толщина НКТ (мм)              : 
OTHER_36           .         Воронка НКТ (м)               : 
OTHER_37           .         Дата цементожа                : 
OTHER_38           .         Тип, количество(т) и плотность цемента: 
OTHER_39           .         Интервалы перфорации (м)      : 
OTHER_4            .         Категория                     : 
OTHER_40           .         Направление, диаметр (мм)     : 
OTHER_41           .         Направление, глубина (м)      : 
OTHER_42           .         Кондуктор, диаметр (мм)       : 
OTHER_43           .         Кондуктор, глубина (м)        : 
OTHER_44           .         Техническая колонна, диаметр (мм): 
OTHER_45           .         Техническая колонна, глубина (м): 
OTHER_46           .         Эксплуатационная колонна, диаметр (мм): 
OTHER_47           .         Эксплуатационная колонна, глубина (м): 
OTHER_48           .         Программа Кедр-02 версия 3.4  : 
OTHER_49           .         Операционная система Windows NT 5.1 build 2600 Service Pack 2: 
OTHER_5            .         Назначение исследований       : 
OTHER_50           .         Программное обеспечение станции MONITOR-386EX 25/12/99 15_08_10   BGF V54 20/09/05 15_32_17   3.3__BGF_9030071: 
OTHER_51           .         Kedr.exe версия 3.4.2.74      : 
OTHER_52           .         KedrData.dll версия 3.4.2.29  : 
OTHER_53           .         Мнемоники версия 3.18 S       : 
OTHER_54           .         Драйвер версия 2.1.1.4        : 
OTHER_55           .         LasInf.dll 4.3.0.35           : 
OTHER_56           .         Прибор_ КСА-Т4                : 
OTHER_57           .         Номер прибора_ 160            : 
OTHER_58           .         Режим_ КСА-Т4                 : 
OTHER_59           .         Форма_ С.А.Б.                 : 
OTHER_6            .         Альтитуда стола ротора        : 
OTHER_60           .         Тарировки_                    : 
OTHER_61           .         <_techsia_sc_> Дата тарировки температуры 25.05.2010: 
OTHER_62           .         Ручной ввод коэффициентов     : 
OTHER_63           .         TM.DEGC = 0.00402*RTM.E.ACP + -0.994: 
OTHER_64           .         <_techsia_sc_> Дата тарировки давления 25.05.2010: 
OTHER_65           .         Ручной ввод коэффициентов     : 
OTHER_66           .         MN.ATM = (2.27521e-006*TM.DEGC + 0.02078)*(RMN.E.ACP + 6.2*TM.DEGC + -1688): 
OTHER_67           .         <_techsia_sc_> Дата тарировки ГК 25.05.2010: 
OTHER_68           .         Ручной ввод коэффициентов     : 
OTHER_69           .         GR.UR/H = RGR.IMP/MIN / 45.5144: 
OTHER_7            .         Вид исследований 3  6         : 
OTHER_70           .         GK.FLT = 0.1*GR.UR/H[-1] + (1-0.1)*GR.UR/H[0]: 
OTHER_71           .         <_techsia_sc_> Дата тарировки температуры 25.05.2010: 
OTHER_72           .         Ручной ввод коэффициентов     : 
OTHER_73           .         TM.DEGC = 0.00402*RTM.E.ACP + -0.994: 
OTHER_74           .         <_techsia_sc_> Дата тарировки давления 25.05.2010: 
OTHER_75           .         Ручной ввод коэффициентов     : 
OTHER_76           .         MN.ATM = (2.27521e-006*TM.DEGC + 0.02078)*(RMN.E.ACP + 6.2*TM.DEGC + -1688): 
OTHER_77           .         <_techsia_sc_> Дата тарировки ГК 25.05.2010: 
OTHER_78           .         Ручной ввод коэффициентов     : 
OTHER_79           .         GR.UR/H = RGR.IMP/MIN / 45.5144: 
OTHER_8            .         Начало бурения интервала каротажа: 
OTHER_80           .         GK.FLT = 0.1*GR.UR/H[-1] + (1-0.1)*GR.UR/H[0]: 
OTHER_81           .         <_techsia_sc_> Дата тарировки температуры 25.05.2010: 
OTHER_82           .         Ручной ввод коэффициентов     : 
OTHER_83           .         TM.DEGC = 0.00402*RTM.E.ACP + -0.994: 
OTHER_84           .         <_techsia_sc_> Дата тарировки давления 25.05.2010: 
OTHER_85           .         Ручной ввод коэффициентов     : 
OTHER_86           .         MN.ATM = (2.27521e-006*TM.DEGC + 0.02078)*(RMN.E.ACP + 6.2*TM.DEGC + -1688): 
OTHER_87           .         <_techsia_sc_> Дата тарировки ГК 25.05.2010: 
OTHER_88           .         Ручной ввод коэффициентов     : 
OTHER_89           .         GR.UR/H = RGR.IMP/MIN / 45.5144: 
OTHER_9            .         Окончание бурения интервала каротажа: 
OTHER_90           .         GK.FLT = 0.1*GR.UR/H[-1] + (1-0.1)*GR.UR/H[0]: 
OTHER_91           .         <_techsia_sc_> Дата тарировки температуры 25.05.2010: 
OTHER_92           .         Ручной ввод коэффициентов     : 
OTHER_93           .         TM.DEGC = 0.00402*RTM.E.ACP + -0.994: 
OTHER_94           .         <_techsia_sc_> Дата тарировки давления 25.05.2010: 
OTHER_95           .         Ручной ввод коэффициентов     : 
OTHER_96           .         MN.ATM = (2.27521e-006*TM.DEGC + 0.02078)*(RMN.E.ACP + 6.2*TM.DEGC + -1688): 
OTHER_97           .         <_techsia_sc_> Дата тарировки ГК 25.05.2010: 
OTHER_98           .         Ручной ввод коэффициентов     : 
OTHER_99           .         GR.UR/H = RGR.IMP/MIN / 45.5144: 
PROJECT_UPGRADE_TIME .         2021-03-18T21_24_50           : 
TLFamily_CCLC      .                                       : 
TLFamily_DEPT      .         Measured Depth                : 
TLFamily_GK        .         Gamma Ray                     : 
TLFamily_GR        .         Gamma Ray                     : 
TLFamily_METKA     .                                       : 
TLFamily_MN        .                                       : 
TLFamily_RCOR      .                                       : 
TLFamily_RGR       .                                       : 
TLFamily_RMN       .                                       : 
TLFamily_RTEN      .                                       : 
TLFamily_RTM       .                                       : 
TLFamily_SPEE      .         Cable Speed                   : 
TLFamily_TIME      .         Time                          : 
TLFamily_TM        .         Temperature                   : 
group              .         prim                          : 
~Curve Information
#_______________________________________________________________________________
#
#LOGNAME           .UNIT     LOG_ID                        : DESCRIPTION
#_______________________________________________________________________________
DEPT               .M                                      : 1 Глубина, м -    0.0 см 
CCLC               .E.ACP                                  : 9 Локатор муфт,  -   20.0 см 
GK                 .FLT                                    : 14 Гамма-активность фильтрованная, мкр./ч -  110.0 см 
GR                 .UR/H                                   : 13 Гамма-активность, мкр./ч -  110.0 см 
METKA              .CU                                     : 3 Метки,  -    0.0 см 
MN                 .ATM                                    : 12 Давление, атм. -  160.0 см 
RCOR               .CM/KM                                  : 5 Коррекция по ролику, см/км -    0.0 см 
RGR                .IMP/MIN                                : 10 Гамма-активность, усл.ед. -  110.0 см 
RMN                .E.ACP                                  : 8 Давление, усл.ед. -  160.0 см 
RTEN               .T                                      : 6 Натяжение кабеля, т -    0.0 см 
RTM                .E.ACP                                  : 7 Температура, усл.ед. -  170.0 см 
SPEE               .M/H                                    : 2 Скорость, м/час -    0.0 см 
TIME               .S                                      : 4 Время, сек -    0.0 см 
TM                 .DEGC                                   : 11 Температура, °C -  170.0 см 
~Ascii
# ...
1668.4     729        6.99       6.99       0          146.765    -871       318        8446       0.12       11128      1633       3559.03    43.742    
1668.6     635        6.99       6.99       0          146.788    -871       318        8447       0.12       11130      1631       3559.46    43.747    
1668.8     662        6.99       6.99       0          146.796    -871       318        8447       0.12       11131      1630       3559.91    43.752    
1669       616        6.99       6.99       0          146.811    -871       318        8448       0.12       11132      1631       3560.36    43.756    
1669.2     549        6.99       6.99       0          146.843    -871       318        8450       0.12       11133      1631       3560.81    43.761    
1669.4     721        6.99       6.99       0          146.854    -871       318        8450       0.12       11134      1629       3561.26    43.766    
1669.6     780        6.99       6.99       0          146.875    -871       318        8451       0.12       11136      1626       3561.71    43.771    
1669.8     781        6.99       6.99       0          146.885    -871       318        8451       0.12       11137      1623       3562.17    43.776    
1670       660        6.95       6.95       0          146.91     -871       316        8453       0.12       11138      1622       3562.59    43.781    
1670.2     793        6.92       6.92       0          146.936    -871       315        8454       0.12       11139      1621       3563.04    43.786    
1670.4     766        6.92       6.92       0          146.941    -871       315        8454       0.12       11141      1621       3563.51    43.792    
1670.6     606        6.92       6.92       0          146.963    -871       315        8455       0.12       11143      1621       3563.97    43.799    
1670.8     592        6.92       6.92       0          146.974    -871       315        8455       0.12       11144      1618       3564.41    43.804    
1671       735        6.92       6.92       0          147        -871       315        8457       0.11       11145      1614       3564.87    43.809    
1671.2     632        6.73       6.73       0          147.026    -871       306        8458       0.11       11146      1610       3565.33    43.814    
1671.4     443        6.7        6.7        0          147.032    -871       305        8458       0.11       11148      1605       3565.8     43.819    
1671.6     478        6.7        6.7        0          147.05     -871       305        8459       0.11       11149      1601       3566.25    43.824    
1671.8     550        6.7        6.7        0          147.073    -871       305        8460       0.11       11150      1601       3566.69    43.829    
1672       1030       6.7        6.7        0          147.093    -871       305        8461       0.12       11151      1602       3567.15    43.834    
1672.2     953        6.71       6.71       0          147.076    -871       306        8460       0.12       11152      1604       3567.57    43.839    
1672.4     803        6.81       6.81       0          147.116    -871       310        8462       0.12       11154      1606       3568.02    43.844    
1672.6     634        6.81       6.81       0          147.127    -871       310        8463       0.12       11155      1606       3568.48    43.849    
1672.8     542        6.81       6.81       0          147.154    -871       310        8464       0.12       11156      1602       3568.95    43.854    
1673       436        6.81       6.81       0          147.161    -871       310        8464       0.12       11157      1602       3569.4     43.859    
1673.2     7078       6.81       6.81       0          147.186    -871       310        8465       0.12       11159      1604       3569.86    43.864    
1673.4     4593       6.99       6.99       0          147.213    -871       318        8466       0.12       11160      1605       3570.33    43.869    
1673.6     3111       7.23       7.23       0          147.239    -871       329        8468       0.12       11161      1604       3570.87    43.873    
1673.8     2065       7.23       7.23       0          147.228    -871       329        8467       0.12       11162      1604       3571.2     43.878    
1674       1081       7.23       7.23       0          147.267    -871       329        8469       0.12       11163      1606       3571.64    43.883    
1674.2     947        7.23       7.23       0          147.275    -871       329        8469       0.12       11165      1605       3572.11    43.888    
1674.4     735        7.15       7.15       0          147.302    -871       325        8471       0.12       11166      1605       3572.55    43.893    
1674.6     708        7.1        7.1        0          147.311    -871       323        8471       0.12       11167      1606       3572.99    43.897    
1674.8     795        7.1        7.1        0          147.334    -871       323        8472       0.12       11168      1607       3573.44    43.901    
1675       712        7.1        7.1        0          147.362    -871       323        8473       0.12       11170      1608       3573.91    43.908    
1675.2     788        7.1        7.1        0          147.387    -871       323        8475       0.12       11171      1608       3574.35    43.913    
1675.4     765        7.1        7.1        0          147.377    -871       323        8474       0.12       11172      1607       3574.79    43.918    
1675.6     716        6.85       6.85       0          147.414    -871       312        8476       0.12       11173      1605       3575.29    43.922    
1675.8     749        6.83       6.83       0          147.423    -871       311        8476       0.12       11175      1604       3575.7     43.927    
1676       820        6.83       6.83       2          147.442    -868       311        8477       0.12       11176      1605       3576.11    43.932    
1676.2     640        6.83       6.83       0          147.454    -868       311        8478       0.12       11177      1606       3576.52    43.937    
1676.4     691        6.83       6.83       0          147.48     -868       311        8479       0.12       11179      1608       3576.98    43.946    
1676.6     649        6.83       6.83       0          147.486    -868       311        8479       0.12       11180      1609       3577.42    43.951    
1676.8     726        6.9        6.9        0          147.508    -868       314        8480       0.12       11182      1609       3577.88    43.956    
1677       653        6.9        6.9        0          147.508    -868       314        8480       0.12       11183      1610       3578.29    43.961    
1677.2     680        6.9        6.9        0          147.522    -868       314        8481       0.12       11184      1611       3578.78    43.966    
1677.4     1013       6.9        6.9        0          147.549    -868       314        8482       0.12       11185      1609       3579.21    43.971    
1677.6     836        6.9        6.9        0          147.553    -868       314        8482       0.12       11187      1609       3579.65    43.977    
1677.8     795        6.97       6.97       0          147.577    -868       317        8483       0.12       11189      1610       3580.11    43.984    
1678       1185       7.27       7.27       0          147.596    -868       331        8484       0.12       11190      1612       3580.56    43.989    
1678.2     869        7.27       7.27       0          147.609    -868       331        8485       0.12       11191      1612       3581.02    43.994    
1678.4     850        7.27       7.27       0          147.635    -868       331        8486       0.12       11192      1610       3581.46    43.999    
1678.6     674        7.27       7.27       0          147.621    -868       331        8485       0.12       11194      1608       3581.9     44.007    
