~Version
 VERS              .         2.0                           : CWLS LOG ASCII STANDARD - VERSION 2.0
 WRAP              .         NO                            : ONE LINE PER DEPTH STEP
 DLM               .         SPACE                         : DELIMITING CHARACTER(SPACE TAB OR COMMA)
~Well Information
#_______________________________________________________________________________
#
#PARAMETER_NAME    .UNIT     VALUE                         : DESCRIPTION
#_______________________________________________________________________________
STRT               .M        0.2                           : First reference value
STOP               .M        2774.2                        : Last reference value
STEP               .M        0.2                           : Step increment
NULL               .         -9999                         : Missing value
COMP               .                                       : Company
WELL               .         616                           : Well name
FLD                .                                       : Field
LOC                .                                       : Location
CNTY               .                                       : County
STAT               .                                       : State
CTRY               .                                       : Country
SRVC               .                                       : Service Company
DATE               .                                       : Date
API                .                                       : API number
PROJECT_UPGRADE_TIME .         2021-03-18T21_24_50           : 
group              .         Good                          : 
~Parameter Information Block
#_______________________________________________________________________________
#
#PARAMETER_NAME    .UNIT     VALUE                         : DESCRIPTION
#_______________________________________________________________________________
SET                .         D1799_D_2                     : 
NPR                .                                       : 
OTHER              .         Программное обеспечение станции MONITOR-386EX 25/12/99 15_08_10   BGF V52 22/08/01 16_56_30   3.1_SNGF___BGF_N_092049: 
OTHER_10           .         Тарировки_                    : 
OTHER_11           .         TM.GRD = 0.00403*TM$.UE + -1.07: 
OTHER_12           .         MN.ATM = (9.34907e-006*TM.GRD + 0.02171)*(MN$.UE + -7.93*TM.GRD + -1787): 
OTHER_13           .         GK.MKR/H = LM. / 42.4676      : 
OTHER_14           .         GK.FLT = 0.1*GK.MKR/H[-1] + (1-0.1)*GK.MKR/H[0]: 
OTHER_2            .         Kedr.exe версия 3.4.2.51      : 
OTHER_3            .         KedrData.dll версия 3.4.2.24  : 
OTHER_4            .         Драйвер версия 2.1.1.3        : 
OTHER_5            .         Мнемоники версия 3.3 S        : 
OTHER_6            .         Прибор_ КСА-Т4                : 
OTHER_7            .         Номер прибора_ 03             : 
OTHER_8            .         Режим_ КСА-Т4                 : 
OTHER_9            .         Форма_ КВА.                   : 
PR                 .                                       : 
PROJECT_UPGRADE_TIME .         2021-03-18T21_24_49           : 
PRTY               .         ПП-603-1                      : N партии
SRV                .                                       : 
SRVC               .         Карпов                        : Начальник партии
TLFamily_DEPT      .         Measured Depth                : 
TLFamily_LM        .         Casing Collar locator         : 
TLFamily_MN        .                                       : 
TLFamily_TM        .         Temperature                   : 
group              .         second                        : 
~Curve Information
#_______________________________________________________________________________
#
#LOGNAME           .UNIT     LOG_ID                        : DESCRIPTION
#_______________________________________________________________________________
DEPT               .M                                      : Depth curve 
LM                 .е.ацп                                  : Локатор муфт,е.ацп 
MN                 .атм                                    : Манометрия, атм 
TM                 .град.C                                 : Термограмма по стволу скважины,град.C 
~Ascii
# ...
546.2      771.994    51.148     28.751    
546.4      634.231    51.168     28.754    
546.6      6299.906   51.187     28.758    
546.8      3998.942   51.186     28.764    
547        2587       51.206     28.77     
547.2      2586.965   51.227     28.774    
547.4      1720.98    51.247     28.779    
547.6      1235.987   51.266     28.786    
547.8      905.996    51.285     28.789    
548        802.994    51.305     28.793    
548.2      652.998    51.325     28.797    
548.4      601.998    51.334     28.804    
548.6      565        51.352     28.808    
548.8      573.997    51.376     28.816    
549        505.999    51.381     28.82     
549.2      490.001    51.399     28.823    
549.4      515.002    51.419     28.829    
549.6      553.998    51.44      28.835    
549.8      495        51.46      28.841    
550        497        51.459     28.849    
550.2      502.001    51.502     28.855    
550.4      521        51.501     28.861    
550.6      528        51.542     28.867    
550.8      529        51.563     28.872    
551        529.004    51.565     28.878    
551.2      617        51.582     28.882    
551.4      626.999    51.585     28.886    
551.6      607.998    51.614     28.891    
551.8      567.999    51.641     28.898    
552        552.003    51.649     28.901    
552.2      627.998    51.671     28.901    
552.4      581.001    51.701     28.909    
552.6      600        51.713     28.913    
552.8      596.002    51.719     28.913    
553        641        51.739     28.919    
553.2      651.999    51.759     28.924    
553.4      626.999    51.779     28.931    
553.6      606.998    51.8       28.936    
553.8      566        51.819     28.94     
554        564.001    51.839     28.943    
554.2      600        51.839     28.949    
554.4      599.997    51.875     28.955    
554.6      520.999    51.899     28.96     
554.8      503.001    51.903     28.967    
555        531        51.932     28.971    
555.2      541.003    51.946     28.974    
555.4      602        51.957     28.978    
555.6      599        51.976     28.986    
555.8      593.998    51.996     28.989    
556        547.001    52.016     28.997    
556.2      569.999    52.036     29.001    
556.4      545        52.051     29.005    
556.6      541.999    52.054     29.012    
556.8      519.001    52.073     29.017    
557        542.002    52.093     29.02     
557.2      595.34     52.092     29.024    
557.4      8780.865   52.091     29.03     
557.6      5540       52.15      29.036    
557.8      5539.918   52.156     29.04     
558        3569.948   52.189     29.043    
558.2      2327.968   52.198     29.048    
558.4      1558.982   52.213     29.055    
558.6      1131.987   52.233     29.059    
558.8      815.994    52.252     29.063    
559        660.999    52.271     29.066    
559.2      632.999    52.291     29.074    
559.4      610.999    52.311     29.078    
559.6      584.998    52.331     29.082    
559.8      536.999    52.346     29.086    
560        510        52.356     29.089    
560.2      506        52.389     29.094    
560.4      509        52.391     29.097    
560.6      513        52.414     29.103    
560.8      506.998    52.453     29.109    
561        455        52.452     29.115    
561.2      449        52.472     29.121    
561.4      449.001    52.491     29.126    
561.6      481.001    52.493     29.132    
561.8      493        52.509     29.137    
562        500.002    52.545     29.144    
562.2      546.999    52.571     29.148    
562.4      534        52.578     29.152    
562.6      534        52.59      29.155    
562.8      536        52.609     29.159    
563        543.999    52.629     29.167    
563.2      522        52.649     29.174    
563.4      519.999    52.669     29.175    
563.6      486.004    52.688     29.178    
563.8      592.001    52.705     29.185    
564        613.002    52.706     29.19     
564.2      652.003    52.727     29.194    
564.4      732.999    52.746     29.199    
564.6      703.998    52.767     29.205    
564.8      651        52.806     29.211    
565        650.999    52.81      29.217    
565.2      625        52.826     29.222    
565.4      626        52.83      29.228    
565.6      626.998    52.858     29.232    
565.8      581        52.886     29.236    
566        581.001    52.894     29.24     
566.2      597        52.904     29.248    
566.4      605.001    52.934     29.252    
566.6      639.997    52.958     29.256    
566.8      566        52.964     29.263    
567        555        52.983     29.267    
567.2      566        52.999     29.273    
567.4      560        53.007     29.279    
567.6      550.998    53.044     29.282    
567.8      508        53.063     29.286    
568        512        53.062     29.292    
568.2      505.001    53.102     29.298    
568.4      540.327    53.042     29.302    
568.6      8261.881   53.133     29.306    
568.8      5459.918   53.148     29.309    
569        3519.948   53.163     29.314    
569.2      2301.967   53.184     29.321    
569.4      1512.981   53.189     29.325    
569.6      1067       53.204     29.33     
569.8      1066.988   53.224     29.336    
570        774.995    53.245     29.337    
570.2      652.998    53.266     29.344    
570.4      602.997    53.299     29.345    
570.6      523        53.318     29.349    
570.8      516.999    53.329     29.353    
571        505        53.349     29.361    
571.2      515.999    53.359     29.364    
571.4      484.001    53.375     29.368    
571.6      496.002    53.402     29.372    
571.8      533        53.407     29.376    
572        542.999    53.428     29.38     
572.2      515        53.448     29.386    
572.4      516        53.47      29.389    
572.6      510.001    53.487     29.391    
572.8      526.001    53.488     29.398    
573        537.999    53.509     29.403    
573.2      506.001    53.551     29.407    
573.4      524.002    53.549     29.413    
573.6      576.003    53.569     29.421    
573.8      654.001    53.57      29.427    
574        676.999    53.606     29.43     
574.2      645        53.629     29.434    
574.4      644.998    53.633     29.439    
574.6      588.999    53.663     29.446    
574.8      558        53.691     29.451    
575        557.999    53.711     29.458    
575.2      540.999    53.705     29.462    
575.4      519.999    53.72      29.466    
575.6      500.001    53.75      29.474    
575.8      519        53.771     29.477    
576        513        53.792     29.482    
576.2      523        53.802     29.489    
576.4      530        53.811     29.493    
576.6      519        53.841     29.497    
576.8      520.002    53.866     29.505    
577        561.999    53.873     29.509    
577.2      532.999    53.894     29.513    
577.4      506.001    53.913     29.517    
577.6      528.001    53.933     29.523    
577.8      555.999    53.954     29.529    
578        532.999    53.971     29.533    
578.2      509.998    53.975     29.537    
578.4      462.998    53.997     29.541    
578.6      421        54.018     29.545    
578.8      423        54.038     29.549    
579        419.999    54.058     29.552    
579.2      400.019    54.077     29.559    
579.4      834.341    54.079     29.562    
579.6      8741.863   54.12      29.564    
579.8      5569.915   54.12      29.571    
580        3592.946   54.141     29.574    
580.2      2336.966   54.145     29.576    
580.4      1555.979   54.183     29.583    
580.6      1080.989   54.185     29.58     
580.8      837.993    54.203     29.583    
581        687        54.223     29.596    
581.2      686.997    54.244     29.6      
581.4      618.999    54.263     29.604    
581.6      585.999    54.284     29.607    
581.8      556.999    54.303     29.612    
582        539.997    54.31      29.619    
582.2      476        54.336     29.623    
582.4      487.001    54.353     29.627    
