~Version
 VERS              .         2.0                           : CWLS LOG ASCII STANDARD - VERSION 2.0
 WRAP              .         NO                            : ONE LINE PER DEPTH STEP
 DLM               .         SPACE                         : DELIMITING CHARACTER(SPACE TAB OR COMMA)
~Well Information
#_______________________________________________________________________________
#
#PARAMETER_NAME    .UNIT     VALUE                         : DESCRIPTION
#_______________________________________________________________________________
STRT               .M        2668.6                        : First reference value
STOP               .M        2774.399788                   : Last reference value
STEP               .M        0.1999996                     : Step increment
NULL               .         -9999                         : Missing value
COMP               .                                       : Company
WELL               .         616                           : Well name
FLD                .                                       : Field
LOC                .                                       : Location
CNTY               .                                       : County
STAT               .                                       : State
CTRY               .                                       : Country
SRVC               .                                       : Service Company
DATE               .                                       : Date
API                .                                       : API number
PROJECT_UPGRADE_TIME .         2021-03-18T21_24_50           : 
group              .         Good                          : 
~Parameter Information Block
#_______________________________________________________________________________
#
#PARAMETER_NAME    .UNIT     VALUE                         : DESCRIPTION
#_______________________________________________________________________________
SET                .         D1803_D_2                     : 
NPR                .                                       : 
OTHER              .         Программное обеспечение станции MONITOR-386EX 25/12/99 15_08_10   BGF V52 22/08/01 16_56_30   3.1_SNGF___BGF_N_092049: 
OTHER_10           .         Тарировки_                    : 
OTHER_11           .         TM.GRD = 0.00403*TM$.UE + -1.07: 
OTHER_12           .         MN.ATM = (9.34907e-006*TM.GRD + 0.02171)*(MN$.UE + -7.93*TM.GRD + -1787): 
OTHER_13           .         GK.MKR/H = LM. / 42.4676      : 
OTHER_14           .         GK.FLT = 0.1*GK.MKR/H[-1] + (1-0.1)*GK.MKR/H[0]: 
OTHER_2            .         Kedr.exe версия 3.4.2.51      : 
OTHER_3            .         KedrData.dll версия 3.4.2.24  : 
OTHER_4            .         Драйвер версия 2.1.1.3        : 
OTHER_5            .         Мнемоники версия 3.3 S        : 
OTHER_6            .         Прибор_ КСА-Т4                : 
OTHER_7            .         Номер прибора_ 03             : 
OTHER_8            .         Режим_ КСА-Т4                 : 
OTHER_9            .         Форма_ КВА.                   : 
PR                 .                                       : 
PROJECT_UPGRADE_TIME .         2021-03-18T21_24_49           : 
PRTY               .         ПП-603-1                      : N партии
SRV                .                                       : 
SRVC               .         Карпов                        : Начальник партии
TLFamily_DEPT      .         Measured Depth                : 
TLFamily_LM        .         Casing Collar locator         : 
TLFamily_MN        .                                       : 
TLFamily_TM        .         Temperature                   : 
group              .         second                        : 
~Curve Information
#_______________________________________________________________________________
#
#LOGNAME           .UNIT     LOG_ID                        : DESCRIPTION
#_______________________________________________________________________________
DEPT               .M                                      : Depth curve 
LM                 .е.ацп                                  : Локатор муфт,е.ацп 
MN                 .атм                                    : Манометрия, атм 
TM                 .град.C                                 : Термограмма по стволу скважины,град.C 
~Ascii
2668.6000977 -9999      -9999      -9999     
2668.8     -9999      -9999      -9999     
2668.999999 161.397    -9999      -9999     
2669.199999 3019.461   -9999      -9999     
2669.399998 1915.313   -9999      -9999     
2669.599998 508.969    -9999      -9999     
2669.799998 445.029    -9999      -9999     
2669.999997 505.011    -9999      -9999     
2670.199997 527.898    -9999      -9999     
2670.399996 319.985    295.931    -9999     
2670.599996 290.016    296.915    48.784    
2670.799996 321.988    295.705    48.797    
2670.999995 298.013    297.008    48.809    
2671.199995 324.006    295.748    48.813    
2671.399994 337.008    296.837    48.821    
2671.599994 353.975    296.863    48.825    
2671.799994 303.007    297.497    48.825    
2671.999993 316.98     297.059    48.827    
2672.199993 276.013    296.463    48.833    
2672.399992 301.968    297.952    48.833    
2672.599992 237.023    297.019    48.839    
2672.799992 283.978    297.668    48.842    
2672.999991 238.017    297.661    48.846    
2673.199991 272.988    297.415    48.846    
2673.39999 249.001    298.321    48.846    
2673.59999 251.045    297.333    48.85     
2673.79999 343.968    298.311    48.854    
2673.999989 278.969    297.728    48.858    
2674.199989 215.032    298.341    48.862    
2674.399988 281.031    298.2      48.862    
2674.599988 344.961    298.423    48.866    
2674.799988 266.007    298.597    48.866    
2674.999987 279.979    298.177    48.872    
2675.199987 236.992    298.74     48.878    
2675.399986 221.021    298.553    48.882    
2675.599986 262.996    299.085    48.881    
2675.799986 254.973    298.824    48.879    
2675.999985 200        298.652    48.882    
2676.199985 199.011    300.191    48.886    
2676.399984 222.003    298.356    48.887    
2676.599984 228.979    299.629    48.886    
2676.799984 186.991    299.37     48.887    
2676.999983 169.034    299.925    48.894    
2677.199983 239        299.91     48.898    
2677.399982 240.005    299.233    48.902    
2677.599982 249.976    300.479    48.903    
2677.799982 201.006    299.449    48.906    
2677.999981 214        299.72     48.907    
2678.199981 214.026    299.992    48.911    
2678.39998 266.98     299.794    48.914    
2678.59998 225.993    300.633    48.914    
2678.79998 212.006    299.926    48.912    
2678.999979 224.986    300.371    48.918    
2679.199979 195.997    299.821    48.918    
2679.399978 189        295.221    48.922    
2679.599978 189.008    295.131    48.92     
2679.799978 206.006    295.092    48.918    
2679.999977 219.944    293.047    48.914    
2680.199977 2148.391   292.575    48.913    
2680.399976 902.686    300.057    48.904    
2680.599976 260.974    300.086    48.913    
2680.799976 207.975    302.852    48.918    
2680.999975 156.027    303.763    48.926    
2681.199975 211.996    304.202    48.937    
2681.399974 204.077    305.8      48.938    
2681.599974 360.93     306.156    48.948    
2681.799974 216.988    306.854    48.954    
2681.999973 192        309.644    48.962    
2682.199973 193.017    309.915    48.971    
2682.399972 227.989    310.196    48.977    
2682.599972 205.017    309.599    48.982    
2682.799972 240.024    311.924    48.995    
2682.999971 289.994    314.06     49.003    
2683.199971 278.006    312.691    49.011    
2683.39997 290.979    312.922    49.019    
2683.59997 248.991    313.461    49.024    
2683.79997 231.029    314.477    49.035    
2683.999969 289.975    316.435    49.043    
2684.199969 238.999    316.88     49.056    
2684.399968 236.008    317.531    49.061    
2684.599968 251.981    317.315    49.071    
2684.799968 213.018    316.155    49.079    
2684.999967 250.022    317.947    49.091    
2685.199967 294.997    319.544    49.099    
2685.399966 288.979    320.337    49.112    
2685.599966 247.006    323.565    49.121    
2685.799966 260.02     323.142    49.13     
2685.999965 300.99     323.192    49.136    
2686.199965 279.985    323.377    49.148    
2686.399964 248.994    322.479    49.156    
2686.599964 235.992    322.061    49.167    
2686.799964 219.993    322.12     49.18     
2686.999963 205.04     324.368    49.188    
2687.199963 286.996    324.763    49.2      
2687.399962 278.993    325.674    49.209    
2687.599962 265.012    325.343    49.224    
2687.799962 288.982    326.284    49.232    
2687.999961 252.008    326.05     49.236    
2688.199961 269.006    327.979    49.246    
2688.39996 281.994    324.614    49.259    
2688.59996 270.003    326.868    49.264    
2688.79996 275.993    325.41     49.27     
2688.999959 261.007    328.724    49.285    
2689.199959 275.016    327.655    49.3      
2689.399958 308.035    328.703    49.309    
2689.599958 378.995    329.948    49.317    
2689.799958 368.981    330.592    49.327    
2689.999957 330.973    329.526    49.337    
2690.199957 275.999    332.081    49.35     
2690.399956 274.102    331.827    49.363    
2690.599956 482.909    329.737    49.371    
2690.799956 297.991    329.74     49.378    
2690.999955 280.001    330.794    49.39     
2691.199955 282.787    330.918    49.395    
2691.399954 1887.448   330.287    49.408    
2691.599954 760.78     331.233    49.418    
2691.799954 312.978    333.441    49.43     
2691.999953 269.026    332.233    49.441    
2692.199953 321.99     331.175    49.45     
2692.399952 302.038    331.128    49.458    
2692.599952 378.98     329.673    49.468    
2692.799952 337.984    330.97     49.474    
2692.999951 305.007    330.682    49.482    
2693.199951 319.995    332.659    49.492    
2693.39995 308.991    334.143    49.502    
2693.59995 291.017    333.355    49.515    
2693.79995 326.01     333.556    49.523    
2693.999949 346.997    336.543    49.529    
2694.199949 339.98     332.496    49.538    
2694.399948 300.015    332.705    49.543    
2694.599948 329.989    332.204    49.548    
2694.799948 307.017    334.544    49.561    
2694.999947 340.99     335.031    49.571    
2695.199947 320.995    335.039    49.579    
2695.399946 310.009    333.869    49.585    
2695.599946 328.995    334.236    49.603    
2695.799946 317.999    334.424    49.608    
2695.999945 315        333.842    49.617    
2696.199945 313.994    334.338    49.623    
2696.399944 301.013    333.951    49.627    
2696.599944 327.003    336.188    49.641    
2696.799944 333.006    335.151    49.654    
2696.999943 345.99     338.76     49.664    
2697.199943 324.999    335.715    49.668    
2697.399942 322.992    338.863    49.68     
2697.599942 305.99     337.292    49.688    
2697.799942 286.002    337.243    49.7      
2697.999941 290.003    338.863    49.708    
2698.199941 297.009    337.746    49.716    
2698.39994 315.025    337.696    49.727    
2698.59994 365        337.7      49.736    
2698.79994 364.972    339.883    49.742    
2698.999939 307.02     338.071    49.752    
2699.199939 346.983    337.007    49.76     
2699.399938 311.98     336.734    49.769    
2699.599938 272.007    336.622    49.779    
2699.799938 286.004    337.95     49.789    
2699.999937 295.023    338.224    49.797    
2700.199937 340.992    338.488    49.802    
2700.399936 324.993    337.884    49.815    
2700.599936 311.009    338.779    49.824    
2700.799936 329.995    339.104    49.829    
2700.999935 319.024    343.311    49.84     
2701.199935 367        339.429    49.849    
2701.399934 366.986    338.521    49.853    
2701.599934 338.033    340.555    49.862    
2701.799934 405.986    337.613    49.871    
2701.999933 377.81     338.818    49.881    
2702.199933 2026.45    337.009    49.886    
2702.399932 905.78     338.931    49.895    
2702.599932 457.944    339.21     49.904    
2702.799932 343.037    340.66     49.91     
2702.999931 417.981    341.94     49.922    
2703.199931 380.011    339.957    49.928    
2703.39993 403.006    340.151    49.938    
2703.59993 415.993    340.782    49.95     
2703.79993 400.993    338.687    49.959    
2703.999929 386.991    337.997    49.968    
2704.199929 369.056    338.224    49.97     
