~Version
 VERS              .         2.0                           : CWLS LOG ASCII STANDARD - VERSION 2.0
 WRAP              .         NO                            : ONE LINE PER DEPTH STEP
 DLM               .         SPACE                         : DELIMITING CHARACTER(SPACE TAB OR COMMA)
~Well Information
#_______________________________________________________________________________
#
#PARAMETER_NAME    .UNIT     VALUE                         : DESCRIPTION
#_______________________________________________________________________________
STRT               .M        10.2                          : First reference value
STOP               .M        2753.6                        : Last reference value
STEP               .M        0.2                           : Step increment
NULL               .         -9999                         : Missing value
COMP               .                                       : Company
WELL               .         616                           : Well name
FLD                .                                       : Field
LOC                .                                       : Location
CNTY               .                                       : County
STAT               .                                       : State
CTRY               .                                       : Country
SRVC               .                                       : Service Company
DATE               .                                       : Date
API                .                                       : API number
PROJECT_UPGRADE_TIME .         2021-03-18T21_24_50           : 
group              .         Good                          : 
~Parameter Information Block
#_______________________________________________________________________________
#
#PARAMETER_NAME    .UNIT     VALUE                         : DESCRIPTION
#_______________________________________________________________________________
SET                .         D7028_D                       : 
OTHER              .         Kedr.exe версия 2.1.2.32      : 
OTHER_10           .         TM.GRD = 0.00404*TM$.UE + 0.07: 
OTHER_11           .         MN.ATM = (6.33279e-006*TM.GRD + 0.02401)*(MN$.UE + 2.72*TM.GRD + -2018): 
OTHER_12           .         GK.MKR/H = GK$.UE / 43.5489 + 0: 
OTHER_13           .         RES.SM = 0.00476*CRES.UE - 1.51709: 
OTHER_14           .         PL.GSM3 = 0 + 0 * (PL.UE / 1) +  0 * (PL.UE / 1)^2: 
OTHER_15           .         Постоянная времени ГГП = 6 сек: 
OTHER_16           .         Постоянная времени ГК = 6 сек : 
OTHER_2            .         KedrData.dll версия 3.2.2.14  : 
OTHER_3            .         LasInf.dll версия 3.2.0.13    : 
OTHER_4            .         Драйвер версия 1.2.0.5        : 
OTHER_5            .         Прибор_ КСА-M1                : 
OTHER_6            .         Номер прибора_ 155+р204       : 
OTHER_7            .         Режим_ КСА-М1 + ГГП + Резистивиметр: 
OTHER_8            .         Форма_ 223\2                  : 
OTHER_9            .         Тарировки_                    : 
PROJECT_UPGRADE_TIME .         2021-03-18T21_24_50           : 
TLFamily_CRES      .                                       : 
TLFamily_DEPT      .         Measured Depth                : 
TLFamily_GK        .         Gamma Ray                     : 
TLFamily_GK$       .                                       : 
TLFamily_LM        .         Casing Collar locator         : 
TLFamily_METKA     .                                       : 
TLFamily_MN        .                                       : 
TLFamily_MN$       .                                       : 
TLFamily_PL        .                                       : 
TLFamily_PL_2      .                                       : 
TLFamily_RCOR      .                                       : 
TLFamily_RES       .         Mud Resistivity               : 
TLFamily_SPID      .         Spontaneous Potential         : 
TLFamily_STD       .                                       : 
TLFamily_TIME      .         Time                          : 
TLFamily_TM        .         Temperature                   : 
TLFamily_TM$       .         Temperature                   : 
TLFamily_VGD       .         Gas Volume                    : 
group              .         prim                          : 
~Curve Information
#_______________________________________________________________________________
#
#LOGNAME           .UNIT     LOG_ID                        : DESCRIPTION
#_______________________________________________________________________________
DEPT               .M                                      : 1 Глубина, м -    0.0 см 
CRES               .UE                                     : 9 Проводимость, усл.ед. -  222.0 см 
GK                 .MKR/H                                  : 16 Гамма-активность, мкр./ч -  106.0 см 
GK$                .UE                                     : 13 Гамма-активность, усл.ед. -  106.0 см 
LM                 .                                       : 11 Локатор муфт,  -   16.0 см 
METKA              .                                       : 3 Метки,  -    0.0 см 
MN                 .ATM                                    : 15 Давление, атм. -  160.0 см 
MN$                .UE                                     : 7 Давление, усл.ед. -  160.0 см 
PL                 .UE                                     : 10 Плотность, усл.ед. -  270.0 см 
PL_2               .GSM3                                   : 18 Плотность, г./см3 -  270.0 см 
RCOR               .CM/KM                                  : 5 Коррекция по ролику, см/км -    0.0 см 
RES                .SM                                     : 17 Проводимость,  -  222.0 см 
SPID               .M/H                                    : 2 Скорость, м/час -    0.0 см 
STD                .                                       : 12 Приток,  -  170.0 см 
TIME               .S                                      : 4 Время, сек -    0.0 см 
TM                 .GRD                                    : 14 Температура, °C -  180.0 см 
TM$                .UE                                     : 6 Температура, усл.ед. -  180.0 см 
VGD                .                                       : 8 Влагомер,  -  170.0 см 
~Ascii
# ...
740        914        3.08       147        1766       0          68.845     4785       14         0          0          2.832      -1818      5657       22722.05   28.907     7138       6546      
740.2      912        3          147        1859       0          68.868     4786       14         0          0          2.8253     -1860      5659       22721.54   28.911     7139       6545      
740.4      910        2.91       147        2487       0          68.87      4786       14         0          0          2.8165     -1860      5660       22721.14   28.919     7141       6539      
740.6      907        2.8        147        3391       0          68.895     4787       14         0          0          2.8025     -1804      5661       22720.76   28.924     7142       6544      
740.8      907        2.67       123        5199       0          68.919     4788       14         0          0          2.8002     -1790      5662       22720.36   28.932     7144       6560      
741        906        2.63       119        8263       0          68.922     4788       14         0          0          2.796      -1790      5661       22719.96   28.936     7145       6551      
741.2      906        2.59       119        1999       0          68.948     4789       14         0          0          2.7955     -1856      5662       22719.56   28.933     7144       6548      
741.4      905        2.55       119        2074       0          68.969     4790       14         0          0          2.791      -1790      5663       22719.16   28.94      7146       6549      
741.6      902        2.51       119        1624       0          68.979     4790       14         0          0          2.7764     -1790      5665       22718.78   28.946     7147       6564      
741.8      902        2.46       110        1962       0          68.993     4791       14         0          0          2.7767     -1797      5666       22718.36   28.953     7149       6554      
742        903        2.45       101        1748       0          69.032     4793       14         0          0          2.7814     -1860      5667       22717.97   28.951     7149       6511      
742.2      904        2.48       101        1881       0          69.042     4793       14         0          0          2.785      -1846      5668       22717.56   28.952     7149       6496      
742.4      904        2.51       101        1954       0          69.063     4794       15         0          0          2.7842     -1805      5667       22717.18   28.958     7151       6493      
742.6      912        2.56       101        1843       0          69.089     4795       14         0          0          2.825      -1860      5668       22716.78   28.963     7152       6484      
742.8      921        2.62       101        1954       0          69.091     4795       15         0          0          2.8664     -1839      5668       22716.38   28.968     7153       6497      
743        929        2.69       101        2164       0          69.116     4796       15         0          0          2.9045     -1790      5667       22715.99   28.964     7152       6513      
743.2      935        2.79       119        2083       0          69.14      4797       14         0          0          2.9333     -1790      5668       22715.58   28.968     7153       6511      
743.4      937        2.8        121        2024       0          69.143     4797       14         0          0          2.9423     -1819      5669       22715.19   28.972     7154       6507      
743.6      938        2.81       121        1638       0          69.165     4798       14         0          0          2.9473     -1888      5670       22714.79   28.977     7155       6508      
743.8      945        2.81       121        1691       0          69.17      4798       14         0          0          2.9821     -1920      5671       22714.39   28.981     7156       6500      
744        947        2.82       121        2004       0          69.195     4799       14         0          0          2.9906     -1887      5672       22714      28.985     7157       6501      
744.2      950        2.83       122        2395       0          69.214     4800       13         0          0          3.0049     -1821      5673       22713.62   28.988     7158       6493      
744.4      953        2.84       126        2082       0          69.222     4800       14         0          0          3.0201     -1790      5674       22713.23   28.99      7159       6483      
744.6      956        2.83       126        1745       0          69.247     4801       14         0          0          3.0327     -1790      5675       22712.83   28.998     7160       6484      
744.8      963        2.81       126        1819       0          69.273     4802       14         0          0          3.0683     -1874      5675       22712.44   29         7161       6495      
745        964        2.79       126        1912       0          69.288     4803       14         0          0          3.0735     -1879      5675       22712.05   29.002     7161       6505      
745.2      962        2.77       126        1830       0          69.3       4803       14         0          0          3.0641     -1860      5676       22711.66   29.004     7162       6511      
745.4      964        2.74       126        1732       0          69.326     4805       14         0          0          3.0715     -1860      5676       22711.27   29.006     7162       6511      
745.6      964        2.7        122        2104       0          69.337     4805       14         0          0          3.0715     -1860      5677       22710.9    29.011     7164       6503      
745.8      964        2.68       114        2360       0          69.351     4806       14         0          0          3.0733     -1860      5677       22710.51   29.015     7165       6510      
746        965        2.69       114        1867       0          69.376     4807       14         0          0          3.0763     -1807      5678       22710.12   29.019     7166       6516      
746.2      965        2.71       114        2183       0          69.387     4807       14         0          0          3.0763     -1848      5679       22709.71   29.023     7167       6515      
746.4      965        2.73       114        1993       0          69.403     4808       14         0          0          3.0763     -1860      5680       22709.32   29.027     7168       6506      
746.6      965        2.76       114        1836       0          69.428     4809       14         0          0          3.0763     -1750      5680       22708.94   29.037     7170       6479      
746.8      965        2.79       117        1719       0          69.436     4809       14         0          0          3.0763     -1846      5681       22708.54   29.033     7169       6488      
747        966        2.82       121        1812       0          69.454     4810       14         0          0          3.0789     -1860      5682       22708.12   29.037     7170       6507      
747.2      966        2.83       121        2031       0          69.478     4811       14         0          0          3.0811     -1856      5682       22707.72   29.041     7171       6511      
747.4      965        2.84       121        1664       0          69.486     4811       14         0          0          3.0782     -1790      5684       22707.32   29.044     7172       6494      
747.6      965        2.85       121        1782       0          69.504     4812       14         0          0          3.0763     -1800      5684       22706.92   29.051     7173       6493      
747.8      965        2.87       121        1622       0          69.51      4812       14         0          0          3.0763     -1849      5685       22706.54   29.053     7174       6489      
748        965        2.9        121        1417       0          69.531     4813       14         0          0          3.0763     -1790      5684       22706.14   29.056     7175       6494      
