~Version
 VERS              .         2.0                           : CWLS LOG ASCII STANDARD - VERSION 2.0
 WRAP              .         NO                            : ONE LINE PER DEPTH STEP
 DLM               .         SPACE                         : DELIMITING CHARACTER(SPACE TAB OR COMMA)
~Well Information
#_______________________________________________________________________________
#
#PARAMETER_NAME    .UNIT     VALUE                         : DESCRIPTION
#_______________________________________________________________________________
STRT               .M        2667.4                        : First reference value
STOP               .M        2776                          : Last reference value
STEP               .M        0.2000002                     : Step increment
NULL               .         -9999                         : Missing value
COMP               .                                       : Company
WELL               .         616                           : Well name
FLD                .                                       : Field
LOC                .                                       : Location
CNTY               .                                       : County
STAT               .                                       : State
CTRY               .                                       : Country
SRVC               .                                       : Service Company
DATE               .                                       : Date
API                .                                       : API number
PROJECT_UPGRADE_TIME .         2021-03-18T21_24_50           : 
group              .         Good                          : 
~Parameter Information Block
#_______________________________________________________________________________
#
#PARAMETER_NAME    .UNIT     VALUE                         : DESCRIPTION
#_______________________________________________________________________________
SET                .         D1800_D                       : 
OTHER              .         Программное обеспечение станции MONITOR-386EX 25/12/99 15_08_10   BGF V52 22/08/01 16_56_30   3.1_SNGF___BGF_N_092049: 
OTHER_10           .         Тарировки_                    : 
OTHER_11           .         TM.GRD = 0.00403*TM$.UE + -1.07: 
OTHER_12           .         MN.ATM = (9.34907e-006*TM.GRD + 0.02171)*(MN$.UE + -7.93*TM.GRD + -1787): 
OTHER_13           .         GK.MKR/H = LM. / 42.4676      : 
OTHER_14           .         GK.FLT = 0.1*GK.MKR/H[-1] + (1-0.1)*GK.MKR/H[0]: 
OTHER_2            .         Kedr.exe версия 3.4.2.51      : 
OTHER_3            .         KedrData.dll версия 3.4.2.24  : 
OTHER_4            .         Драйвер версия 2.1.1.3        : 
OTHER_5            .         Мнемоники версия 3.3 S        : 
OTHER_6            .         Прибор_ КСА-Т4                : 
OTHER_7            .         Номер прибора_ 03             : 
OTHER_8            .         Режим_ КСА-Т4                 : 
OTHER_9            .         Форма_ КВА.                   : 
PROJECT_UPGRADE_TIME .         2021-03-18T21_24_49           : 
TLFamily_DEPT      .         Measured Depth                : 
TLFamily_GK        .         Gamma Ray                     : 
TLFamily_GK$       .                                       : 
TLFamily_GK_2      .         Gamma Ray                     : 
TLFamily_LM        .         Casing Collar locator         : 
TLFamily_METKA     .                                       : 
TLFamily_MN        .                                       : 
TLFamily_MN$       .                                       : 
TLFamily_RCOR      .                                       : 
TLFamily_SPID      .         Spontaneous Potential         : 
TLFamily_TENS      .         Cable Tension                 : 
TLFamily_TIME      .         Time                          : 
TLFamily_TM        .         Temperature                   : 
TLFamily_TM$       .         Temperature                   : 
group              .         prim                          : 
~Curve Information
#_______________________________________________________________________________
#
#LOGNAME           .UNIT     LOG_ID                        : DESCRIPTION
#_______________________________________________________________________________
DEPT               .M                                      : 1 Глубина, м -    0.0 см 
GK                 .MKR/H                                  : 13 Гамма-активность, мкр./ч -  110.0 см 
GK$                .UE                                     : 10 Гамма-активность, усл.ед. -  110.0 см 
GK_2               .FLT                                    : 14 Гамма-активность фильтрованная, мкр./ч -  110.0 см 
LM                 .                                       : 9 Локатор муфт,  -   20.0 см 
METKA              .                                       : 3 Метки,  -    0.0 см 
MN                 .ATM                                    : 12 Давление, атм. -  160.0 см 
MN$                .UE                                     : 8 Давление, усл.ед. -  160.0 см 
RCOR               .CM/KM                                  : 5 Коррекция по ролику, см/км -    0.0 см 
SPID               .M/H                                    : 2 Скорость, м/час -    0.0 см 
TENS               .T                                      : 6 Натяжение кабеля, т -    0.0 см 
TIME               .S                                      : 4 Время, сек -    0.0 см 
TM                 .GRD                                    : 11 Температура, °C -  170.0 см 
TM$                .UE                                     : 7 Температура, усл.ед. -  170.0 см 
~Ascii
# ...
2761       9.75       414        9.74       102        0          253.504    13647      -600       -216       0.17       6245.64    60.321     15233     
2761.2     8.38       356        8.39       143        0          253.527    13648      -600       -221       0.17       6242.36    60.52      15283     
2761.4     8.64       367        8.67       76         0          253.541    13649      -600       -214       0.17       6238.97    60.68      15323     
2761.6     8.71       370        8.71       97         0          253.555    13651      -600       -215       0.17       6235.68    60.75      15340     
2761.8     8.74       371        8.73       84         0          253.573    13652      -600       -219       0.17       6232.41    60.96      15392     
2762       8.62       366        8.62       88         0          253.589    13653      -600       -226       0.17       6229.14    61.115     15430     
2762.2     8.78       373        8.78       131        0          253.607    13654      -600       -226       0.17       6225.73    61.196     15450     
2762.4     8.08       343        8.08       111        0          253.622    13655      -600       -222       0.17       6222.52    61.266     15468     
2762.6     7.96       338        8.12       80         0          253.664    13657      -600       -212       0.17       6219.31    61.341     15487     
2762.8     9.21       391        9.21       84         0          253.68     13658      -600       -210       0.17       6215.91    61.377     15496     
2763       8.57       364        8.57       88         0          253.67     13658      -600       -214       0.17       6212.5     61.55      15538     
2763.2     8.24       350        8.25       100        0          253.689    13659      -600       -224       0.17       6209.22    61.605     15552     
2763.4     8.29       352        8.29       133        0          253.732    13661      -600       -212       0.17       6205.89    61.649     15563     
2763.6     7.91       336        7.92       80         0          253.747    13662      -600       -215       0.17       6202.48    61.701     15576     
2763.8     8.43       358        8.52       101        0          253.765    13663      -600       -216       0.17       6199.27    61.785     15597     
2764       9.38       399        9.4        108        0          253.781    13664      -600       -223       0.17       6196.06    61.858     15615     
2764.2     9.14       388        9.14       111        0          253.801    13665      -600       -213       0.17       6192.66    61.931     15633     
2764.4     9.14       388        9.14       157        0          253.818    13666      -600       -214       0.17       6189.44    61.995     15649     
2764.6     8.92       379        8.92       100        0          253.858    13668      -600       -211       0.17       6185.84    62.04      15660     
2764.8     8.67       368        8.68       100        0          253.858    13668      -600       -209       0.17       6182.64    62.169     15692     
2765       9.68       411        9.68       122        0          253.881    13670      -600       -216       0.17       6179.23    62.201     15700     
2765.2     9.7        412        9.51       207        0          253.899    13671      -600       -216       0.17       6175.83    62.282     15720     
2765.4     9.07       385        9.06       114        0          253.907    13671      -600       -216       0.17       6172.63    62.334     15733     
2765.6     8.59       365        8.6        123        0          161.731    9536       -600       -217       0.17       6169.4     62.366     15741     
2765.8     8.48       360        8.48       126        0          253.955    13673      -600       -215       0.17       6166       62.431     15757     
2766       8.15       346        8.16       130        0          253.985    13675      -600       -206       0.17       6162.61    62.466     15766     
2766.2     8.9        378        8.98       167        0          254.003    13676      -600       -214       0.17       6159.2     62.544     15785     
2766.4     9.87       419        9.7        136        0          254.024    13677      -600       -218       0.17       6155.8     62.56      15789     
2766.6     7.86       334        7.86       155        0          254.044    13678      -600       -223       0.17       6152.57    62.594     15798     
2766.8     7.23       307        7.33       190        0          254.064    13679      -600       -217       0.17       6149.19    62.617     15803     
2767       8.3        352        8.25       206        0          254.082    13680      -600       -219       0.17       6145.84    62.681     15819     
2767.2     7.37       313        7.37       132        0          254.101    13681      -600       -219       0.17       6142.56    62.745     15835     
2767.4     7.09       301        7.05       166        0          254.121    13682      -600       -209       0.17       6139.3     62.763     15839     
2767.6     6.83       290        6.83       214        0          254.142    13683      -600       -207       0.17       6135.95    62.797     15848     
2767.8     6.92       294        6.92       131        0          254.18     13685      -600       -206       0.17       6132.55    62.842     15859     
2768       6.99       297        7.08       143        0          254.175    13685      -600       -210       0.17       6128.95    62.944     15884     
2768.2     8.22       349        8.36       164        0          254.183    13685      -600       -208       0.17       6125.69    62.992     15896     
2768.4     8.62       366        8.62       246        0          254.213    13687      -600       -199       0.17       6122.34    63.043     15909     
2768.6     8.83       375        8.84       144        0          254.23     13688      -600       -206       0.17       6118.75    63.112     15926     
2768.8     8.78       373        8.78       135        0          254.25     13689      -600       -201       0.17       6115.34    63.15      15936     
2769       8.74       371        8.74       197        0          254.243    13689      -600       -215       0.17       6111.95    63.215     15951     
2769.2     8.85       376        8.75       129        0          254.27     13691      -600       -217       0.17       6108.42    63.317     15977     
2769.4     6.88       292        6.88       150        0          254.301    13692      -600       -213       0.17       6105.14    63.374     15991     
2769.6     7.65       325        7.67       948        0          254.296    13692      -600       -224       0.17       6101.73    63.442     16008     
2769.8     8.5        361        8.53       2362       0          254.333    13694      -600       -232       0.19       6098.52    63.527     16029     
2770       9.18       390        9.18       176        2          254.324    13694      -600       -227       0.17       6095.3     63.664     16063     
2770.2     9.3        395        9.3        185        0          254.343    13695      -600       -222       0.17       6093.41    63.736     16081     
2770.4     9.12       387        9.08       196        0          254.381    13697      -600       -228       0.17       6090.39    63.783     16092     
2770.6     8.43       358        8.43       170        0          254.374    13697      -600       -211       0.17       6086.98    63.886     16118     
2770.8     8.15       346        8.19       151        0          254.366    13697      -600       -214       0.17       6083.77    64.007     16148     
2771       8.72       370        8.72       166        0          254.384    13698      -600       -219       0.17       6080.56    64.102     16172     
2771.2     8.71       370        8.57       203        0          254.401    13699      -600       -216       0.17       6077.16    64.16      16186     
