~Version
 VERS              .         2.0                           : CWLS LOG ASCII STANDARD - VERSION 2.0
 WRAP              .         NO                            : ONE LINE PER DEPTH STEP
 DLM               .         SPACE                         : DELIMITING CHARACTER(SPACE TAB OR COMMA)
~Well Information
#_______________________________________________________________________________
#
#PARAMETER_NAME    .UNIT     VALUE                         : DESCRIPTION
#_______________________________________________________________________________
STRT               .M        2658                          : First reference value
STOP               .M        2762                          : Last reference value
STEP               .M        0.2                           : Step increment
NULL               .         -9999                         : Missing value
COMP               .                                       : Company
WELL               .         616                           : Well name
FLD                .                                       : Field
LOC                .                                       : Location
CNTY               .                                       : County
STAT               .                                       : State
CTRY               .                                       : Country
SRVC               .                                       : Service Company
DATE               .                                       : Date
API                .                                       : API number
PROJECT_UPGRADE_TIME .         2021-03-18T21_24_50           : 
group              .         Good                          : 
~Parameter Information Block
#_______________________________________________________________________________
#
#PARAMETER_NAME    .UNIT     VALUE                         : DESCRIPTION
#_______________________________________________________________________________
SET                .         D8103_D                       : 
OTHER              .         Программное обеспечение станции MONITOR-386EX 25/12/99 15_08_10   BGF V52 22/08/01 16_56_30   4_SNGF_BGF_N_011645: 
OTHER_10           .         Тарировки_                    : 
OTHER_11           .         TM.GRD = 0.00412*TM$.UE + -2.13: 
OTHER_12           .         MN.ATM = (5.87652e-006*TM.GRD + 0.01993)*(MN$.UE + -2.72*TM.GRD + -1925): 
OTHER_13           .         GK.MKR/H = GK$.UE / 57.4657   : 
OTHER_2            .         Kedr.exe версия 3.4.2.51      : 
OTHER_3            .         KedrData.dll версия 3.4.2.24  : 
OTHER_4            .         Драйвер версия 2.1.0.2        : 
OTHER_5            .         Мнемоники версия 3.3 S        : 
OTHER_6            .         Прибор_ АКП4-90               : 
OTHER_7            .         Номер прибора_ 53             : 
OTHER_8            .         Режим_ АКП4_90                : 
OTHER_9            .         Форма_ ПК-53ое                : 
PROJECT_UPGRADE_TIME .         2021-03-18T21_24_50           : 
TLFamily_DEPT      .         Measured Depth                : 
TLFamily_GK        .         Gamma Ray                     : 
TLFamily_GK$       .                                       : 
TLFamily_LM        .         Casing Collar locator         : 
TLFamily_METKA     .                                       : 
TLFamily_METKA_1   .                                       : 
TLFamily_MN        .                                       : 
TLFamily_MN$       .                                       : 
TLFamily_RCOR      .                                       : 
TLFamily_SPID      .         Spontaneous Potential         : 
TLFamily_TENS      .         Cable Tension                 : 
TLFamily_TIME      .         Time                          : 
TLFamily_TM        .         Temperature                   : 
TLFamily_TM$       .         Temperature                   : 
group              .         prim                          : 
~Curve Information
#_______________________________________________________________________________
#
#LOGNAME           .UNIT     LOG_ID                        : DESCRIPTION
#_______________________________________________________________________________
DEPT               .M                                      : 1 Глубина, м -    0.0 см 
GK                 .MKR/H                                  : 13 Гамма-активность, мкр./ч -   65.0 см 
GK$                .UE                                     : 10 Гамма-активность, усл.ед. -   65.0 см 
LM                 .                                       : 9 Локатор муфт,  -   30.0 см 
METKA              .                                       : 3 Метки,  -    0.0 см 
METKA_1            .                                       : 14 Маркеры - 65 см 
MN                 .ATM                                    : 12 Давление, атм. -  140.0 см 
MN$                .UE                                     : 8 Давление, усл.ед. -  140.0 см 
RCOR               .CM/KM                                  : 5 Коррекция по ролику, см/км -    0.0 см 
SPID               .M/H                                    : 2 Скорость, м/час -    0.0 см 
TENS               .T                                      : 6 Натяжение кабеля, т -    0.0 см 
TIME               .S                                      : 4 Время, сек -    0.0 см 
TM                 .GRD                                    : 11 Температура, °C -  145.0 см 
TM$                .UE                                     : 7 Температура, усл.ед. -  145.0 см 
~Ascii
2658.0     -9999      -9999      -9999      -9999      0          -9999      -9999      -9999      -9999      -9999      -9999      -9999      -9999     
2658.2     -9999      -9999      -9999      -9999      0          -9999      -9999      -9999      -9999      -9999      -9999      -9999      -9999     
2658.4     -9999      -9999      -9999      0          0          -9999      -9999      -35        -334       0.8        3974.1     -9999      -9999     
2658.6     -9999      -9999      -9999      0          0          -9999      -9999      -35        -337       0.8        3972.02    -9999      -9999     
2658.8     -9999      -9999      186        0          0          -9999      -9999      -35        -333       0.8        3969.94    -9999      -9999     
2659       5.94       341        189        0          0          -9999      -9999      -35        -337       0.8        3967.77    -9999      -9999     
2659.2     6.4        368        177        0          0          -9999      -9999      -35        -334       0.8        3965.59    -9999      -9999     
2659.4     6.35       365        114        0          0          -9999      -9999      -35        -336       0.8        3963.52    -9999      -9999     
2659.6     5.99       344        68         0          0          -9999      -9999      -35        -325       0.8        3961.43    -9999      -9999     
2659.8     5.69       327        155        0          0          243.186    14127      -35        -337       0.8        3959.23    66.085     16557     
2660       5.91       339        495        0          0          243.246    14130      -35        -336       0.8        3957.09    66.09      16558     
2660.2     6          345        393        0          0          243.246    14130      -35        -339       0.8        3954.91    66.097     16560     
2660.4     5.95       342        90         0          0          243.251    14130      -35        -343       0.81       3952.81    66.101     16561     
2660.6     5.09       292        237        2          0          243.305    14133      -32        -340       0.8        3950.28    66.11      16563     
2660.8     4.84       278        4305       0          0          243.325    14134      -32        -342       0.8        3948.23    66.11      16563     
2661       5.24       301        20070      0          0          243.315    14134      -32        -339       0.8        3946.14    66.118     16565     
2661.2     5.64       324        4700       0          0          243.345    14135      -32        -342       0.8        3943.96    66.129     16568     
2661.4     5.33       306        185        0          0          243.385    14137      -32        -337       0.8        3941.88    66.129     16568     
2661.6     5.24       301        224        0          0          243.38     14137      -32        -333       0.8        3939.74    66.134     16569     
2661.8     5.2        299        763        0          0          243.398    14138      -32        -341       0.8        3937.53    66.134     16569     
2662       5.75       331        411        0          0          243.445    14140      -32        -342       0.8        3935.45    66.14      16570     
2662.2     5.97       343        72         0          0          243.45     14140      -32        -341       0.8        3933.31    66.151     16573     
2662.4     5.51       317        134        0          0          243.45     14140      -32        -339       0.8        3931.2     66.151     16573     
2662.6     4.94       284        124        0          0          243.495    14142      -32        -340       0.8        3929.03    66.147     16572     
2662.8     5.27       303        77         0          0          243.525    14144      -32        -328       0.8        3926.95    66.147     16572     
2663       5.56       319        80         0          0          243.525    14144      -32        -328       0.8        3924.86    66.151     16573     
2663.2     5.53       318        612        0          0          243.545    14145      -32        -329       0.8        3922.7     66.151     16573     
2663.4     5.44       313        732        0          0          243.564    14146      -32        -337       0.8        3920.58    66.151     16573     
2663.6     5.35       308        247        0          0          243.558    14146      -32        -337       0.8        3918.44    66.151     16573     
2663.8     4.98       286        118        0          0          243.604    14148      -32        -333       0.8        3916.3     66.151     16573     
2664       4.64       266        116        0          0          243.644    14150      -32        -337       0.8        3914.28    66.147     16572     
2664.2     4.03       232        102        0          0          243.644    14150      -32        -336       0.8        3912.11    66.151     16573     
2664.4     3.85       221        126        0          0          243.664    14151      -32        -340       0.8        3909.93    66.148     16572     
2664.6     3.71       213        121        0          0          243.704    14153      -32        -337       0.8        3907.86    66.136     16569     
2664.8     3.57       205        52         0          0          243.704    14153      -32        -342       0.8        3905.77    66.134     16569     
2665       3.66       210        75         0          0          243.704    14153      -32        -340       0.8        3903.57    66.132     16568     
2665.2     3.93       226        104        0          0          243.784    14157      -32        -339       0.8        3901.43    66.118     16565     
2665.4     3.83       220        39         0          0          243.784    14157      -32        -330       0.8        3899.35    66.111     16563     
2665.6     3.83       220        61         0          0          243.784    14157      -32        -338       0.8        3897.26    66.1       16561     
2665.8     3.87       223        87         0          0          243.844    14160      -32        -331       0.8        3895.13    66.085     16557     
2666       4.2        242        65         0          0          243.844    14160      -32        -336       0.8        3893.01    66.071     16554     
2666.2     4.37       251        110        0          0          243.863    14161      -32        -341       0.8        3890.84    66.07      16554     
2666.4     4.37       251        99         0          0          243.897    14163      -32        -332       0.8        3888.76    66.048     16548     
2666.6     4.28       246        67         0          0          243.903    14163      -32        -342       0.8        3886.68    66.027     16543     
2666.8     4.12       237        105        0          0          243.903    14163      -32        -337       0.8        3884.51    66.031     16544     
2667       4.11       236        141        0          0          243.943    14165      -32        -341       0.8        3882.33    66.002     16537     
2667.2     4.33       249        176        0          0          243.97     14166      -32        -341       0.8        3880.26    65.985     16533     
2667.4     4.46       256        193        0          0          243.968    14166      -32        -337       0.8        3878.18    65.969     16529     
2667.6     4.04       232        208        0          0          244.023    14169      -32        -335       0.8        3876.09    65.941     16522     
2667.8     4.32       248        249        0          0          244.023    14169      -32        -339       0.8        3873.92    65.92      16517     
2668       4.33       249        260        0          0          244.023    14169      -32        -334       0.8        3871.81    65.9       16512     
2668.2     4.31       248        233        0          0          244.063    14171      -32        -338       0.8        3869.66    65.883     16508     
