~Version
 VERS              .         2.0                           : CWLS LOG ASCII STANDARD - VERSION 2.0
 WRAP              .         NO                            : ONE LINE PER DEPTH STEP
 DLM               .         SPACE                         : DELIMITING CHARACTER(SPACE TAB OR COMMA)
~Well Information
#_______________________________________________________________________________
#
#PARAMETER_NAME    .UNIT     VALUE                         : DESCRIPTION
#_______________________________________________________________________________
STRT               .M        2655.25                       : First reference value
STOP               .M        2763.850109                   : Last reference value
STEP               .M        0.2000002                     : Step increment
NULL               .         -9999                         : Missing value
COMP               .                                       : Company
WELL               .         616                           : Well name
FLD                .                                       : Field
LOC                .                                       : Location
CNTY               .                                       : County
STAT               .                                       : State
CTRY               .                                       : Country
SRVC               .                                       : Service Company
DATE               .                                       : Date
API                .                                       : API number
PROJECT_UPGRADE_TIME .         2021-03-18T21_24_50           : 
group              .         Good                          : 
~Parameter Information Block
#_______________________________________________________________________________
#
#PARAMETER_NAME    .UNIT     VALUE                         : DESCRIPTION
#_______________________________________________________________________________
SET                .         D7026_D_2                     : 
NPR                .         155                           : Номер прибора
OTHER              .         Kedr.exe версия 2.1.2.32      : 
OTHER_10           .         TM.GRD = 0.00404*TM$.UE + 0.07: 
OTHER_11           .         MN.ATM = (6.33279e-006*TM.GRD + 0.02401)*(MN$.UE + 2.72*TM.GRD + -2018): 
OTHER_12           .         GK.MKR/H = GK$.UE / 43.5489 + 0: 
OTHER_13           .         RES.SM = 0.00476*CRES.UE - 1.51709: 
OTHER_14           .         PL.GSM3 = 0 + 0 * (PL.UE / 1) +  0 * (PL.UE / 1)^2: 
OTHER_15           .         Постоянная времени ГГП = 6 сек: 
OTHER_16           .         Постоянная времени ГК = 6 сек : 
OTHER_2            .         KedrData.dll версия 3.2.2.14  : 
OTHER_3            .         LasInf.dll версия 3.2.0.13    : 
OTHER_4            .         Драйвер версия 1.2.0.5        : 
OTHER_5            .         Прибор_ КСА-M1                : 
OTHER_6            .         Номер прибора_ 155+р204       : 
OTHER_7            .         Режим_ КСА-М1 + ГГП + Резистивиметр: 
OTHER_8            .         Форма_ 223\2                  : 
OTHER_9            .         Тарировки_                    : 
PR                 .         КСА-Т7 М1                     : Тип прибора
PROJECT_UPGRADE_TIME .         2021-03-18T21_24_50           : 
PRTY               .         ПП-223_2                      : Номер партии
SRV                .         ЦКРС                          : Заказчик
SRVC               .         Лузин  А.Б.                   : Начальник партии
TLFamily_DEPT      .         Measured Depth                : 
TLFamily_LM        .         Casing Collar locator         : 
TLFamily_MN        .                                       : 
TLFamily_SPID      .         Spontaneous Potential         : 
TLFamily_TM        .         Temperature                   : 
group              .         second                        : 
~Curve Information
#_______________________________________________________________________________
#
#LOGNAME           .UNIT     LOG_ID                        : DESCRIPTION
#_______________________________________________________________________________
DEPT               .M                                      : Depth curve 
LM                 .е.ацп                                  : Локация муфт 
MN                 .атм                                    : Манометрия, атм 
SPID               .м/ч                                    : Скорость записи,м/час 
TM                 .град.С                                 : Термометрия,град.С 
~Ascii
2655.2500000 -9999      -9999      -9999      -9999     
2655.45    -9999      -9999      130        -9999     
2655.65    19         -9999      190        -9999     
2655.850001 18         -9999      434        -9999     
2656.050001 426        -9999      561        -9999     
2656.250001 569        -9999      640        -9999     
2656.450001 329        -9999      580        -9999     
2656.650001 244        -9999      580        -9999     
2656.850002 241        -9999      580        -9999     
2657.050002 231        243.66     580        -9999     
2657.250002 238        243.69     580        57.95     
2657.450002 242        243.67     530        57.94     
2657.650002 3262       243.64     510        57.94     
2657.850003 4498.999   243.64     580        57.94     
2658.050003 1103       243.71     580        57.93     
2658.250003 410        243.73     569        57.93     
2658.450003 380        243.76     580        57.91     
2658.650003 278        243.78     533        57.89     
2658.850004 198        243.8      580        57.88     
2659.050004 198        243.53     522        57.88     
2659.250004 168        243.34     580        57.87     
2659.450004 135        243.47     580        57.87     
2659.650004 156        243.68     516        57.86     
2659.850005 171        243.87     570        57.85     
2660.050005 193        243.87     580        57.85     
2660.250005 155        243.71     510        57.85     
2660.450005 121        243.6      580        57.84     
2660.650005 107        243.6      522        57.83     
2660.850006 98         243.72     510        57.83     
2661.050006 117        243.87     580        57.82     
2661.250006 125        243.93     580        57.81     
2661.450006 274        243.88     580        57.8      
2661.650006 238        243.8      510        57.8      
2661.850007 152        243.75     580        57.79     
2662.050007 131        243.8      580        57.78     
2662.250007 116        243.9      580        57.78     
2662.450007 136        243.98     510        57.77     
2662.650007 140        243.99     510        57.77     
2662.850008 101        243.95     580        57.76     
2663.050008 130        243.91     580        57.76     
2663.250008 177        243.92     521        57.75     
2663.450008 174        243.97     580        57.74     
2663.650008 88         244.07     533        57.73     
2663.850009 87         244.1      540        57.73     
2664.050009 99         244.1      580        57.72     
2664.250009 101        244.05     580        57.72     
2664.450009 87         244.05     580        57.71     
2664.650009 102        244.09     557        57.7      
2664.85001 139        244.16     580        57.7      
2665.05001 103        244.19     566        57.69     
2665.25001 91         244.21     545        57.68     
2665.45001 55         244.19     522        57.68     
2665.65001 71         244.19     557        57.67     
2665.850011 138        244.21     580        57.66     
2666.050011 111        244.26     580        57.66     
2666.250011 90         244.28     580        57.66     
2666.450011 103        244.31     533        57.64     
2666.650011 72         244.32     533        57.64     
2666.850012 81         244.33     580        57.64     
2667.050012 51         244.33     580        57.63     
2667.250012 74         244.38     545        57.62     
2667.450012 86         244.4      580        57.61     
2667.650012 90         244.42     510        57.61     
2667.850013 53         244.44     557        57.6      
2668.050013 67         244.44     580        57.59     
2668.250013 52         244.44     569        57.58     
2668.450013 56         244.47     520        57.58     
2668.650013 61         244.5      557        57.57     
2668.850014 38.003     244.53     580        57.57     
2669.050014 2620.002   244.54     580        57.56     
2669.250014 4466.996   244.56     522        57.56     
2669.450014 1075.999   244.56     580        57.55     
2669.650014 276        244.59     510        57.55     
2669.850015 107        244.63     545        57.54     
2670.050015 86         244.63     520        57.53     
2670.250015 66         244.65     568        57.52     
2670.450015 72         244.68     580        57.51     
2670.650015 69         244.68     530        57.5      
2670.850016 71         244.71     510        57.49     
2671.050016 78         244.73     557        57.49     
2671.250016 93         244.75     580        57.48     
2671.450016 97         244.77     568        57.48     
2671.650016 45         244.79     522        57.47     
2671.850017 62         244.82     580        57.46     
2672.050017 54         244.84     533        57.45     
2672.250017 84         244.86     580        57.44     
2672.450017 86         244.89     580        57.44     
2672.650017 78         244.9      580        57.43     
2672.850018 106        244.91     580        57.43     
2673.050018 64         244.93     580        57.42     
2673.250018 84         244.88     580        57.42     
2673.450018 115        244.98     640        57.41     
2673.650018 85         245        580        57.4      
2673.850019 94         245.03     580        57.39     
2674.050019 41         245.03     510        57.38     
2674.250019 87         245.05     510        57.38     
2674.450019 52         245.07     580        57.37     
2674.650019 54         245.07     580        57.35     
2674.85002 69         245.1      580        57.35     
2675.05002 75         245.12     522        57.34     
2675.25002 77         245.16     580        57.33     
2675.45002 80         245.16     580        57.32     
2675.65002 98         245.19     557        57.31     
2675.850021 80         245.21     580        57.3      
2676.050021 104        245.21     530        57.29     
2676.250021 99         245.23     540        57.28     
2676.450021 82         245.26     580        57.28     
2676.650021 85         245.28     510        57.27     
2676.850022 82         245.3      540        57.26     
2677.050022 78         245.31     533        57.26     
2677.250022 66         245.33     580        57.25     
2677.450022 70         245.35     557        57.24     
2677.650022 77         245.37     557        57.23     
2677.850023 29         245.4      510        57.22     
2678.050023 57         245.42     560        57.21     
2678.250023 72         245.44     580        57.2      
2678.450023 69         245.44     618        57.19     
2678.650023 58         245.46     580        57.18     
2678.850024 71         245.49     533        57.17     
2679.050024 83         245.51     533        57.16     
2679.250024 66         245.53     580        57.15     
2679.450024 62         245.56     568        57.14     
2679.650024 87         245.55     580        57.13     
2679.850025 191        245.58     580        57.12     
2680.050025 138.007    245.6      580        57.1      
2680.250025 3862.996   245.62     550        57.09     
2680.450025 1628.998   245.65     580        57.08     
2680.650025 401.999    245.66     580        57.07     
2680.850026 123        245.67     550        57.06     
2681.050026 85         245.69     580        57.05     
2681.250026 100        245.71     580        57.04     
2681.450026 130        245.74     580        57.04     
2681.650026 101        245.76     545        57.02     
2681.850027 114        245.78     524        57.01     
2682.050027 97         245.81     580        57.01     
2682.250027 120        245.83     530        57        
2682.450027 73         245.84     545        56.99     
2682.650027 112        245.85     580        56.97     
2682.850028 67         245.87     580        56.97     
2683.050028 59         245.9      533        56.96     
2683.250028 103        245.92     540        56.95     
2683.450028 117        245.94     580        56.94     
2683.650028 123        245.94     522        56.93     
2683.850029 116        245.97     580        56.92     
