~Version
 VERS              .         2.0                           : CWLS LOG ASCII STANDARD - VERSION 2.0
 WRAP              .         NO                            : ONE LINE PER DEPTH STEP
 DLM               .         SPACE                         : DELIMITING CHARACTER(SPACE TAB OR COMMA)
~Well Information
#_______________________________________________________________________________
#
#PARAMETER_NAME    .UNIT     VALUE                         : DESCRIPTION
#_______________________________________________________________________________
STRT               .M        2669.6                        : First reference value
STOP               .M        2776.19984                    : Last reference value
STEP               .M        0.1999997                     : Step increment
NULL               .         -9999                         : Missing value
COMP               .                                       : Company
WELL               .         616                           : Well name
FLD                .                                       : Field
LOC                .                                       : Location
CNTY               .                                       : County
STAT               .                                       : State
CTRY               .                                       : Country
SRVC               .                                       : Service Company
DATE               .                                       : Date
API                .                                       : API number
PROJECT_UPGRADE_TIME .         2021-03-18T21_24_50           : 
group              .         Good                          : 
~Parameter Information Block
#_______________________________________________________________________________
#
#PARAMETER_NAME    .UNIT     VALUE                         : DESCRIPTION
#_______________________________________________________________________________
SET                .         D1805_D                       : 
OTHER              .         Программное обеспечение станции MONITOR-386EX 25/12/99 15_08_10   BGF V52 22/08/01 16_56_30   3.1_SNGF___BGF_N_092049: 
OTHER_10           .         Тарировки_                    : 
OTHER_11           .         TM.GRD = 0.00403*TM$.UE + -1.07: 
OTHER_12           .         MN.ATM = (9.34907e-006*TM.GRD + 0.02171)*(MN$.UE + -7.93*TM.GRD + -1787): 
OTHER_13           .         GK.MKR/H = LM. / 42.4676      : 
OTHER_14           .         GK.FLT = 0.1*GK.MKR/H[-1] + (1-0.1)*GK.MKR/H[0]: 
OTHER_2            .         Kedr.exe версия 3.4.2.51      : 
OTHER_3            .         KedrData.dll версия 3.4.2.24  : 
OTHER_4            .         Драйвер версия 2.1.1.3        : 
OTHER_5            .         Мнемоники версия 3.3 S        : 
OTHER_6            .         Прибор_ КСА-Т4                : 
OTHER_7            .         Номер прибора_ 03             : 
OTHER_8            .         Режим_ КСА-Т4                 : 
OTHER_9            .         Форма_ КВА.                   : 
PROJECT_UPGRADE_TIME .         2021-03-18T21_24_49           : 
TLFamily_DEPT      .         Measured Depth                : 
TLFamily_GK        .         Gamma Ray                     : 
TLFamily_GK$       .                                       : 
TLFamily_GK_2      .         Gamma Ray                     : 
TLFamily_LM        .         Casing Collar locator         : 
TLFamily_METKA     .                                       : 
TLFamily_MN        .                                       : 
TLFamily_MN$       .                                       : 
TLFamily_RCOR      .                                       : 
TLFamily_SPID      .         Spontaneous Potential         : 
TLFamily_TENS      .         Cable Tension                 : 
TLFamily_TIME      .         Time                          : 
TLFamily_TM        .         Temperature                   : 
TLFamily_TM$       .         Temperature                   : 
group              .         prim                          : 
~Curve Information
#_______________________________________________________________________________
#
#LOGNAME           .UNIT     LOG_ID                        : DESCRIPTION
#_______________________________________________________________________________
DEPT               .M                                      : 1 Глубина, м -    0.0 см 
GK                 .MKR/H                                  : 13 Гамма-активность, мкр./ч -  110.0 см 
GK$                .UE                                     : 10 Гамма-активность, усл.ед. -  110.0 см 
GK_2               .FLT                                    : 14 Гамма-активность фильтрованная, мкр./ч -  110.0 см 
LM                 .                                       : 9 Локатор муфт,  -   20.0 см 
METKA              .                                       : 3 Метки,  -    0.0 см 
MN                 .ATM                                    : 12 Давление, атм. -  160.0 см 
MN$                .UE                                     : 8 Давление, усл.ед. -  160.0 см 
RCOR               .CM/KM                                  : 5 Коррекция по ролику, см/км -    0.0 см 
SPID               .M/H                                    : 2 Скорость, м/час -    0.0 см 
TENS               .T                                      : 6 Натяжение кабеля, т -    0.0 см 
TIME               .S                                      : 4 Время, сек -    0.0 см 
TM                 .GRD                                    : 11 Температура, °C -  170.0 см 
TM$                .UE                                     : 7 Температура, усл.ед. -  170.0 см 
~Ascii
# ...
2731.999906 7.23       307        7.19       831        0          330.717    17105      -663       543        0.01       3640.5     55.478     14032     
2732.199906 7.38       314        7.33       439        0          331.068    17121      -663       541        0.03       3641.8     55.426     14019     
2732.399906 8.12       345        8.1        340        0          330.935    17114      -663       538        0.01       3643.12    55.362     14003     
2732.599905 7.9        335        7.98       272        0          331.54     17141      -663       529        0.01       3644.52    55.188     13960     
2732.799905 6.78       288        6.83       238        0          332.126    17166      -663       535        0.01       3645.83    54.557     13803     
2732.999905 6.71       285        6.74       217        0          331.456    17135      -663       534        0.01       3647.19    53.932     13648     
2733.199905 6.71       285        6.71       191        0          331.634    17142      -663       544        0.01       3648.45    53.319     13496     
2733.399904 7.56       321        7.25       190        0          330.529    17092      -663       536        0.01       3649.78    52.815     13371     
2733.599904 7.72       328        7.71       241        0          332.147    17164      -663       545        0.01       3651.09    52.367     13260     
2733.799904 8.1        344        8.05       252        0          332.304    17170      -663       547        0.01       3652.39    51.94      13154     
2733.999903 8.1        344        8.1        223        0          331.813    17147      -663       542        0.01       3653.8     51.614     13073     
2734.199903 8.78       373        8.69       228        0          332.456    17175      -663       540        0.01       3655.11    50.969     12913     
2734.399903 8.78       373        8.78       198        0          330.888    17105      -663       540        -0         3656.44    50.667     12838     
2734.599903 9.49       403        9.45       211        0          332.055    17158      -663       544        0.01       3657.78    50.772     12864     
2734.799902 9.49       403        9.49       273        0          331.869    17150      -663       545        0.01       3659.09    51.183     12966     
2734.999902 8.57       364        8.63       305        0          332.031    17157      -663       549        0.01       3660.44    51.429     13027     
2735.199902 8.14       346        8.3        300        0          332.111    17161      -663       550        -0.01      3661.71    51.465     13036     
2735.399901 7.72       328        7.74       278        0          330.495    17088      -663       550        -0.01      3663.05    51.438     13029     
2735.599901 7.86       334        7.81       217        0          332.81     17192      -663       542        0.01       3664.44    51.38      13015     
2735.799901 8.05       342        8.05       268        0          331.163    17118      -663       540        0.01       3665.77    51.35      13007     
2735.9999  8.16       347        8.12       233        0          331.774    17146      -663       548        0.01       3667.08    51.329     13002     
2736.1999  8.38       356        8.38       193        0          332.695    17187      -663       543        0.01       3668.38    51.309     12997     
2736.3999  8.78       373        8.67       200        0          332.617    17183      -663       539        0.01       3669.7     51.231     12978     
2736.599899 8.78       373        8.78       221        0          332.928    17197      -663       543        0.01       3671.05    51.141     12956     
2736.799899 8.1        344        8.29       4584       0          331.125    17116      -663       539        0.02       3672.32    51.067     12937     
2736.999899 8.1        344        8.11       2942       0          332.482    17177      -663       542        0.01       3673.72    51.076     12939     
2737.199899 6.88       292        7.01       521        0          332.785    17191      -663       535        0          3675.05    51.09      12943     
2737.399898 6.88       292        6.88       275        0          333.059    17203      -663       542        0.01       3676.38    51.121     12951     
2737.599898 7.25       308        7.21       248        0          332.905    17196      -663       542        -0         3677.72    51.173     12964     
2737.799898 7.25       308        7.25       244        0          331.056    17113      -663       541        0.01       3678.98    51.194     12969     
2737.999897 8.05       342        8.02       214        0          333.431    17220      -663       547        0.01       3680.31    51.207     12972     
2738.199897 8.05       342        8.05       237        0          332.515    17179      -663       539        0.01       3681.64    51.214     12974     
2738.399897 7.72       328        7.74       230        0          333.371    17218      -663       537        0.01       3682.94    51.247     12982     
2738.599896 7.72       328        7.72       213        0          333.179    17209      -663       529        0.01       3684.38    51.326     13002     
2738.799896 7.96       338        7.95       257        0          332.092    17160      -663       530        0.01       3685.64    51.426     13026     
2738.999896 8.6        365        8.37       247        0          334.17     17254      -663       536        0.01       3687.03    51.472     13038     
2739.199896 8.92       379        8.91       254        0          332.334    17171      -663       540        0.01       3688.31    51.54      13055     
2739.399895 9.03       384        8.99       211        0          333.064    17204      -663       543        0.01       3689.64    51.653     13083     
2739.599895 9.14       388        9.13       260        0          333.643    17231      -663       539        -0.01      3690.98    51.794     13118     
2739.799895 8.78       373        8.86       291        0          333.286    17215      -663       548        -0.01      3692.28    51.909     13146     
2739.999894 8.78       373        8.79       246        2          334.222    17257      -663       537        0.01       3693.67    52.007     13171     
2740.199894 9.3        395        9.19       247        0          332.091    17161      -669       527        -0.01      3695.41    52.062     13184     
2740.399894 9.3        395        9.3        233        0          333.184    17210      -669       536        -0.01      3696.69    51.998     13168     
2740.599893 11.89      505        11.69      253        0          333.851    17240      -669       543        0.01       3698.01    51.844     13130     
2740.799893 11.89      505        11.89      248        0          334.009    17247      -669       548        -0         3699.34    51.636     13078     
2740.999893 13.21      561        13.09      252        0          333.204    17210      -669       552        0.01       3700.67    51.401     13020     
2741.199893 13.63      579        13.49      221        0          332.518    17179      -669       554        0.01       3701.97    51.212     12973     
2741.399892 13.63      579        13.63      258        0          334.659    17275      -669       546        -0.01      3703.41    51.022     12926     
2741.599892 15.26      648        14.72      219        0          333.484    17221      -669       535        -0.01      3704.68    50.75      12858     
2741.799892 15.26      648        15.24      243        0          333.893    17239      -669       546        -0.01      3706       50.248     12734     
2741.999891 15.94      677        15.69      277        0          334.43     17263      -669       538        0.01       3707.34    49.874     12641     
2742.199891 15.94      677        15.93      246        0          333.979    17242      -669       546        0.01       3708.61    49.699     12598     
