~Version
 VERS              .         2.0                           : CWLS LOG ASCII STANDARD - VERSION 2.0
 WRAP              .         NO                            : ONE LINE PER DEPTH STEP
 DLM               .         SPACE                         : DELIMITING CHARACTER(SPACE TAB OR COMMA)
~Well Information
#_______________________________________________________________________________
#
#PARAMETER_NAME    .UNIT     VALUE                         : DESCRIPTION
#_______________________________________________________________________________
STRT               .M        5.8                           : First reference value
STOP               .M        2774.6                        : Last reference value
STEP               .M        0.2                           : Step increment
NULL               .         -9999                         : Missing value
COMP               .                                       : Company
WELL               .         616                           : Well name
FLD                .                                       : Field
LOC                .                                       : Location
CNTY               .                                       : County
STAT               .                                       : State
CTRY               .                                       : Country
SRVC               .                                       : Service Company
DATE               .                                       : Date
API                .                                       : API number
PROJECT_UPGRADE_TIME .         2021-03-18T21_24_50           : 
group              .         Good                          : 
~Parameter Information Block
#_______________________________________________________________________________
#
#PARAMETER_NAME    .UNIT     VALUE                         : DESCRIPTION
#_______________________________________________________________________________
SET                .         D1747_D                       : 
OTHER              .         Программное обеспечение станции MONITOR-386EX 25/12/99 15_08_10   BGF V52 22/08/01 16_56_30   3.1_SNGF___BGF_N_111239: 
OTHER_10           .         Тарировки_                    : 
OTHER_11           .         <_techsia_sc_> Постоянная времени фильтра ГК  3.0 сек, kf=0.016529: 
OTHER_12           .         <_techsia_sc_> Постоянная времени фильтра ННК  3.0 сек, kf=0.016529: 
OTHER_13           .         GK.MKR/H = GK$.IMP/476        : 
OTHER_14           .         WSAT.PERC = -12.5 + 78.0 * (NKT2$.IMP / NKT1$.IMP) * 1731/33716: 
OTHER_15           .         NKT2.PRIV = NKT2$.IMP/33716   : 
OTHER_16           .         NKT1.PRIV = NKT1$.IMP/1731    : 
OTHER_2            .         Kedr.exe версия 3.3.2.32      : 
OTHER_3            .         KedrData.dll версия 3.3.2.17  : 
OTHER_4            .         Драйвер версия 2.1.1.9        : 
OTHER_5            .         Мнемоники версия 3.2 S        : 
OTHER_6            .         Прибор_ СРК-73Ц-1N            : 
OTHER_7            .         Номер прибора_ 906            : 
OTHER_8            .         Режим_ с локатором            : 
OTHER_9            .         Форма_ 623-1                  : 
PROJECT_UPGRADE_TIME .         2021-03-18T21_24_49           : 
TLFamily_DEPT      .         Measured Depth                : 
TLFamily_GK        .         Gamma Ray                     : 
TLFamily_GK$       .                                       : 
TLFamily_LM        .         Casing Collar locator         : 
TLFamily_METKA     .                                       : 
TLFamily_NKT1      .         Neutron Far                   : 
TLFamily_NKT1$     .         Neutron Far                   : 
TLFamily_NKT2      .         Neutron Near                  : 
TLFamily_NKT2$     .         Neutron Near                  : 
TLFamily_RCOR      .                                       : 
TLFamily_SPID      .         Spontaneous Potential         : 
TLFamily_TENS      .         Cable Tension                 : 
TLFamily_TIME      .         Time                          : 
TLFamily_WSAT      .         Neutron Porosity              : 
group              .         prim                          : 
~Curve Information
#_______________________________________________________________________________
#
#LOGNAME           .UNIT     LOG_ID                        : DESCRIPTION
#_______________________________________________________________________________
DEPT               .M                                      : 1 Глубина, м -    0.0 см 
GK                 .MKR/H                                  : 11 Гамма-активность, мкр./ч -   97.0 см 
GK$                .IMP                                    : 9 Гамма-активность, имп/мин -   97.0 см 
LM                 .                                       : 10 Локатор муфт,  -   27.0 см 
METKA              .                                       : 3 Метки,  -    0.0 см 
NKT1               .PRIV                                   : 14 Большой зонд приведенный,  -  278.0 см 
NKT1$              .IMP                                    : 8 Большой зонд, имп/мин -  278.0 см 
NKT2               .PRIV                                   : 13 Малый зонд приведенный,  -  289.0 см 
NKT2$              .IMP                                    : 7 Малый зонд, имп/мин -  289.0 см 
RCOR               .CM/KM                                  : 5 Коррекция по ролику, см/км -    0.0 см 
SPID               .M/H                                    : 2 Скорость, м/час -    0.0 см 
TENS               .T                                      : 6 Натяжение кабеля, т -    0.0 см 
TIME               .S                                      : 4 Время, сек -    0.0 см 
WSAT               .PERC                                   : 12 Водонасыщенная пористость, % -  284.0 см 
~Ascii
# ...
1659.4     7.48       3562       14         0          1.44       2497.48    1.04       35170.54   -498       -640       0          21195.48   44.84     
1659.6     6.96       3313       32         0          1.53       2650.67    1.08       36425.58   -498       -640       0          21194.33   49.64     
1659.8     6.94       3304       72         1          1.69       2919.51    1.12       37913.15   -498       -640       0          21193.19   48.75     
1660       6.72       3198       24         0          1.78       3079.48    1.13       38244.95   -498       -640       0          21192.06   38.87     
1660.2     6.69       3183       40         0          1.77       3060.77    1.12       37727.7    -498       -637       0          21190.96   39.23     
1660.4     7.03       3344       82         0          1.87       3241.8     1.11       37548.1    -498       -635       0          21189.81   38.74     
1660.6     7.27       3459       28         0          1.95       3371.61    1.13       38237.07   -498       -647       0          21188.66   40.55     
1660.8     7.11       3386       27         0          2          3459.4     1.14       38319.64   -498       -640       0          21187.51   41.12     
1661       7.62       3628       22         0          1.83       3171.11    1.13       38030.07   -498       -640       0          21186.4    41.14     
1661.2     7.7        3666       17         0          1.78       3089.69    1.1        36919.58   -498       -640       0          21185.3    44.21     
1661.4     7.75       3688       49         0          1.86       3215.94    1.09       36701.12   -498       -640       0          21184.15   43.61     
1661.6     7.38       3514       40         0          1.72       2982.75    1.08       36370.95   -498       -630       0          21183      41.73     
1661.8     7.25       3449       19         0          1.63       2816.09    1.06       35874.38   -498       -640       0          21181.9    41.75     
1662       6.81       3241       48         0          1.67       2893.11    1.06       35587.21   -498       -640       0          21180.8    43.62     
1662.2     6.53       3108       101        0          1.68       2908.15    1.07       36010.77   -498       -631       0          21179.64   41.28     
1662.4     7.05       3357       28         0          1.59       2756.88    1.07       36166.06   -498       -590       0          21178.52   42.05     
1662.6     7.16       3408       15         0          1.54       2671.44    1.09       36878.23   -498       -657       0          21177.34   43.83     
1662.8     7.44       3542       35         0          1.56       2697.93    1.09       36896.35   -498       -640       0          21176.19   45.78     
1663       7.41       3528       58         0          1.65       2861.06    1.11       37580.95   -498       -640       0          21175.04   43.35     
1663.2     7.07       3364       61         0          1.66       2870.91    1.1        37068.14   -498       -640       0          21173.94   41.15     
1663.4     7.25       3450       26         0          1.74       3008.18    1.09       36679.85   -498       -640       0          21172.86   41.91     
1663.6     7.44       3543       31         0          1.77       3066.56    1.06       35628.11   -498       -640       0          21171.73   37.22     
1663.8     7.13       3396       44         0          1.66       2877.63    1.04       35057.51   -498       -640       0          21170.6    37.4      
1664       7.33       3491       40         0          1.75       3020.97    1.05       35409.77   -498       -597       0          21169.48   36.5      
1664.2     7.25       3453       44         0          1.78       3087.16    1.05       35283.61   -498       -640       0          21168.33   35.05     
1664.4     7.21       3433       46         0          1.62       2800.13    1.05       35240.77   -498       -601       0          21167.23   39.85     
1664.6     7.66       3645       13         0          1.56       2695.8     1.05       35456.42   -498       -640       0          21166.03   40.3      
1664.8     7.26       3457       30         0          1.53       2642.81    1.08       36261.69   -498       -640       0          21164.92   41.49     
1665       7.19       3421       29         0          1.46       2519.53    1.07       36085.64   -498       -640       0          21163.77   42.42     
1665.2     7.42       3533       45         0          1.43       2471.16    1.05       35487.08   -498       -587       0          21162.62   42.23     
1665.4     7.32       3486       52         0          1.48       2560.11    1.04       35073.99   -498       -640       0          21161.51   43.09     
1665.6     7.38       3515       30         0          1.56       2699.94    1.03       34800.79   -498       -640       0          21160.36   44.51     
1665.8     7.26       3457       21         0          1.43       2478.38    1.04       35074.53   -498       -688       0          21159.26   47.06     
1666       7.09       3374       199        0          1.46       2534.27    1.03       34830.27   -498       -640       0          21158.15   47.51     
1666.2     6.88       3273       1702       0          1.39       2408.17    1.02       34554.76   -498       -640       0          21157.05   45.76     
1666.4     6.87       3269       2328       0          1.45       2508.52    1.01       33960.59   -498       -581       0          21155.9    44.16     
1666.6     7.23       3442       31         0          1.39       2410.95    1.02       34366.45   -498       -640       0          21154.72   45.21     
1666.8     7.69       3660       18         0          1.46       2527.58    1.02       34506.91   -498       -640       0          21153.6    44.45     
1667       7.65       3640       20         0          1.31       2265.86    1.02       34428.73   -498       -640       0          21152.45   44.31     
1667.2     7.8        3713       35         0          1.4        2431.73    1.02       34425.81   -498       -640       0          21151.32   47.58     
1667.4     7.63       3631       43         0          1.47       2549.19    1.02       34556.75   -498       -640       0          21150.22   44.58     
1667.6     7.4        3523       47         0          1.51       2607.77    1.04       34978.09   -498       -640       0          21149.09   45.78     
1667.8     7.08       3369       49         0          1.51       2614.9     1.02       34463.71   -498       -640       0          21147.99   42.79     
1668       7.17       3412       12         0          1.5        2594.55    1.03       34633.67   -498       -640       0          21146.84   44.4      
1668.2     7.32       3486       18         0          1.5        2588.81    1.03       34704.95   -498       -637       0          21145.69   42.3      
1668.4     7.79       3709       67         0          1.48       2560.21    1          33762.63   -498       -640       0          21144.59   40.35     
1668.6     7.55       3595       69         0          1.32       2285.03    1          33795.99   -498       -642       0          21143.38   43.02     
1668.8     7.35       3497       86         0          1.26       2172.5     1.01       33992.73   -498       -640       0          21142.28   42.78     
1669       7.15       3403       55         0          1.4        2424.99    1.02       34441.67   -498       -582       0          21141.18   43.63     
1669.2     7.01       3338       37         0          1.35       2329.05    1.01       34103.04   -498       -640       0          21140.06   45.67     
1669.4     6.74       3208       23         0          1.3        2257.73    1.02       34222.49   -498       -640       0          21138.93   47.96     
1669.6     6.89       3281       26         0          1.39       2410.24    1.03       34893.27   -498       -639       0          21137.82   47.55     
