~Version
 VERS              .         2.0                           : CWLS LOG ASCII STANDARD - VERSION 2.0
 WRAP              .         NO                            : ONE LINE PER DEPTH STEP
 DLM               .         SPACE                         : DELIMITING CHARACTER(SPACE TAB OR COMMA)
~Well Information
#_______________________________________________________________________________
#
#PARAMETER_NAME    .UNIT     VALUE                         : DESCRIPTION
#_______________________________________________________________________________
STRT               .M        2338.9                        : First reference value
STOP               .M        2799.2                        : Last reference value
STEP               .M        0.1                           : Step increment
NULL               .         -9999                         : Missing value
COMP               .                                       : Company
WELL               .         616                           : Well name
FLD                .                                       : Field
LOC                .                                       : Location
CNTY               .                                       : County
STAT               .                                       : State
CTRY               .                                       : Country
SRVC               .                                       : Service Company
DATE               .                                       : Date
API                .                                       : API number
PROJECT_UPGRADE_TIME .         2021-03-18T21_24_50           : 
group              .         Good                          : 
~Parameter Information Block
#_______________________________________________________________________________
#
#PARAMETER_NAME    .UNIT     VALUE                         : DESCRIPTION
#_______________________________________________________________________________
SET                .         D2662_D                       : 
OTHER              .         Программное обеспечение станции MONITOR-386EX 25/12/99 15_08_10   BGF V50 26/12/00 07_26_01   3.1_SNGF___BGF_N_092085: 
OTHER_10           .         Тарировки_                    : 
OTHER_11           .         IK1.GRD = IK1$.UE - -5.96     : 
OTHER_12           .         IK5.GRD = IK5$.UE - -0.74     : 
OTHER_13           .         IK4.GRD = IK4$.UE - -0.9      : 
OTHER_14           .         IK3.GRD = IK3$.UE - -1.28     : 
OTHER_15           .         IK2.GRD = IK2$.UE - -3.55     : 
OTHER_2            .         Kedr.exe версия 3.3.2.32      : 
OTHER_3            .         KedrData.dll версия 3.3.2.17  : 
OTHER_4            .         Драйвер версия 2.1.0.4        : 
OTHER_5            .         Мнемоники версия 3.3 S        : 
OTHER_6            .         Прибор_ Викиз                 : 
OTHER_7            .         Номер прибора_ 0006012        : 
OTHER_8            .         Режим_ Викиз                  : 
OTHER_9            .         Форма_ ВИКИЗ                  : 
PROJECT_UPGRADE_TIME .         2021-03-18T21_24_49           : 
TLFamily_DEPT      .         Measured Depth                : 
TLFamily_IK1       .         Extra Shallow Resistivity     : 
TLFamily_IK1$      .         Extra Shallow Resistivity     : 
TLFamily_IK2       .         Shallow Resistivity           : 
TLFamily_IK2$      .         Shallow Resistivity           : 
TLFamily_IK3       .         Medium Resistivity            : 
TLFamily_IK3$      .         Medium Resistivity            : 
TLFamily_IK4       .         Deep Resistivity              : 
TLFamily_IK4$      .         Deep Resistivity              : 
TLFamily_IK5       .         Resistivity 20                : 
TLFamily_IK5$      .         Resistivity 20                : 
TLFamily_METKA     .                                       : 
TLFamily_PS        .         Spontaneous Potential         : 
TLFamily_RCOR      .                                       : 
TLFamily_SPID      .         Spontaneous Potential         : 
TLFamily_TENS      .         Cable Tension                 : 
TLFamily_TIME      .         Time                          : 
group              .         prim                          : 
~Curve Information
#_______________________________________________________________________________
#
#LOGNAME           .UNIT     LOG_ID                        : DESCRIPTION
#_______________________________________________________________________________
DEPT               .M                                      : 1 Глубина, м -    0.0 см 
IK1                .GRD                                    : 13 3Ф0.5, град. -  226.0 см 
IK1$               .UE                                     : 7 3Ф0.5, усл.ед. -  226.0 см 
IK2                .GRD                                    : 17 3Ф0.7, град. -  240.0 см 
IK2$               .UE                                     : 11 3Ф0.7, усл.ед. -  240.0 см 
IK3                .GRD                                    : 16 3Ф1.0, град. -  260.0 см 
IK3$               .UE                                     : 10 3Ф1.0, усл.ед. -  260.0 см 
IK4                .GRD                                    : 15 3Ф1.4, град. -  288.0 см 
IK4$               .UE                                     : 9 3Ф1.4, усл.ед. -  288.0 см 
IK5                .GRD                                    : 14 3Ф2.0, град. -  328.0 см 
IK5$               .UE                                     : 8 3Ф2.0, усл.ед. -  328.0 см 
METKA              .                                       : 3 Метки,  -    0.0 см 
PS                 .mV                                     : 12 ПС, мВ -  372.0 см 
RCOR               .CM/KM                                  : 5 Коррекция по ролику, см/км -    0.0 см 
SPID               .M/H                                    : 2 Скорость, м/час -    0.0 см 
TENS               .T                                      : 6 Натяжение кабеля, т -    0.0 см 
TIME               .S                                      : 4 Время, сек -    0.0 см 
~Ascii
# ...
2489.4     21.97      16.01      20.59      17.04      20.22      18.94      19.73      18.83      19.69      18.95      0          314.18     -373       -1788      0          35200.3   
2489.5     21.83      15.87      20.52      16.97      20.14      18.86      19.76      18.86      19.78      19.04      0          314        -373       -1787      0          35200.11  
2489.6     21.69      15.73      20.49      16.94      20.18      18.9       19.88      18.98      19.96      19.22      0          314.26     -373       -1787      0          35199.89  
2489.7     21.74      15.78      20.68      17.13      20.42      19.14      20.16      19.26      20.23      19.49      0          314.66     -373       -1786      0          35199.7   
2489.8     22.39      16.43      21.23      17.68      20.93      19.65      20.72      19.82      20.65      19.91      0          314.89     -373       -1785      0          35199.51  
2489.9     23.3       17.34      21.96      18.41      21.73      20.45      21.29      20.39      21.23      20.49      1          315.07     -373       -1784      0          35199.31  
2490       24.09      18.13      22.81      19.26      22.33      21.05      21.83      20.93      21.71      20.97      0          315.06     -372       -1782      0          35199.09  
2490.1     24.66      18.7       23.24      19.69      22.77      21.49      22.27      21.37      22.14      21.4       0          315.14     -372       -1780      0          35198.89  
2490.2     24.93      18.97      23.5       19.95      23.13      21.85      22.62      21.72      22.53      21.79      0          315.18     -372       -1790      0          35198.7   
2490.3     25.3       19.34      23.92      20.37      23.41      22.13      22.87      21.97      22.77      22.03      0          315.14     -372       -1808      0          35198.48  
2490.4     25.65      19.69      24.29      20.74      23.7       22.42      23.09      22.19      22.95      22.21      0          314.95     -372       -1823      0          35198.29  
2490.5     25.89      19.93      24.53      20.98      23.9       22.62      23.24      22.34      23.07      22.33      0          314.89     -372       -1814      0          35198.09  
2490.6     25.8       19.84      24.52      20.97      23.9       22.62      23.25      22.35      23.14      22.4       0          315.06     -372       -1800      0          35197.86  
2490.7     25.62      19.66      24.38      20.83      23.83      22.55      23.21      22.31      23.18      22.44      0          315.15     -372       -1792      0          35197.68  
2490.8     25.41      19.45      24.25      20.7       23.82      22.54      23.23      22.33      23.23      22.49      0          315.18     -372       -1792      0          35197.47  
2490.9     25.4       19.44      24.28      20.73      23.98      22.7       23.39      22.49      23.38      22.64      0          315.43     -372       -1793      0          35197.26  
2491       25.65      19.69      24.61      21.06      24.26      22.98      23.66      22.76      23.59      22.85      0          315.42     -372       -1794      0          35197.08  
2491.1     26.04      20.08      24.93      21.38      24.56      23.28      24.02      23.12      23.82      23.08      0          315.36     -372       -1794      0          35196.89  
2491.2     26.2       20.24      25.01      21.46      24.73      23.45      24.23      23.33      24.07      23.33      0          315.36     -372       -1796      0          35196.7   
2491.3     26.21      20.25      24.99      21.44      24.73      23.45      24.37      23.47      24.21      23.47      0          315.25     -372       -1797      0          35196.49  
2491.4     26.3       20.34      25.01      21.46      24.77      23.49      24.45      23.55      24.28      23.54      0          315.13     -372       -1799      0          35196.3   
2491.5     26.2       20.24      25         21.45      24.8       23.52      24.51      23.61      24.28      23.54      0          315.31     -372       -1801      0          35196.11  
2491.6     26.23      20.27      25.12      21.57      24.86      23.58      24.51      23.61      24.21      23.47      0          315.45     -372       -1804      0          35195.89  
2491.7     26.45      20.49      25.33      21.78      24.89      23.61      24.37      23.47      24         23.26      0          314.94     -372       -1807      0          35195.7   
2491.8     26.37      20.41      25.1       21.55      24.46      23.18      23.8       22.9       23.59      22.85      0          314.74     -372       -1811      0          35195.51  
2491.9     25.26      19.3       24.05      20.5       23.38      22.1       22.92      22.02      22.85      22.11      0          315.01     -372       -1817      0          35195.28  
2492       23.69      17.73      22.4       18.85      22.18      20.9       21.9       21         22.08      21.34      0          314.89     -372       -1824      0          35195.09  
2492.1     22.48      16.52      21.42      17.87      21.29      20.01      20.96      20.06      21.41      20.67      0          315.24     -372       -1828      0          35194.9   
2492.2     21.81      15.85      20.95      17.4       20.77      19.49      20.54      19.64      20.84      20.1       0          315.46     -372       -1820      0          35194.7   
2492.3     21.47      15.51      20.72      17.17      20.58      19.3       20.36      19.46      20.59      19.85      0          315.59     -372       -1808      0          35194.49  
2492.4     21.25      15.29      20.52      16.97      20.43      19.15      20.24      19.34      20.46      19.72      0          315.5      -372       -1796      0          35194.3   
2492.5     21.1       15.14      20.31      16.76      20.26      18.98      20.11      19.21      20.33      19.59      0          315.41     -372       -1781      0          35194.12  
2492.6     21.04      15.08      20.1       16.55      20.06      18.78      19.98      19.08      20.22      19.48      0          315.19     -372       -1761      0          35193.91  
2492.7     20.99      15.03      19.91      16.36      19.88      18.6       19.84      18.94      20.1       19.36      0          315.19     -372       -1755      0          35193.72  
2492.8     20.89      14.93      19.84      16.29      19.71      18.43      19.67      18.77      19.95      19.21      0          315.19     -372       -1761      0          35193.53  
2492.9     20.84      14.88      19.82      16.27      19.52      18.24      19.51      18.61      19.8       19.06      0          315.23     -372       -1769      0          35193.34  
2493       20.8       14.84      19.81      16.26      19.42      18.14      19.36      18.46      19.65      18.91      0          315.14     -372       -1779      0          35193.13  
2493.1     20.73      14.77      19.75      16.2       19.32      18.04      19.16      18.26      19.46      18.72      0          314.83     -372       -1791      0          35192.93  
2493.2     20.51      14.55      19.58      16.03      19.14      17.86      18.87      17.97      19.16      18.42      0          314.39     -372       -1807      0          35192.74  
2493.3     20.27      14.31      19.33      15.78      18.93      17.65      18.55      17.65      18.82      18.08      0          314.08     -372       -1814      0          35192.51  
2493.4     20         14.04      19.05      15.5       18.62      17.34      18.09      17.19      18.42      17.68      0          313.64     -372       -1819      0          35192.31  
2493.5     19.52      13.56      18.66      15.11      18.16      16.88      17.59      16.69      17.93      17.19      0          313.17     -372       -1824      0          35192.13  
2493.6     18.93      12.97      18.07      14.52      17.61      16.33      17.07      16.17      17.35      16.61      0          312.65     -372       -1814      0          35191.9   
