~Version
 VERS              .         2.0                           : CWLS LOG ASCII STANDARD - VERSION 2.0
 WRAP              .         NO                            : ONE LINE PER DEPTH STEP
 DLM               .         SPACE                         : DELIMITING CHARACTER(SPACE TAB OR COMMA)
~Well Information
#_______________________________________________________________________________
#
#PARAMETER_NAME    .UNIT     VALUE                         : DESCRIPTION
#_______________________________________________________________________________
STRT               .M        2310.8                        : First reference value
STOP               .M        2792.2                        : Last reference value
STEP               .M        0.2                           : Step increment
NULL               .         -9999                         : Missing value
COMP               .                                       : Company
WELL               .         616                           : Well name
FLD                .                                       : Field
LOC                .                                       : Location
CNTY               .                                       : County
STAT               .                                       : State
CTRY               .                                       : Country
SRVC               .                                       : Service Company
DATE               .                                       : Date
API                .                                       : API number
PROJECT_UPGRADE_TIME .         2021-03-18T21_24_50           : 
group              .         Good                          : 
~Parameter Information Block
#_______________________________________________________________________________
#
#PARAMETER_NAME    .UNIT     VALUE                         : DESCRIPTION
#_______________________________________________________________________________
SET                .         D2660_D                       : 
OTHER              .         Программное обеспечение станции MONITOR-386EX 25/12/99 15_08_10   BGF V50 26/12/00 07_26_01   3.1_SNGF___BGF_N_092085: 
OTHER_10           .         Тарировки_                    : 
OTHER_2            .         Kedr.exe версия 3.3.2.32      : 
OTHER_3            .         KedrData.dll версия 3.3.2.17  : 
OTHER_4            .         Драйвер версия 2.1.0.1        : 
OTHER_5            .         Мнемоники версия 3.3 S        : 
OTHER_6            .         Прибор_ ПС                    : 
OTHER_7            .         Номер прибора_ 348\072        : 
OTHER_8            .         Режим_ ПС                     : 
OTHER_9            .         Форма_ ПС                     : 
PROJECT_UPGRADE_TIME .         2021-03-18T21_24_49           : 
TLFamily_DEPT      .         Measured Depth                : 
TLFamily_METKA     .                                       : 
TLFamily_PS        .         Spontaneous Potential         : 
TLFamily_RCOR      .                                       : 
TLFamily_SPID      .         Spontaneous Potential         : 
TLFamily_TENS      .         Cable Tension                 : 
TLFamily_TIME      .         Time                          : 
group              .         prim                          : 
~Curve Information
#_______________________________________________________________________________
#
#LOGNAME           .UNIT     LOG_ID                        : DESCRIPTION
#_______________________________________________________________________________
DEPT               .M                                      : 1 Глубина, м -    0.0 см 
METKA              .                                       : 3 Метки,  -    0.0 см 
PS                 .mV                                     : 7 ПС, мВ - 1210.0 см 
RCOR               .CM/KM                                  : 5 Коррекция по ролику, см/км -    0.0 см 
SPID               .M/H                                    : 2 Скорость, м/час -    0.0 см 
TENS               .T                                      : 6 Натяжение кабеля, т -    0.0 см 
TIME               .S                                      : 4 Время, сек -    0.0 см 
~Ascii
# ...
2747.6     0          548.55     -346       -1790      0          29929.45  
2747.8     0          548.37     -346       -1790      0          29929.08  
2748       0          549.04     -346       -1790      0          29928.68  
2748.2     0          548.78     -346       -1790      0          29928.27  
2748.4     0          548.33     -346       -1790      0          29927.88  
2748.6     0          548.7      -346       -1789      0          29927.46  
2748.8     0          548.39     -346       -1780      0          29927.06  
2749       0          548.45     -346       -1741      0          29926.67  
2749.2     0          549.52     -346       -1833      0          29926.25  
2749.4     0          550.27     -346       -1838      0          29925.86  
2749.6     0          549.84     -346       -1790      0          29925.46  
2749.8     1          550.16     -346       -1790      0          29925.18  
2750       0          551.25     -343       -1790      0          29924.6   
2750.2     0          549.28     -343       -1790      0          29924.2   
2750.4     0          549.57     -343       -1790      0          29923.79  
2750.6     0          549.47     -343       -1793      0          29923.4   
2750.8     0          548.19     -343       -1817      0          29922.99  
2751       0          547.29     -343       -1836      0          29922.6   
2751.2     0          547.43     -343       -1735      0          29922.21  
2751.4     0          548.97     -343       -1767      0          29921.81  
2751.6     0          548.03     -343       -1773      0          29921.4   
2751.8     0          546.55     -343       -1738      0          29921.02  
2752       0          548.76     -343       -1790      0          29920.6   
2752.2     0          549.73     -343       -1790      0          29920.17  
2752.4     0          549.97     -343       -1790      0          29919.79  
2752.6     0          550.06     -343       -1790      0          29919.4   
2752.8     0          549.7      -343       -1790      0          29919     
2753       0          550.34     -343       -1790      0          29918.57  
2753.2     0          550.22     -343       -1790      0          29918.18  
2753.4     0          549.89     -343       -1790      0          29917.8   
2753.6     0          550.89     -343       -1790      0          29917.41  
2753.8     0          549.81     -343       -1790      0          29917     
2754       0          549.85     -343       -1790      0          29916.58  
2754.2     0          549.17     -343       -1788      0          29916.19  
2754.4     0          548.7      -343       -1772      0          29915.81  
2754.6     0          547.92     -343       -1739      0          29915.42  
2754.8     0          547.43     -343       -1794      0          29914.99  
2755       0          546.08     -343       -1825      0          29914.59  
2755.2     0          546.35     -343       -1841      0          29914.18  
2755.4     0          545.48     -343       -1785      0          29913.8   
2755.6     0          545.45     -343       -1746      0          29913.41  
2755.8     0          544.79     -343       -1753      0          29912.99  
2756       0          544.77     -343       -1790      0          29912.58  
2756.2     0          543.91     -343       -1794      0          29912.2   
2756.4     0          542.58     -343       -1825      0          29911.78  
2756.6     0          541.34     -343       -1845      0          29911.39  
2756.8     0          541.84     -343       -1797      0          29910.99  
2757       0          540.61     -343       -1847      0          29910.6   
2757.2     0          540.42     -343       -1836      0          29910.21  
2757.4     0          542.6      -343       -1783      0          29909.82  
2757.6     0          543.47     -343       -1740      0          29909.42  
2757.8     0          545.6      -343       -1813      0          29909.03  
2758       0          545.51     -343       -1891      0          29908.61  
2758.2     0          546.26     -343       -1796      0          29908.23  
2758.4     0          547.7      -343       -1838      0          29907.84  
2758.6     0          546.82     -343       -1842      0          29907.46  
2758.8     0          545.48     -343       -1796      0          29907.16  
2759       0          546        -343       -1850      0          29906.65  
2759.2     0          545.93     -343       -1834      0          29906.25  
2759.4     0          545.48     -343       -1802      0          29905.86  
2759.6     0          545.27     -343       -1860      0          29905.48  
2759.8     1          544.63     -343       -1858      0          29905.1   
2760       0          546.88     -342       -1843      0          29904.7   
2760.2     0          546.28     -342       -1785      0          29904.3   
2760.4     0          545.42     -342       -1746      0          29903.93  
2760.6     0          545.04     -342       -1771      0          29903.51  
2760.8     0          545.97     -342       -1859      0          29903.1   
2761       0          543.98     -342       -1855      0          29902.71  
2761.2     0          545.59     -342       -1823      0          29902.55  
2761.4     0          545.53     -342       -1791      0          29901.92  
2761.6     0          543.09     -342       -1795      0          29901.55  
2761.8     0          544.97     -342       -1827      0          29901.17  
2762       0          544.01     -342       -1859      0          29900.77  
2762.2     0          542.62     -342       -1853      0          29900.37  
2762.4     0          542.25     -342       -1800      0          29899.97  
2762.6     0          542.97     -342       -1817      0          29899.57  
2762.8     0          543.02     -342       -1859      0          29899.21  
2763       0          544.63     -342       -1853      0          29898.81  
2763.2     0          545.18     -342       -1807      0          29898.43  
2763.4     0          545.19     -342       -1754      0          29898.03  
2763.6     0          543.1      -342       -1860      0          29897.64  
2763.8     0          544.14     -342       -1860      0          29897.22  
2764       0          545.4      -342       -1859      0          29896.83  
2764.2     0          544.83     -342       -1852      0          29896.46  
2764.4     0          545.92     -342       -1794      0          29896.07  
2764.6     0          544.35     -342       -1791      0          29895.69  
2764.8     0          542.78     -342       -1799      0          29895.31  
2765       0          543.28     -342       -1860      0          29894.89  
2765.2     0          543.6      -342       -1858      0          29894.51  
2765.4     0          544.08     -342       -1846      0          29894.12  
2765.6     0          542.17     -342       -1785      0          29893.74  
2765.8     0          539.77     -342       -1751      0          29893.34  
2766       0          539.34     -342       -1729      0          29892.95  
2766.2     0          537.29     -342       -1722      0          29892.54  
2766.4     0          537.27     -342       -1664      0          29892.13  
2766.6     0          535.06     -342       -1692      0          29891.72  
2766.8     0          538.83     -342       -1729      0          29891.28  
2767       0          542.03     -342       -1719      0          29890.85  
2767.2     0          541.98     -342       -1647      0          29890.43  
2767.4     0          542.91     -342       -1527      0          29890     
2767.6     0          542.76     -342       -1410      0          29889.6   
2767.8     0          545.31     -342       -1410      0          29889.15  
2768       0          547.15     -342       -1410      0          29888.63  
2768.2     0          545.62     -342       -1415      0          29888.14  
