~Version
 VERS              .         2.0                           : CWLS LOG ASCII STANDARD - VERSION 2.0
 WRAP              .         NO                            : ONE LINE PER DEPTH STEP
 DLM               .         SPACE                         : DELIMITING CHARACTER(SPACE TAB OR COMMA)
~Well Information
#_______________________________________________________________________________
#
#PARAMETER_NAME    .UNIT     VALUE                         : DESCRIPTION
#_______________________________________________________________________________
STRT               .M        2700.4                        : First reference value
STOP               .M        2799                          : Last reference value
STEP               .M        0.2000002                     : Step increment
NULL               .         -9999                         : Missing value
COMP               .                                       : Company
WELL               .         616                           : Well name
FLD                .                                       : Field
LOC                .                                       : Location
CNTY               .                                       : County
STAT               .                                       : State
CTRY               .                                       : Country
SRVC               .                                       : Service Company
DATE               .                                       : Date
API                .                                       : API number
PROJECT_UPGRADE_TIME .         2021-03-18T21_24_50           : 
group              .         Good                          : 
~Parameter Information Block
#_______________________________________________________________________________
#
#PARAMETER_NAME    .UNIT     VALUE                         : DESCRIPTION
#_______________________________________________________________________________
SET                .         D2658_D                       : 
OTHER              .         Программное обеспечение станции MONITOR-386EX 25/12/99 15_08_10   BGF V50 26/12/00 07_26_01   3.1_SNGF___BGF_N_092085: 
OTHER_10           .         Тарировки_                    : 
OTHER_11           .         <_techsia_sc_> Постоянная времени фильтра ПС  0.5 сек, kf=0.139292: 
OTHER_2            .         Kedr.exe версия 3.3.2.32      : 
OTHER_3            .         KedrData.dll версия 3.3.2.17  : 
OTHER_4            .         Драйвер версия 2.1.0.7        : 
OTHER_5            .         Мнемоники версия 3.3 S        : 
OTHER_6            .         Прибор_ К1a-723м              : 
OTHER_7            .         Номер прибора_ 348/72         : 
OTHER_8            .         Режим_ K1A-723M               : 
OTHER_9            .         Форма_ БКЗ                    : 
PROJECT_UPGRADE_TIME .         2021-03-18T21_24_49           : 
TLFamily_BK        .         Lateral Log Resistivity       : 
TLFamily_DEPT      .         Measured Depth                : 
TLFamily_GZ1       .         Extra Shallow Resistivity     : 
TLFamily_GZ2       .         Shallow Resistivity           : 
TLFamily_GZ3       .         Medium Resistivity            : 
TLFamily_GZ4       .         Deep Resistivity              : 
TLFamily_GZ5       .         Extra Deep Resistivity        : 
TLFamily_GZ6       .         Medium Resistivity Inverted   : 
TLFamily_IBK       .                                       : 
TLFamily_IK        .         Conductivity                  : 
TLFamily_IPR       .                                       : 
TLFamily_METKA     .                                       : 
TLFamily_PS        .         Spontaneous Potential         : 
TLFamily_PZ        .         Potential Resistivity         : 
TLFamily_RCOR      .                                       : 
TLFamily_RES       .         Mud Resistivity               : 
TLFamily_SPID      .         Spontaneous Potential         : 
TLFamily_TENS      .         Cable Tension                 : 
TLFamily_TIME      .         Time                          : 
TLFamily_UBK       .         Uranium Concentration         : 
group              .         prim                          : 
~Curve Information
#_______________________________________________________________________________
#
#LOGNAME           .UNIT     LOG_ID                        : DESCRIPTION
#_______________________________________________________________________________
DEPT               .M                                      : 1 Глубина, м -    0.0 см 
BK                 .OHMM                                   : 20 БК, Ом*м - 1768.0 см 
GZ1                .OHMM                                   : 12 A0.4M0.1N, Ом*м - 1295.0 см 
GZ2                .OHMM                                   : 11 A1.0M0.1N, Ом*м - 1355.0 см 
GZ3                .OHMM                                   : 9 A2.0M0.5N, Ом*м - 1475.0 см 
GZ4                .OHMM                                   : 8 A4.0M0.5N, Ом*м - 1025.0 см 
GZ5                .OHMM                                   : 7 A8.0M1.0N, Ом*м - 1450.0 см 
GZ6                .OHMM                                   : 10 N0.5M2.0A, Ом*м - 1025.0 см 
IBK                .A                                      : 18 Ток БК, А - 1768.0 см 
IK                 .MSM/M                                  : 14 ИК, мСм/м - 1961.0 см 
IPR                .MA                                     : 17 Ток прибора, мA -    0.0 см 
METKA              .                                       : 3 Метки,  -    0.0 см 
PS                 .mV                                     : 16 ПС, мВ - 1210.0 см 
PZ                 .OHMM                                   : 13 N11M0.5A, Ом*м - 1225.0 см 
RCOR               .CM/KM                                  : 5 Коррекция по ролику, см/км -    0.0 см 
RES                .OHMM                                   : 15 Резистивиметр, Ом*м -  600.0 см 
SPID               .M/H                                    : 2 Скорость, м/час -    0.0 см 
TENS               .T                                      : 6 Натяжение кабеля, т -    0.0 см 
TIME               .S                                      : 4 Время, сек -    0.0 см 
UBK                .V                                      : 19 Напр. БК, В - 1768.0 см 
~Ascii
# ...
2715.2     -9999      13.9       11.7       -9999      6          4.9        6.7        -9999      -9999      426        0          568.72     8.9        -275       2.76       -1797      0          28320.43   -9999     
2715.4     -9999      10.8       11         6.4        6          5.2        7          -9999      -9999      428        0          572.46     8.8        -275       2.759      -1803      0          28320.05   -9999     
2715.6     -9999      8.9        10.1       7.1        6.2        5.5        7.3        -9999      -9999      425.58     0          573.23     8.8        -275       2.758      -1812      0          28319.7    -9999     
2715.8     -9999      8.5        9.5        7.8        6.2        5.8        7.3        -9999      -9999      424        0          573.25     8.8        -275       2.76       -1829      0          28319.32   -9999     
2716       -9999      9.1        9.1        8.6        6          6          7.3        -9999      -9999      427.5      0          574.12     9          -275       2.759      -1856      0          28318.91   -9999     
2716.2     -9999      8.8        8.1        8.9        5.9        6          7.3        -9999      -9999      425.333    0          574.69     9.4        -275       2.759      -1853      0          28318.49   -9999     
2716.4     -9999      8.4        7.7        8.8        5.7        6.2        7.1        -9999      -9999      424        0          574.15     9.6        -275       2.759      -1847      0          28318.09   -9999     
2716.6     -9999      8.2        7.6        8.3        5.6        6.2        7.2        -9999      -9999      426        0          572.49     9.3        -275       2.759      -1837      0          28317.68   -9999     
2716.8     -9999      8.1        7.6        8.1        5.6        6          7.2        -9999      -9999      428        0          569.3      8.9        -275       2.758      -1820      0          28317.29   -9999     
2717       -9999      9.3        8.3        7.9        5.7        6          7.2        -9999      -9999      424        0          566.84     8.4        -275       2.76       -1838      0          28316.92   -9999     
2717.2     -9999      11         8.8        7.9        5.9        6.1        7.3        -9999      -9999      426.8      0          571.81     8.2        -275       2.758      -1854      0          28316.52   -9999     
2717.4     -9999      10.1       8.4        7.5        6.1        6.1        7.4        -9999      -9999      427        0          574.97     8.2        -275       2.761      -1850      0          28316.13   -9999     
2717.6     -9999      8.8        8.3        7.4        6.6        6.2        7.7        -9999      -9999      428        0          576.32     8.3        -275       2.76       -1843      0          28315.87   -9999     
2717.8     -9999      8.1        8.3        7.3        7.2        6.3        7.9        -9999      -9999      426        0          576.58     8.7        -275       2.759      -1830      0          28315.69   -9999     
2718       -9999      7.9        8          7.2        7.4        6.4        7.9        -9999      -9999      428        0          576.28     9          -275       2.76       -1813      0          28314.98   -9999     
2718.2     -9999      7.8        7.4        7          7.6        6.2        7.7        -9999      -9999      426.5      0          574.58     9.5        -275       2.758      -1831      0          28314.67   -9999     
2718.4     6.79       7.6        7          7          7.4        6          7.4        0.025      -9999      424.667    0          571.64     9.4        -275       2.762      -1829      0          28314.2    0.708     
2718.6     7.56       8.4        7.2        6.8        7.3        6          7.3        0.022      -9999      426.512    0          569.17     9.2        -275       2.761      -1815      0          28313.8    0.705     
2718.8     7.09       9          7.2        6.7        7.2        5.7        7.2        0.024      -9999      425.5      0          569.87     8.9        -275       2.76       -1834      0          28313.4    0.709     
2719       7.44       9.9        7.9        6.8        7          5.4        7.2        0.023      -9999      428        0          569.11     8.6        -275       2.757      -1829      0          28313.01   0.722     
2719.2     7          9.6        8          6.7        6.9        5.5        7.3        0.025      -9999      428        0          571.2      8.6        -275       2.759      -1827      0          28312.63   0.728     
2719.4     6.14       9.6        8.4        6.8        6.7        5.4        7.3        0.028      -9999      426.667    0          573.42     8.9        -275       2.759      -1855      0          28312.26   0.725     
2719.6     6.12       8.5        8.3        6.6        6.4        5.4        7.5        0.028      -9999      427.317    0          573.77     9          -275       2.758      -1855      0          28311.85   0.712     
2719.8     6.06       7.9        7.8        6.5        6.5        5.4        8.1        0.027      -9999      426        0          573.2      8.6        -275       2.76       -1851      0          28311.47   0.7       
2720       6.78       7.7        7.7        6.7        6.6        5.4        8.9        0.024      -9999      426        0          570.87     8.1        -275       2.759      -1844      0          28311.08   0.687     
2720.2     9.36       8.7        8.2        7.2        6.7        5.4        9.5        0.017      -9999      425        0          568.67     7.7        -275       2.762      -1832      0          28310.71   0.675     
2720.4     6.76       10.5       8.8        7.4        6.8        5.2        9.5        0.023      143.2      428        0          572.12     7.6        -275       2.759      -1847      0          28310.29   0.669     
2720.6     5.34       9.7        7.8        7          6.8        4.9        9.5        0.029      144.7      427.012    0          575.65     7.6        -275       2.76       -1869      0          28309.9    0.663     
2720.8     5.47       7.7        6.8        6.6        6.7        4.9        9.8        0.029      146.7      428        0          577.19     7.5        -275       2.76       -1829      0          28309.5    0.669     
2721       5.88       6.7        6.7        6.2        6          4.8        10         0.028      147.1      428        0          576.83     7.6        -275       2.76       -1835      0          28309.14   0.694     
2721.2     5.5        7          6.9        6.1        5.6        4.6        10.8       0.031      142.4      426        0          576.57     8.4        -275       2.762      -1857      0          28308.79   0.723     
2721.4     5.1        6.9        6.5        5.7        5.5        5          12.1       0.035      135.9      427        0          575.6      10.3       -275       2.76       -1856      0          28308.38   0.747     
2721.6     4.93       6.2        5.7        5.5        5.4        5.5        14         0.038      129.4      426        0          573.89     14.1       -275       2.76       -1852      0          28308.01   0.783     
2721.8     5.06       5.5        4.9        5.3        5          6.3        16.5       0.039      121.2      428        0          568.44     20.2       -275       2.756      -1846      0          28307.59   0.833     
2722       6.87       5.2        4.9        5.7        4.8        7.6        21.6       0.031      108.4      428        0          558.79     26.8       -275       2.761      -1834      0          28307.23   0.89      
2722.2     17.86      6.9        6          6.6        4.8        8.6        29.5       0.013      93.5       428        0          553.87     30.2       -275       2.761      -1815      0          28306.81   0.956     
2722.4     22.57      12         7.4        7.3        5.4        9.5        36.8       0.011      78.4       428        0          552.39     30.5       -275       2.759      -1804      0          28306.43   1.046     
