~Version
 VERS              .         2.0                           : CWLS LOG ASCII STANDARD - VERSION 2.0
 WRAP              .         NO                            : ONE LINE PER DEPTH STEP
 DLM               .         SPACE                         : DELIMITING CHARACTER(SPACE TAB OR COMMA)
~Well Information
#_______________________________________________________________________________
#
#PARAMETER_NAME    .UNIT     VALUE                         : DESCRIPTION
#_______________________________________________________________________________
STRT               .M        2654.8                        : First reference value
STOP               .M        2754.99995                    : Last reference value
STEP               .M        0.1999999                     : Step increment
NULL               .         -9999                         : Missing value
COMP               .                                       : Company
WELL               .         616                           : Well name
FLD                .                                       : Field
LOC                .                                       : Location
CNTY               .                                       : County
STAT               .                                       : State
CTRY               .                                       : Country
SRVC               .                                       : Service Company
DATE               .                                       : Date
API                .                                       : API number
PROJECT_UPGRADE_TIME .         2021-03-18T21_24_50           : 
group              .         Good                          : 
~Parameter Information Block
#_______________________________________________________________________________
#
#PARAMETER_NAME    .UNIT     VALUE                         : DESCRIPTION
#_______________________________________________________________________________
SET                .         D4404_D_2                     : 
COMM               .                                       : 
OTHER              .         Запись производится в присутствии: 
OTHER_10           .         Максимальная температура      : 
OTHER_11           .         Тип промывочной жидкости      : 
OTHER_12           .         Сопротивление ПЖ (Ом*м) при 20°C: 
OTHER_13           .         Плотность ПЖ(г/см3)           : 
OTHER_14           .         Вязкость ПЖ(с)                : 
OTHER_15           .         Водоотдача ПЖ(см3/30мин)      : 
OTHER_16           .         Уровень ПЖ                    : 
OTHER_17           .         Нефть ПЖ (%)                  : 
OTHER_18           .         Барит ПЖ (%)                  : 
OTHER_19           .         Гематит ПЖ (%)                : 
OTHER_2            .         Заказчик ННСН  ЦДНГ-1         : 
OTHER_20           .         КМЦ ПЖ (%)                    : 
OTHER_21           .         Разгазирование ПЖ (да,нет)    : 
OTHER_22           .         Подъемник                     : 
OTHER_23           .         Лаборатория                   : 
OTHER_24           .         Тип кабеля                    : 
OTHER_25           .         Длина кабеля (м)              : 
OTHER_26           .         Цена последней метки          : 
OTHER_27           .         Цена контрольной метки        : 
OTHER_28           .         Диаметр долота (мм)           : 
OTHER_29           .         Глубина бурения (м)           : 
OTHER_3            .         Площадь                       : 
OTHER_30           .         Искусственный забой (м)       : 
OTHER_31           .         Диаметр колонны (мм)          : 
OTHER_32           .         Толщина колонны (мм)          : 
OTHER_33           .         Башмак колонны (м)            : 
OTHER_34           .         Диаметр НКТ (мм)              : 
OTHER_35           .         Толщина НКТ (мм)              : 
OTHER_36           .         Воронка НКТ (м)               : 
OTHER_37           .         Дата цементожа                : 
OTHER_38           .         Тип, количество(т) и плотность цемента: 
OTHER_39           .         Интервалы перфорации (м)      : 
OTHER_4            .         Категория                     : 
OTHER_40           .         Направление, диаметр (мм)     : 
OTHER_41           .         Направление, глубина (м)      : 
OTHER_42           .         Кондуктор, диаметр (мм)       : 
OTHER_43           .         Кондуктор, глубина (м)        : 
OTHER_44           .         Техническая колонна, диаметр (мм): 
OTHER_45           .         Техническая колонна, глубина (м): 
OTHER_46           .         Эксплуатационная колонна, диаметр (мм): 
OTHER_47           .         Эксплуатационная колонна, глубина (м): 
OTHER_48           .         Программа Кедр-02 версия 3.4  : 
OTHER_49           .         Операционная система Windows NT 5.1 build 2600 Service Pack 2: 
OTHER_5            .         Назначение исследований       : 
OTHER_50           .         Программное обеспечение станции MONITOR-386EX 25/12/99 15_08_10   BGF V54 20/09/05 15_32_17   3.3__BGF_9030071: 
OTHER_51           .         Kedr.exe версия 3.4.2.74      : 
OTHER_52           .         KedrData.dll версия 3.4.2.29  : 
OTHER_53           .         Мнемоники версия 3.18 S       : 
OTHER_54           .         Драйвер версия 2.1.1.4        : 
OTHER_55           .         LasInf.dll 4.3.0.35           : 
OTHER_56           .         Прибор_ КСА-Т4                : 
OTHER_57           .         Номер прибора_ 160            : 
OTHER_58           .         Режим_ КСА-Т4                 : 
OTHER_59           .         Форма_ С.А.Б.                 : 
OTHER_6            .         Альтитуда стола ротора        : 
OTHER_60           .         Тарировки_                    : 
OTHER_61           .         <_techsia_sc_> Дата тарировки температуры 25.05.2010: 
OTHER_62           .         Ручной ввод коэффициентов     : 
OTHER_63           .         TM.DEGC = 0.00402*RTM.E.ACP + -0.994: 
OTHER_64           .         <_techsia_sc_> Дата тарировки давления 25.05.2010: 
OTHER_65           .         Ручной ввод коэффициентов     : 
OTHER_66           .         MN.ATM = (2.27521e-006*TM.DEGC + 0.02078)*(RMN.E.ACP + 6.2*TM.DEGC + -1688): 
OTHER_67           .         <_techsia_sc_> Дата тарировки ГК 25.05.2010: 
OTHER_68           .         Ручной ввод коэффициентов     : 
OTHER_69           .         GR.UR/H = RGR.IMP/MIN / 45.5144: 
OTHER_7            .         Вид исследований 3  6         : 
OTHER_70           .         GK.FLT = 0.1*GR.UR/H[-1] + (1-0.1)*GR.UR/H[0]: 
OTHER_8            .         Начало бурения интервала каротажа: 
OTHER_9            .         Окончание бурения интервала каротажа: 
PROJECT_UPGRADE_TIME .         2021-03-18T21_24_50           : 
PRTY               .         ПП-601-1                      : N партии
SRVC               .         Барковский                    : Начальник партии
TLFamily_DEPT      .         Measured Depth                : 
TLFamily_LM        .         Casing Collar locator         : 
TLFamily_MN        .                                       : 
TLFamily_TM        .         Temperature                   : 
group              .         second                        : 
~Curve Information
#_______________________________________________________________________________
#
#LOGNAME           .UNIT     LOG_ID                        : DESCRIPTION
#_______________________________________________________________________________
DEPT               .M                                      : Depth curve 
LM                 .е.ацп                                  : Локатор муфт,е.ацп 
MN                 .атм                                    : 12 Давление, атм. -  160.0 см 
TM                 .град.C                                 : Термограмма по стволу скважины,град.C 
~Ascii
# ...
2726.399964 263.98     245.247    49.642    
2726.599964 184.003    245.258    49.642    
2726.799964 197.994    245.285    49.646    
2726.999964 175        245.322    49.65     
2727.199964 176.007    245.34     49.654    
2727.399964 204.973    245.365    49.658    
2727.599964 97.015     245.397    49.665    
2727.799964 158.992    245.408    49.67     
2727.999963 125.003    245.451    49.674    
2728.199963 139        245.472    49.674    
2728.399963 141.02     245.494    49.679    
2728.599963 221.983    245.519    49.684    
2728.799963 155.008    245.535    49.683    
2728.999963 186.008    245.566    49.666    
2729.199963 216.971    245.591    49.644    
2729.399963 100        245.611    49.63     
2729.599963 98.987     245.624    49.622    
2729.799963 46.008     245.651    49.62     
2729.999962 80.017     245.672    49.62     
2730.199962 148.989    245.693    49.622    
2730.399962 106.005    245.715    49.626    
2730.599962 126.988    245.735    49.626    
2730.799962 80.001     245.719    49.608    
2730.999962 85.997     245.761    49.547    
2731.199962 73.004     245.795    49.492    
2731.399962 89.001     245.81     49.451    
2731.599962 94.998     245.827    49.419    
2731.799962 86.995     245.846    49.403    
2731.999961 66.002     245.865    49.393    
2732.199961 74.001     245.884    49.381    
2732.399961 77.105     245.902    49.36     
2732.599961 498.933    245.928    49.345    
2732.799961 228.966    245.958    49.336    
2732.999961 91.997     245.962    49.326    
2733.199961 77.998     245.999    49.314    
2733.399961 68.128     246.018    49.3      
2733.599961 578.919    246.037    49.288    
2733.79996 255.995    246.056    49.273    
2733.99996 236.048    246.076    49.264    
2734.19996 425.932    246.094    49.251    
2734.39996 153.988    246.118    49.241    
2734.59996 104.991    246.133    49.232    
2734.79996 70.14      246.174    49.224    
2734.99996 629.53     246.179    49.22     
2735.19996 6744.054   246.214    49.212    
2735.39996 2960.479   246.233    49.203    
2735.59996 877.828    246.253    49.196    
2735.79996 189.975    246.273    49.188    
2735.999959 90.997     246.293    49.184    
2736.199959 78.997     246.314    49.18     
2736.399959 68.997     246.335    49.18     
2736.599959 56.004     246.357    49.184    
2736.799959 73.005     246.379    49.19     
2736.999959 91.999     246.401    49.198    
2737.199959 88.996     246.44     49.204    
2737.399959 72         246.445    49.214    
2737.599959 71.999     246.481    49.223    
2737.799959 68.003     246.503    49.232    
2737.999958 77.995     246.512    49.237    
2738.199958 57.02      246.541    49.247    
2738.399958 136.996    246.57     49.256    
2738.599958 122.993    246.6      49.269    
2738.799958 93.995     246.623    49.283    
2738.999958 75.002     246.646    49.297    
2739.199958 82.996     246.67     49.312    
2739.399958 69.001     246.694    49.33     
2739.599958 72         246.719    49.353    
2739.799958 72.009     246.744    49.375    
2739.999957 107.994    246.768    49.403    
2740.199957 84.998     246.792    49.421    
2740.399957 78.996     246.817    49.443    
2740.599957 62.006     246.841    49.466    
2740.799957 84.993     246.865    49.493    
2740.999957 59         246.89     49.511    
2741.199957 59.01      246.914    49.537    
2741.399957 99.001     246.938    49.56     
2741.599957 101.004    246.964    49.583    
2741.799957 116.993    246.989    49.614    
2741.999956 88.003     247.013    49.637    
2742.199956 97.993     247.039    49.658    
2742.399956 71.996     247.065    49.693    
2742.599956 58.016     247.101    49.721    
2742.799956 121.992    247.118    49.76     
2742.999956 90.991     247.144    49.795    
2743.199956 56.025     247.171    49.838    
2743.399956 155.978    247.199    49.875    
2743.599956 67.006     247.226    49.916    
2743.799956 88.996     247.257    49.968    
2743.999955 75.003     247.286    50.028    
2744.199955 87         247.314    50.08     
2744.399955 86.995     247.342    50.12     
2744.599955 69.006     247.369    50.161    
2744.799955 91.991     247.397    50.202    
2744.999955 57.02      247.428    50.263    
2745.199955 137.991    247.457    50.315    
2745.399955 103.998    247.487    50.372    
2745.599955 95.994     247.519    50.442    
2745.799955 73.999     247.546    50.502    
2745.999954 74.361     247.573    50.53     
2746.199954 9480.161   247.602    50.577    
2746.399954 6137.903   247.631    50.627    
2746.599954 1768.646   247.66     50.684    
2746.799954 357.944    247.689    50.734    
2746.999954 134.995    247.702    50.8      
2747.199954 116.991    247.729    50.867    
2747.399954 81.994     247.757    50.904    
2747.599954 57.002     247.784    50.946    
2747.799954 64.047     247.815    50.985    
2747.999953 251.989    247.839    51.03     
2748.199953 208.986    247.867    51.075    
2748.399953 154.987    247.893    51.11     
2748.599953 102.993    247.915    51.136    
2748.799953 76.993     247.936    51.137    
2748.999953 50.007     247.977    51.133    
2749.199953 77.007     247.998    51.129    
2749.399953 105.995    248.001    51.137    
2749.599953 84.994     248.053    51.166    
2749.799953 62.998     248.117    51.56     
2749.999952 55.998     248.131    51.616    
2750.199952 50.001     248.145    51.551    
2750.399952 52.002     248.165    51.529    
2750.599952 58.007     248.168    51.54     
2750.799952 85.001     248.194    51.563    
2750.999952 86.997     248.22     51.597    
2751.199952 76.998     248.249    51.644    
2751.399952 69.002     248.261    51.703    
2751.599952 78.002     248.296    51.783    
2751.799952 86.999     248.334    51.893    
2751.999951 84.005     248.369    51.987    
2752.199951 102.996    248.403    52.074    
2752.399951 86.995     248.427    52.146    
2752.599951 67.995     248.449    52.209    
2752.799951 47.998     248.492    52.333    
2752.999951 42         248.542    52.519    
2753.199951 41         248.563    52.671    
2753.399951 42         248.612    52.812    
2753.599951 -9999      248.652    52.996    
2753.799951 -9999      248.683    53.075    
2753.99995 -9999      248.681    53.151    
2754.19995 -9999      248.694    53.222    
2754.39995 -9999      248.672    53.261    
2754.59995 -9999      248.679    53.302    
2754.79995 -9999      248.696    53.35     
2754.99995 -9999      248.692    53.403    
