~Version
 VERS              .         2.0                           : CWLS LOG ASCII STANDARD - VERSION 2.0
 WRAP              .         NO                            : ONE LINE PER DEPTH STEP
 DLM               .         SPACE                         : DELIMITING CHARACTER(SPACE TAB OR COMMA)
~Well Information
#_______________________________________________________________________________
#
#PARAMETER_NAME    .UNIT     VALUE                         : DESCRIPTION
#_______________________________________________________________________________
STRT               .M        2695.9                        : First reference value
STOP               .M        2741.2                        : Last reference value
STEP               .M        0.1000001                     : Step increment
NULL               .         -9999                         : Missing value
COMP               .                                       : Company
WELL               .         616                           : Well name
FLD                .                                       : Field
LOC                .                                       : Location
CNTY               .                                       : County
STAT               .                                       : State
CTRY               .                                       : Country
SRVC               .                                       : Service Company
DATE               .                                       : Date
API                .                                       : API number
PROJECT_UPGRADE_TIME .         2021-03-18T21_24_50           : 
group              .         Good                          : 
~Parameter Information Block
#_______________________________________________________________________________
#
#PARAMETER_NAME    .UNIT     VALUE                         : DESCRIPTION
#_______________________________________________________________________________
SET                .         D7031_D                       : 
OTHER              .         Kedr.exe версия 2.1.2.32      : 
OTHER_10           .         RGD. = 0.647457 * RGD. + 2.35279: 
OTHER_2            .         KedrData.dll версия 3.2.2.14  : 
OTHER_3            .         LasInf.dll версия 3.2.0.13    : 
OTHER_4            .         Драйвер версия 1.2.0.6        : 
OTHER_5            .         Прибор_ Расходомер            : 
OTHER_6            .         Номер прибора_ 963            : 
OTHER_7            .         Режим_ Расходомер             : 
OTHER_8            .         Форма_ Саня                   : 
OTHER_9            .         Тарировки_                    : 
PROJECT_UPGRADE_TIME .         2021-03-18T21_24_50           : 
TLFamily_DEPT      .         Measured Depth                : 
TLFamily_METKA     .                                       : 
TLFamily_RCOR      .                                       : 
TLFamily_RGD       .                                       : 
TLFamily_RGD_2     .                                       : 
TLFamily_SPID      .         Spontaneous Potential         : 
TLFamily_TIME      .         Time                          : 
group              .         prim                          : 
~Curve Information
#_______________________________________________________________________________
#
#LOGNAME           .UNIT     LOG_ID                        : DESCRIPTION
#_______________________________________________________________________________
DEPT               .M                                      : 1 Глубина, м -    0.0 см 
METKA              .                                       : 3 Метки,  -    0.0 см 
RCOR               .CM/KM                                  : 5 Коррекция по ролику, см/км -    0.0 см 
RGD                .                                       : 6 Расход, усл.ед. -   49.0 см 
RGD_2              .                                       : 7 Расход, м3/сут -   49.0 см 
SPID               .M/H                                    : 2 Скорость, м/час -    0.0 см 
TIME               .S                                      : 4 Время, сек -    0.0 см 
~Ascii
# ...
2716.7     0          0          46         32.29      -190       44614.55  
2716.8     0          0          58         39.62      -190       44612.55  
2716.9     0          0          55         38.21      -130       44610.55  
2717       0          0          45         31.23      -190       44608.57  
2717.1     0          0          50         34.87      -190       44606.55  
2717.2     0          0          48         33.51      -190       44604.56  
2717.3     0          0          54         37.07      -190       44602.56  
2717.4     0          0          58         39.95      -190       44600.55  
2717.5     0          0          50         34.53      -190       44598.55  
2717.6     0          0          41         28.67      -190       44596.54  
2717.7     0          0          38         27.01      -190       44594.55  
2717.8     0          0          31         22.1       -130       44592.8   
2717.9     0          0          43         30.36      -190       44590.68  
2718       0          0          40         27.93      -130       44588.8   
2718.1     0          0          38         26.93      -189       44586.79  
2718.2     0          0          49         33.89      -190       44584.79  
2718.3     0          0          34         24.29      -190       44582.81  
2718.4     0          0          47         33.06      -190       44580.68  
2718.5     0          0          46         32.17      -190       44578.8   
2718.6     0          0          41         28.65      -131       44576.79  
2718.7     0          0          51         35.19      -190       44574.8   
2718.8     0          0          34         24.33      -190       44572.79  
2718.9     0          0          42         29.58      -190       44570.79  
2719       0          0          50         34.74      -190       44568.79  
2719.1     0          0          29         20.85      -190       44566.78  
2719.2     0          0          31         22.71      -190       44564.8   
2719.3     0          0          32         23.19      -190       44562.8   
2719.4     0          0          32         22.98      -190       44560.8   
2719.5     0          0          32         23.38      -130       44558.79  
2719.6     0          0          16         12.47      -190       44556.79  
2719.7     0          0          20         15.16      -190       44554.79  
2719.8     0          0          26         18.95      -260       44552.79  
2719.9     1          0          39         27.75      -190       44550.78  
2720       0          0          13         10.65      -190       44546.66  
2720.1     0          0          30         21.47      -190       44544.66  
2720.2     0          0          19         14.45      -160       44542.66  
2720.3     0          0          12         9.99       -190       44540.55  
2720.4     0          0          27         20.07      -130       44538.79  
2720.5     0          0          21         15.9       -190       44536.78  
2720.6     0          0          24         17.62      -190       44534.77  
2720.7     0          0          16         12.72      -190       44532.8   
2720.8     0          0          25         18.68      -190       44530.79  
2720.9     0          0          30         22.01      -190       44528.79  
2721       0          0          25         18.63      -190       44526.79  
2721.1     0          0          16         12.54      -190       44524.78  
2721.2     0          0          22         16.37      -190       44522.78  
2721.3     0          0          30         21.77      -190       44520.78  
2721.4     0          0          21         16.25      -130       44518.78  
2721.5     0          0          15         12.15      -190       44516.77  
2721.6     0          0          19         14.87      -190       44514.79  
2721.7     0          0          19         14.88      -190       44512.91  
2721.8     0          0          11         9.68       -130       44510.79  
2721.9     0          0          26         19.35      -190       44508.78  
2722       0          0          24         17.64      -190       44506.78  
2722.1     0          0          38         27.01      -190       44504.77  
2722.2     0          0          18         14.15      -190       44502.9   
2722.3     0          0          19         14.44      -190       44500.77  
2722.4     0          0          23         17.17      -190       44498.91  
2722.5     0          0          21         15.93      -190       44496.79  
2722.6     0          0          27         19.84      -130       44494.9   
2722.7     0          0          37         26.17      -190       44492.9   
2722.8     0          0          30         21.92      -190       44490.9   
2722.9     0          0          33         23.79      -130       44488.9   
2723       0          0          39         27.65      -190       44486.9   
2723.1     0          0          12         10.28      -190       44484.89  
2723.2     0          0          15         12.09      -160       44482.89  
2723.3     0          0          15         11.81      -190       44480.78  
2723.4     0          0          19         14.74      -190       44478.78  
2723.5     0          0          26         19.29      -190       44476.78  
2723.6     0          0          38         26.95      -190       44474.77  
2723.7     0          0          44         31.1       -130       44472.77  
2723.8     0          0          28         20.49      -190       44470.65  
2723.9     0          0          27         20.11      -190       44468.64  
2724       0          0          23         17.21      -190       44466.52  
2724.1     0          0          24         17.65      -190       44464.64  
2724.2     0          0          20         15.51      -190       44462.65  
2724.3     0          0          14         11.48      -190       44460.64  
2724.4     0          0          19         14.94      -130       44458.51  
2724.5     0          0          24         17.77      -190       44456.53  
2724.6     0          0          16         12.49      -190       44454.52  
2724.7     0          0          23         17.22      -190       44452.64  
2724.8     0          0          15         12         -190       44450.64  
2724.9     0          0          17         13.5       -190       44448.63  
2725       0          0          29         20.99      -190       44446.64  
2725.1     0          0          33         23.65      -190       44444.64  
2725.2     0          0          28         20.37      -130       44442.64  
2725.3     0          0          26         19.32      -190       44440.5   
2725.4     0          0          21         15.92      -130       44438.64  
2725.5     0          0          26         19.25      -190       44436.64  
2725.6     0          0          19         14.73      -190       44434.63  
2725.7     0          0          29         21.44      -160       44432.63  
2725.8     0          0          25         18.8       -190       44430.64  
2725.9     0          0          18         14.32      -160       44428.64  
2726       0          0          43         30.15      -130       44426.63  
2726.1     0          0          27         20.04      -190       44424.63  
2726.2     0          0          25         18.33      -160       44422.64  
2726.3     0          0          22         16.72      -190       44420.63  
2726.4     0          0          37         26.14      -190       44418.63  
2726.5     0          0          36         25.72      -190       44416.63  
2726.6     0          0          43         30.02      -190       44414.63  
2726.7     0          0          24         17.78      -190       44412.63  
2726.8     0          0          17         13.32      -260       44410.5   
2726.9     0          0          26         19.18      -190       44408.63  
2727       0          0          24         17.63      -190       44406.63  
