~Version
 VERS              .         2.0                           : CWLS LOG ASCII STANDARD - VERSION 2.0
 WRAP              .         NO                            : ONE LINE PER DEPTH STEP
 DLM               .         SPACE                         : DELIMITING CHARACTER(SPACE TAB OR COMMA)
~Well Information
#_______________________________________________________________________________
#
#PARAMETER_NAME    .UNIT     VALUE                         : DESCRIPTION
#_______________________________________________________________________________
STRT               .M        2689.8                        : First reference value
STOP               .M        2754.4                        : Last reference value
STEP               .M        0.1999995                     : Step increment
NULL               .         -9999                         : Missing value
COMP               .                                       : Company
WELL               .         616                           : Well name
FLD                .                                       : Field
LOC                .                                       : Location
CNTY               .                                       : County
STAT               .                                       : State
CTRY               .                                       : Country
SRVC               .                                       : Service Company
DATE               .                                       : Date
API                .                                       : API number
PROJECT_UPGRADE_TIME .         2021-03-18T21_24_50           : 
group              .         Good                          : 
~Parameter Information Block
#_______________________________________________________________________________
#
#PARAMETER_NAME    .UNIT     VALUE                         : DESCRIPTION
#_______________________________________________________________________________
SET                .         D7018_D                       : 
OTHER              .         Kedr.exe версия 2.1.2.32      : 
OTHER_10           .         TM.GRD = 0.00404*TM$.UE + 0.07: 
OTHER_11           .         MN.ATM = (6.33279e-006*TM.GRD + 0.02401)*(MN$.UE + 2.72*TM.GRD + -2018): 
OTHER_12           .         GK.MKR/H = GK$.UE / 43.5489 + 0: 
OTHER_13           .         RES.SM = 0.00476*CRES.UE - 1.51709: 
OTHER_14           .         PL.GSM3 = 0 + 0 * (PL.UE / 1) +  0 * (PL.UE / 1)^2: 
OTHER_15           .         Постоянная времени ГГП = 6 сек: 
OTHER_16           .         Постоянная времени ГК = 6 сек : 
OTHER_2            .         KedrData.dll версия 3.2.2.14  : 
OTHER_3            .         LasInf.dll версия 3.2.0.13    : 
OTHER_4            .         Драйвер версия 1.2.0.5        : 
OTHER_5            .         Прибор_ КСА-M1                : 
OTHER_6            .         Номер прибора_ 155+р204       : 
OTHER_7            .         Режим_ КСА-М1 + ГГП + Резистивиметр: 
OTHER_8            .         Форма_ 223\2                  : 
OTHER_9            .         Тарировки_                    : 
PROJECT_UPGRADE_TIME .         2021-03-18T21_24_50           : 
TLFamily_CRES      .                                       : 
TLFamily_DEPT      .         Measured Depth                : 
TLFamily_GK        .         Gamma Ray                     : 
TLFamily_GK$       .                                       : 
TLFamily_LM        .         Casing Collar locator         : 
TLFamily_METKA     .                                       : 
TLFamily_MN        .                                       : 
TLFamily_MN$       .                                       : 
TLFamily_PL        .                                       : 
TLFamily_PL_2      .                                       : 
TLFamily_RCOR      .                                       : 
TLFamily_RES       .         Mud Resistivity               : 
TLFamily_SPID      .         Spontaneous Potential         : 
TLFamily_STD       .                                       : 
TLFamily_TIME      .         Time                          : 
TLFamily_TM        .         Temperature                   : 
TLFamily_TM$       .         Temperature                   : 
TLFamily_VGD       .         Gas Volume                    : 
group              .         prim                          : 
~Curve Information
#_______________________________________________________________________________
#
#LOGNAME           .UNIT     LOG_ID                        : DESCRIPTION
#_______________________________________________________________________________
DEPT               .M                                      : 1 Глубина, м -    0.0 см 
CRES               .UE                                     : 9 Проводимость, усл.ед. -  222.0 см 
GK                 .MKR/H                                  : 16 Гамма-активность, мкр./ч -  106.0 см 
GK$                .UE                                     : 13 Гамма-активность, усл.ед. -  106.0 см 
LM                 .                                       : 11 Локатор муфт,  -   16.0 см 
METKA              .                                       : 3 Метки,  -    0.0 см 
MN                 .ATM                                    : 15 Давление, атм. -  160.0 см 
MN$                .UE                                     : 7 Давление, усл.ед. -  160.0 см 
PL                 .UE                                     : 10 Плотность, усл.ед. -  270.0 см 
PL_2               .GSM3                                   : 18 Плотность, г./см3 -  270.0 см 
RCOR               .CM/KM                                  : 5 Коррекция по ролику, см/км -    0.0 см 
RES                .SM                                     : 17 Проводимость,  -  222.0 см 
SPID               .M/H                                    : 2 Скорость, м/час -    0.0 см 
STD                .                                       : 12 Приток,  -  170.0 см 
TIME               .S                                      : 4 Время, сек -    0.0 см 
TM                 .GRD                                    : 14 Температура, °C -  180.0 см 
TM$                .UE                                     : 6 Температура, усл.ед. -  180.0 см 
VGD                .                                       : 8 Влагомер,  -  170.0 см 
~Ascii
# ...
2730.8     1298       11.47      504        149        0          250.966    12208      14         0          0          4.6614     -260       9485       9616.36    48.211     11916      6671      
2731       1300       11.15      506        191        0          250.983    12208      13         0          0          4.6709     -260       9502       9613.52    48.243     11924      6669      
2731.2     1302       9.93       431        231        0          251.047    12210      14         0          0          4.6804     -260       9532       9610.75    48.372     11956      6677      
2731.4     1303       10.54      437        184        0          251.025    12209      14         0          0          4.6836     -260       9548       9607.97    48.489     11985      6678      
2731.6     1304       10.55      468        153        0          251.055    12210      14         0          0          4.6884     -260       9550       9604.92    48.51      11990      6681      
2731.8     1309       9.99       453        173        0          251.08     12210      14         0          0          4.7121     -260       9564       9602.15    48.549     12000      6681      
2732       1309       9.06       398        201        0          251.117    12211      16         0          0          4.7153     -260       9588       9599.37    48.653     12026      6681      
2732.2     1310       9.25       370        212        0          251.124    12211      14         0          0          4.7185     -260       9616       9596.54    48.837     12071      6675      
2732.4     1311       10.38      424        156        0          251.121    12210      13         0          0          4.7217     -260       9625       9593.75    48.895     12085      6670      
2732.6     1314       11.11      480        169        0          251.164    12212      14         0          0          4.7375     -260       9637       9590.92    48.96      12102      6670      
2732.8     1316       11         490        203        0          251.157    12211      14         0          0          4.7486     -260       9652       9588.14    49.013     12115      6672      
2733       1318       10.78      482        230        0          251.207    12213      13         0          0          4.7582     -223       9676       9585.34    49.14      12146      6671      
2733.2     1319       9.89       441        159        0          251.213    12213      15         0          0          4.7614     -260       9690       9582.46    49.215     12165      6671      
2733.4     1321       9.36       408        196        0          251.23     12213      14         0          0          4.7709     -260       9696       9579.69    49.264     12177      6673      
2733.6     1324       9.33       409        211        0          251.259    12213      13         0          0          4.785      -260       9712       9576.91    49.331     12193      6674      
2733.8     1321       9.24       403        161        0          251.288    12214      14         0          0          4.7724     -260       9737       9574.01    49.485     12231      6672      
2734       1327       9.07       408        200        0          251.296    12214      14         0          0          4.7994     -260       9752       9571.23    49.586     12257      6674      
2734.2     1328       8.71       391        210        0          251.312    12214      14         0          0          4.8042     -260       9760       9568.46    49.643     12270      6668      
2734.4     1333       8.79       366        177        0          251.311    12213      14         0          0          4.828      -213       9780       9565.68    49.708     12287      6673      
2734.6     1333       9.13       396        266        0          251.365    12215      13         0          0          4.828      -260       9804       9562.91    49.879     12329      6670      
2734.8     1335       9.21       407        253        0          251.365    12215      14         0          0          4.8375     -260       9818       9560       49.939     12344      6673      
2735       1335       8.85       392        139        0          251.38     12215      13         0          0          4.8375     -300       9826       9557.24    49.98      12354      6674      
2735.2     1337       8.8        353        1538       0          251.425    12216      13         0          0          4.8482     -277       9857       9554.45    50.097     12383      6672      
2735.4     1342       10.21      400        5996       0          251.451    12217      13         0          0          4.8724     -260       9883       9551.66    50.255     12422      6670      
2735.6     1341       11.49      490        225        0          251.489    12218      14         0          0          4.8661     -260       9898       9548.88    50.33      12441      6672      
2735.8     1343       11.47      513        203        0          251.493    12217      14         0          0          4.8772     -260       9922       9545.97    50.43      12465      6672      
2736       1348       10.77      506        171        0          251.518    12218      15         0          0          4.9018     -260       9938       9543.2     50.583     12503      6671      
2736.2     1351       10.46      453        203        0          251.526    12218      14         0          0          4.9137     -260       9948       9540.42    50.593     12506      6671      
2736.4     1353       10.71      471        162        0          251.554    12219      13         0          0          4.9256     -260       9966       9537.65    50.655     12521      6676      
2736.6     1356       10.52      454        186        0          251.572    12219      14         0          0          4.939      -260       9988       9534.73    50.744     12543      6671      
2736.8     1359       10.72      464        197        0          251.61     12219      13         0          0          4.9502     -280       10022      9531.97    50.878     12576      6670      
2737       1360       11         462        161        0          251.617    12219      13         0          0          4.9565     -260       10060      9529.19    51.109     12633      6677      
2737.2     1362       11.32      495        233        0          251.654    12220      14         0          0          4.966      -260       10086      9526.29    51.161     12646      6670      
2737.4     1366       11.08      498        193        0          251.674    12220      13         0          0          4.9851     -260       10121      9523.51    51.315     12684      6677      
2737.6     1367       11.44      462        194        0          251.732    12221      13         0          0          4.9899     -237       10147      9520.74    51.406     12707      6677      
2737.8     1369       12.05      510        146        0          251.745    12221      14         0          0          4.9994     -260       10180      9517.96    51.665     12771      6671      
2738       1370       12.07      532        220        0          251.8      12222      13         0          0          5.0041     -260       10211      9515.06    51.762     12795      6682      
2738.2     1373       11.75      513        3521       0          251.822    12222      14         0          0          5.0168     -260       10238      9512.28    51.992     12852      6674      
2738.4     1379       11.7       506        324        0          251.835    12222      14         0          0          5.0469     -260       10258      9509.49    52.158     12893      6675      
2738.6     1379       11.81      514        201        0          251.87     12223      14         0          0          5.0454     -260       10272      9506.73    52.257     12918      6668      
2738.8     1386       11.76      517        221        0          251.874    12223      13         0          0          5.0779     -260       10296      9503.95    52.341     12938      6674      
