~Version
 VERS              .         2.0                           : CWLS LOG ASCII STANDARD - VERSION 2.0
 WRAP              .         NO                            : ONE LINE PER DEPTH STEP
 DLM               .         SPACE                         : DELIMITING CHARACTER(SPACE TAB OR COMMA)
~Well Information
#_______________________________________________________________________________
#
#PARAMETER_NAME    .UNIT     VALUE                         : DESCRIPTION
#_______________________________________________________________________________
STRT               .M        2657.6                        : First reference value
STOP               .M        2764.999893                   : Last reference value
STEP               .M        0.1999998                     : Step increment
NULL               .         -9999                         : Missing value
COMP               .                                       : Company
WELL               .         616                           : Well name
FLD                .                                       : Field
LOC                .                                       : Location
CNTY               .                                       : County
STAT               .                                       : State
CTRY               .                                       : Country
SRVC               .                                       : Service Company
DATE               .                                       : Date
API                .                                       : API number
PROJECT_UPGRADE_TIME .         2021-03-18T21_24_50           : 
group              .         Good                          : 
~Parameter Information Block
#_______________________________________________________________________________
#
#PARAMETER_NAME    .UNIT     VALUE                         : DESCRIPTION
#_______________________________________________________________________________
SET                .         D7024_D_2                     : 
NPR                .         155                           : Номер прибора
OTHER              .         Kedr.exe версия 2.1.2.32      : 
OTHER_10           .         TM.GRD = 0.00404*TM$.UE + 0.07: 
OTHER_11           .         MN.ATM = (6.33279e-006*TM.GRD + 0.02401)*(MN$.UE + 2.72*TM.GRD + -2018): 
OTHER_12           .         GK.MKR/H = GK$.UE / 43.5489 + 0: 
OTHER_13           .         RES.SM = 0.00476*CRES.UE - 1.51709: 
OTHER_14           .         PL.GSM3 = 0 + 0 * (PL.UE / 1) +  0 * (PL.UE / 1)^2: 
OTHER_15           .         Постоянная времени ГГП = 6 сек: 
OTHER_16           .         Постоянная времени ГК = 6 сек : 
OTHER_2            .         KedrData.dll версия 3.2.2.14  : 
OTHER_3            .         LasInf.dll версия 3.2.0.13    : 
OTHER_4            .         Драйвер версия 1.2.0.5        : 
OTHER_5            .         Прибор_ КСА-M1                : 
OTHER_6            .         Номер прибора_ 155+р204       : 
OTHER_7            .         Режим_ КСА-М1 + ГГП + Резистивиметр: 
OTHER_8            .         Форма_ 223\2                  : 
OTHER_9            .         Тарировки_                    : 
PR                 .         КСА-Т7 М1                     : Тип прибора
PROJECT_UPGRADE_TIME .         2021-03-18T21_24_50           : 
PRTY               .         ПП-223_2                      : Номер партии
SRV                .         ЦКРС                          : Заказчик
SRVC               .         Лузин  А.Б.                   : Начальник партии
TLFamily_DEPT      .         Measured Depth                : 
TLFamily_LM        .         Casing Collar locator         : 
TLFamily_MN        .                                       : 
TLFamily_SPID      .         Spontaneous Potential         : 
TLFamily_TM        .         Temperature                   : 
group              .         second                        : 
~Curve Information
#_______________________________________________________________________________
#
#LOGNAME           .UNIT     LOG_ID                        : DESCRIPTION
#_______________________________________________________________________________
DEPT               .M                                      : Depth curve 
LM                 .е.ацп                                  : Локация муфт 
MN                 .атм                                    : Манометрия, атм 
SPID               .м/ч                                    : Скорость записи,м/час 
TM                 .град.С                                 : Термометрия,град.С 
~Ascii
# ...
2715.199942 57.012     375.28     580.03     55.33     
2715.399942 81.99      376.05     639.936    55.32     
2715.599942 61.004     375.74     510.034    55.31     
2715.799942 69.989     374.69     579.983    55.3      
2715.999942 47         374.22     545.017    55.3      
2716.199941 45.991     373.9      580        55.29     
2716.399941 28.01      373.53     580        55.28     
2716.599941 48.997     373.08     579.98     55.26     
2716.799941 43.006     372.53     540.02     55.24     
2716.999941 56         372.88     579.971    55.22     
2717.19994 55.004     371.98     522.029    55.21     
2717.39994 62.991     373.81     580        55.2      
2717.59994 44.003     374.21     579.983    55.19     
2717.79994 50.002     375.8      545.017    55.18     
2717.99994 54.001     375.99     580        55.18     
2718.199939 56.005     376.82     580        55.18     
2718.399939 66         375.66     580        55.17     
2718.599939 66.999     376.45     579.989    55.16     
2718.799939 64.999     375.88     556.977    55.16     
2718.999939 63.001     376.73     510.029    55.15     
2719.199938 64.996     375.74     568.006    55.13     
2719.399938 57.005     375.17     579.985    55.11     
2719.599938 67.005     374.35     550.015    55.1      
2719.799938 78.005     374.17     579.965    55.08     
2719.999938 87.993     373.58     510.03     55.06     
2720.199937 72.995     374.13     569.976    55.05     
2720.399937 62.001     373.11     522.017    55.04     
2720.599937 65.003     372.36     556.012    55.02     
2720.799937 71.009     373.68     580        55        
2720.999937 90         374.7      580        54.98     
2721.199936 89         375.39     579.965    54.96     
2721.399936 87.993     376.06     510.035    54.95     
2721.599936 72.996     377.48     579.994    54.94     
2721.799936 64.995     373.48     567.977    54.93     
2721.999936 54.012     373.6      522.009    54.92     
2722.199935 79.052     374.39     539.985    54.92     
2722.399935 185        374.86     510.035    54.91     
2722.599935 186.01     375.6      579.965    54.9      
2722.799935 206.974    376.06     510.035    54.88     
2722.999935 153.962    375.97     580        54.87     
2723.199934 76.09      376.99     579.994    54.86     
2723.399934 259.069    377.06     567.971    54.86     
2723.599934 398.103    377        510.011    54.85     
2723.799934 606.061    376.27     533.023    54.85     
2723.999934 730.51     375.39     579.99     54.84     
2724.199933 1762.664   374.74     559.975    54.84     
2724.399933 1080.626   374.79     510.007    54.83     
2724.599933 322.015    374.31     524.01     54.82     
2724.799933 351.936    374.46     545.017    54.81     
2724.999933 223.008    373.48     580        54.79     
2725.199932 238.949    373.59     579.965    54.78     
2725.399932 134.973    374.57     510        54.77     
2725.599932 79.985     375.98     510.035    54.77     
2725.799932 50.017     375.86     580        54.77     
2725.999932 84.981     377.77     580        54.76     
2726.199931 46.005     376.69     580        54.76     
2726.399931 57.017     377.26     580        54.75     
2726.599931 91.012     377.16     579.995    54.74     
2726.799931 115.981    377.79     570.005    54.73     
2726.999931 78.002     376.06     579.983    54.73     
2727.19993 82.992     375.71     545.017    54.73     
2727.39993 66.998     375.15     579.965    54.72     
2727.59993 62.995     375.42     510.029    54.7      
2727.79993 51.992     374.62     568.006    54.68     
2727.99993 35.01      376.2      580        54.67     
2728.199929 56.004     374.11     579.965    54.66     
2728.399929 64.046     375.43     510.035    54.64     
2728.599929 157.085    375.53     579.965    54.63     
2728.799929 329.185    375.88     510        54.63     
2728.999929 702.945    377.16     510.035    54.63     
2729.199928 590.888    378.25     580        54.62     
2729.399928 365.229    378.12     579.977    54.59     
2729.599928 827.866    377.64     534.005    54.56     
2729.799928 555.955    377.62     545.017    54.54     
2729.999928 464.063    377.17     580        54.53     
2730.199927 592.079    377.14     580        54.5      
2730.399927 752.857    376.54     580        54.48     
2730.599927 463.853    376.19     579.97     54.43     
2730.799927 165.984    375.1      520.018    54.29     
2730.999927 133.017    374.8      557.011    54.1      
2731.199926 167.988    375.42     580        53.95     
2731.399926 142.992    376.19     580        53.83     
2731.599926 126.988    375.9      579.977    53.75     
2731.799926 103.01     377        533.006    53.61     
2731.999926 123.997    376.82     545.017    53.25     
2732.199925 117.992    375.43     580        53.05     
2732.399925 101.014    375.5      579.971    52.79     
2732.599925 130.024    375.2      521.994    52.62     
2732.799925 179.01     374.47     510.035    52.47     
2732.999925 199.97     375        580        52.35     
2733.199924 138.982    374.67     580        52.2      
2733.399924 102.003    376.15     579.985    52.08     
2733.599924 109.151    376.4      550.015    51.99     
2733.799924 413.886    378.45     579.971    51.91     
2733.999924 182.952    378.25     522.024    51.84     
2734.199923 86.079     379.34     569.994    51.76     
2734.399923 245.951    377.64     557.011    51.67     
2734.599923 145.985    378.69     579.971    51.6      
2734.799923 114.988    377.92     522.029    51.54     
2734.999923 91.012     378.17     579.989    51.49     
2735.199922 116.931    376.94     557.011    51.43     
2735.399922 4024.355   376.48     580        51.37     
2735.599922 4741.011   375.69     579.965    51.32     
2735.799922 716.747    375.83     510        51.22     
2735.999922 204.951    375.86     510.035    51.12     
2736.199921 105.991    377.84     579.977    51.01     
2736.399921 86.996     375.15     533.023    50.92     
2736.599921 78.001     376.7      579.965    50.85     
2736.799921 80         376.51     510.035    50.74     
2736.999921 79         377.37     579.983    50.64     
2737.19992 78.003     378.89     545.008    50.56     
2737.39992 83.999     379.39     561.003    50.48     
2737.59992 81.007     378.54     568.006    50.43     
2737.79992 94.993     378.3      579.989    50.41     
2737.99992 80.995     377.99     557.011    50.37     
2738.199919 71.012     378.06     580        50.31     
2738.399919 95.016     377.87     579.985    50.24     
2738.599919 126.982    377.26     550.015    50.13     
2738.799919 91.003     377.01     580        50.04     
2738.999919 97.998     376.05     579.965    49.91     
2739.199918 92.997     376.05     510.035    49.8      
2739.399918 86.992     376.77     580        49.68     
2739.599918 70         377.74     579.994    49.5      
2739.799918 68.997     378.11     568.006    49.37     
2739.999918 62.015     378.5      580        49.27     
2740.199917 93         378.75     580        49.17     
2740.399917 94.013     379.27     580        49.04     
2740.599917 120.984    379.38     579.989    48.93     
2740.799917 88.995     379.53     557.011    48.84     
2740.999917 78.012     378.83     580        48.79     
2741.199916 101.994    378.24     579.989    48.73     
2741.399916 89.994     376.81     556.994    48.68     
2741.599916 77.997     376.98     545.017    48.66     
2741.799916 72         379.01     579.97     48.64     
2741.999916 73.001     379.69     520.024    48.58     
2742.199915 74.997     379.3      568.006    48.56     
2742.399915 69.007     378.67     580        48.56     
2742.599915 84         378.87     580        48.55     
2742.799915 84         378.65     579.965    48.55     
2742.999915 82.988     377.92     510        48.59     
2743.199914 59.014     377.82     510.035    48.61     
2743.399914 87.003     377.32     579.977    48.65     
2743.599914 93.003     376.93     533.023    48.69     
2743.799914 98.999     376.81     579.97     48.71     
