~Version
 VERS              .         2.0                           : CWLS LOG ASCII STANDARD - VERSION 2.0
 WRAP              .         NO                            : ONE LINE PER DEPTH STEP
 DLM               .         SPACE                         : DELIMITING CHARACTER(SPACE TAB OR COMMA)
~Well Information
#_______________________________________________________________________________
#
#PARAMETER_NAME    .UNIT     VALUE                         : DESCRIPTION
#_______________________________________________________________________________
STRT               .M        12                            : First reference value
STOP               .M        2758.6                        : Last reference value
STEP               .M        0.2                           : Step increment
NULL               .         -9999                         : Missing value
COMP               .                                       : Company
WELL               .         616                           : Well name
FLD                .                                       : Field
LOC                .                                       : Location
CNTY               .                                       : County
STAT               .                                       : State
CTRY               .                                       : Country
SRVC               .                                       : Service Company
DATE               .                                       : Date
API                .                                       : API number
PROJECT_UPGRADE_TIME .         2021-03-18T21_24_50           : 
group              .         Good                          : 
~Parameter Information Block
#_______________________________________________________________________________
#
#PARAMETER_NAME    .UNIT     VALUE                         : DESCRIPTION
#_______________________________________________________________________________
SET                .         616ULN                        : 
PROJECT_UPGRADE_TIME .         2021-03-18T21_24_49           : 
TLFamily_AK4       .                                       : 
TLFamily_ALFAK     .                                       : 
TLFamily_AMPL      .                                       : 
TLFamily_DEPTH     .         Measured Depth                : 
TLFamily_DK1       .                                       : 
TLFamily_DK2       .                                       : 
TLFamily_DTK       .         Compressional Slowness        : 
TLFamily_QCBL      .                                       : 
TLFamily_T1        .         Travel Time 1                 : 
TLFamily_T2        .         Travel Time 2                 : 
group              .         prim                          : 
~Curve Information
#_______________________________________________________________________________
#
#LOGNAME           .UNIT     LOG_ID                        : DESCRIPTION
#_______________________________________________________________________________
DEPTH              .M                                      : 0 Depth curve 
AK4                .                                       : 2 Амплитуда - Волна по колонне - Канал1 
ALFAK              .дБ/м                                   : 1 Затухание - Волна по колонне 
AMPL               .                                       : 8 Коэффициент усиления ВС 
DK1                .дБ                                     : 3 Кривая ослабления - Волна по колонне - Канал1 
DK2                .дБ                                     : 4 Кривая ослабления - Волна по колонне - Канал2 
DTK                .мкс/м                                  : 5 ДельтаТ - Волна по породе 
QCBL               .                                       : 9 Контакт цемент-колонна 
T1                 .мкс                                    : 6 Время пробега - Волна по породе - Канал1 
T2                 .мкс                                    : 7 Время пробега - Волна по породе - Канал2 
~Ascii
# ...
1837       359.843    19.89      1          30.335     38.453     159.491    2          308.028    387.644   
1837.2     350.494    18.705     1          30.553     38.298     163.625    2          305.792    387.475   
1837.4     350.013    16.674     1          30.557     37.721     170.141    2          303.161    387.57    
1837.6     359.839    13.994     1          30.325     36.761     176.074    2          300.139    387.559   
1837.8     373.311    11.825     1          30.008     35.743     182.367    2          297.537    387.612   
1838       389.427    10.205     1          29.65      34.752     184.096    2          296.508    387.491   
1838.2     412.529    10.185     1          29.154     34.246     182.368    2          297.277    387.396   
1838.4     446.541    11.143     1          28.49      34.062     176.996    2          298.846    387.347   
1838.6     493.069    12.792     1          27.706     34.102     172.703    2          301.217    387.571   
1838.8     558.602    14.826     1          26.701     34.114     168.44     2          303.22     387.977   
1839       635.617    16.986     1          25.59      34.082     166.088    2          304.915    388.497   
1839.2     720.941    18.649     1          24.446     33.77      165.807    2          305.84     389.281   
1839.4     797.077    19.549     1          23.501     33.276     167.937    2          306.354    390.324   
1839.6     865.721    19.717     1          22.722     32.58      170.373    2          306.336    391.525   
1839.8     905.528    19.128     1          22.299     31.863     172.863    2          306.169    392.602   
1840       913.866    18.137     1          22.235     31.303     174.981    2          305.898    393.391   
1840.2     875.269    16.653     1          22.692     31.019     175.866    2          305.624    393.558   
1840.4     813.219    15.356     1          23.418     31.096     175.653    2          305.485    393.313   
1840.6     727.38     13.688     1          24.435     31.279     174.568    2          305.38     392.666   
1840.8     645.193    12.615     1          25.44      31.747     172.809    2          305.433    391.839   
1841       567.327    11.709     1          26.205     32.325     171.577    2          305.51     391.301   
1841.2     516.345    11.65      1          26.575     33.2       171.3      2          305.54     391.192   
1841.4     475.894    11.529     1          26.624     33.734     172.539    2          305.87     392.141   
1841.6     465.359    11.712     1          26.473     34.199     174.324    2          306.571    393.735   
1841.8     475.631    12.2       1          26.11      34.333     176.229    2          307.606    395.722   
1842       556.968    12.998     1          25.438     34.441     177.974    2          308.327    397.316   
1842.2     673.075    14.02      1          24.541     34.148     178.81     2          309.225    398.631   
1842.4     816.344    15.069     1          23.54      33.751     179.319    2          309.484    399.145   
1842.6     937.857    16.025     1          22.507     32.974     179.912    2          309.454    399.412   
1842.8     1040.83    15.979     1          21.603     31.878     181.577    2          308.633    399.423   
1843       1091.984   15.67      1          21.007     30.568     182.664    2          308.121    399.455   
1843.2     1140.977   15.527     1          20.486     29.348     183.115    2          307.493    399.053   
1843.4     1239.494   15.94      1          19.795     28.236     182.295    2          307.095    398.244   
1843.6     1441.231   16.68      1          18.646     27.157     181.176    2          306.693    397.283   
1843.8     1734.441   17.937     1          17.073     26.127     179.415    2          306.669    396.378   
1844       2080.513   19.216     1          15.304     24.911     178.181    2          306.626    395.718   
1844.2     2438.667   19.773     1          13.582     23.468     177.767    2          306.602    395.487   
1844.4     2739.384   19.212     1          12.314     21.92      178.043    2          306.492    395.515   
1844.6     2933.809   18.111     1          11.571     20.627     178.602    2          306.266    395.569   
1844.8     3029.989   16.525     1          11.365     19.628     179.634    2          305.896    395.715   
1845       3021.173   14.489     1          11.558     18.802     181.656    2          305.266    396.096   
1845.2     2920.084   12.513     1          12.034     18.291     183.898    2          304.621    396.571   
1845.4     2778.281   11.172     1          12.539     18.125     185.734    2          304.042    396.91    
1845.6     2620.305   10.373     1          13.108     18.295     186.724    2          303.616    396.98    
1845.8     2448.323   9.963      1          13.684     18.665     186.936    2          303.332    396.801   
1846       2304.673   10.038     1          14.185     19.204     186.359    2          303.325    396.507   
1846.2     2194.422   10.482     1          14.609     19.85      185.883    2          303.263    396.206   
1846.4     2088.368   11.135     1          15.046     20.614     185.368    2          303.219    395.905   
1846.6     1976.148   11.752     1          15.534     21.41      185.069    2          303.074    395.611   
1846.8     1868.341   12.449     1          16.027     22.251     184.698    2          302.975    395.326   
1847       1763.941   13.183     1          16.524     23.115     184.387    2          302.761    394.956   
1847.2     1683.724   13.828     1          16.911     23.825     183.872    2          302.69     394.627   
1847.4     1654.064   14.613     1          17.058     24.364     183.424    2          302.724    394.438   
1847.6     1700.705   15.561     1          16.847     24.627     183.029    2          302.976    394.492   
1847.8     1794.177   16.577     1          16.413     24.701     182.776    2          303.235    394.624   
1848       1901.038   17.184     1          15.908     24.5       182.287    2          303.612    394.757   
1848.2     1985.306   17.27      1          15.501     24.136     181.667    2          304        394.835   
1848.4     2047.751   16.635     1          15.207     23.524     181.111    2          304.403    394.961   
1848.6     2093.094   15.575     1          15.012     22.799     180.758    2          304.81     395.191   
1848.8     2136.356   14.459     1          14.767     21.996     180.775    2          305.219    395.608   
1849       2188.141   13.721     1          14.49      21.35      180.836    2          305.696    396.116   
1849.2     2241.478   13.421     1          14.2       20.911     181.025    2          306.034    396.549   
1849.4     2247.581   12.946     1          14.186     20.658     180.88     2          306.145    396.587   
1849.6     2181.318   12.167     1          14.475     20.558     180.819    2          306.002    396.414   
1849.8     2056.14    11.109     1          15.093     20.647     180.516    2          305.839    396.099   
1850       1902.896   10.27      1          15.85      20.984     180.624    2          305.578    395.892   
1850.2     1719.7     9.612      1          16.852     21.658     180.797    2          305.257    395.657   
1850.4     1522.818   9.295      1          18.006     22.654     181.059    2          304.963    395.494   
1850.6     1314.324   9.004      1          19.461     23.963     180.834    2          304.655    395.073   
1850.8     1110.665   8.596      1          21.068     25.366     180.301    2          304.344    394.496   
1851       901.828    7.846      1          22.906     26.829     178.884    2          304.155    393.599   
1851.2     731.389    7.726      1          24.567     28.43      176.997    2          304.451    392.951   
1851.4     612.895    8.423      1          25.893     30.105     174.78     2          305.089    392.481   
