~Version
 VERS              .         2.0                           : CWLS LOG ASCII STANDARD - VERSION 2.0
 WRAP              .         NO                            : ONE LINE PER DEPTH STEP
 DLM               .         SPACE                         : DELIMITING CHARACTER(SPACE TAB OR COMMA)
~Well Information
#_______________________________________________________________________________
#
#PARAMETER_NAME    .UNIT     VALUE                         : DESCRIPTION
#_______________________________________________________________________________
STRT               .M        2648.8                        : First reference value
STOP               .M        2754.8                        : Last reference value
STEP               .M        0.2                           : Step increment
NULL               .         -9999                         : Missing value
COMP               .                                       : Company
WELL               .         616                           : Well name
FLD                .                                       : Field
LOC                .                                       : Location
CNTY               .                                       : County
STAT               .                                       : State
CTRY               .                                       : Country
SRVC               .                                       : Service Company
DATE               .                                       : Date
API                .                                       : API number
PROJECT_UPGRADE_TIME .         2021-03-18T21_24_50           : 
group              .         Good                          : 
~Parameter Information Block
#_______________________________________________________________________________
#
#PARAMETER_NAME    .UNIT     VALUE                         : DESCRIPTION
#_______________________________________________________________________________
SET                .         D7019_D                       : 
OTHER              .         Kedr.exe версия 2.1.2.32      : 
OTHER_10           .         TM.GRD = 0.00404*TM$.UE + 0.07: 
OTHER_11           .         MN.ATM = (6.33279e-006*TM.GRD + 0.02401)*(MN$.UE + 2.72*TM.GRD + -2018): 
OTHER_12           .         GK.MKR/H = GK$.UE / 43.5489 + 0: 
OTHER_13           .         RES.SM = 0.00476*CRES.UE - 1.51709: 
OTHER_14           .         PL.GSM3 = 0 + 0 * (PL.UE / 1) +  0 * (PL.UE / 1)^2: 
OTHER_15           .         Постоянная времени ГГП = 6 сек: 
OTHER_16           .         Постоянная времени ГК = 6 сек : 
OTHER_2            .         KedrData.dll версия 3.2.2.14  : 
OTHER_3            .         LasInf.dll версия 3.2.0.13    : 
OTHER_4            .         Драйвер версия 1.2.0.5        : 
OTHER_5            .         Прибор_ КСА-M1                : 
OTHER_6            .         Номер прибора_ 155+р204       : 
OTHER_7            .         Режим_ КСА-М1 + ГГП + Резистивиметр: 
OTHER_8            .         Форма_ 223\2                  : 
OTHER_9            .         Тарировки_                    : 
PROJECT_UPGRADE_TIME .         2021-03-18T21_24_50           : 
TLFamily_CRES      .                                       : 
TLFamily_DEPT      .         Measured Depth                : 
TLFamily_GK        .         Gamma Ray                     : 
TLFamily_GK$       .                                       : 
TLFamily_LM        .         Casing Collar locator         : 
TLFamily_METKA     .                                       : 
TLFamily_MN        .                                       : 
TLFamily_MN$       .                                       : 
TLFamily_PL        .                                       : 
TLFamily_PL_2      .                                       : 
TLFamily_RCOR      .                                       : 
TLFamily_RES       .         Mud Resistivity               : 
TLFamily_SPID      .         Spontaneous Potential         : 
TLFamily_STD       .                                       : 
TLFamily_TIME      .         Time                          : 
TLFamily_TM        .         Temperature                   : 
TLFamily_TM$       .         Temperature                   : 
TLFamily_VGD       .         Gas Volume                    : 
group              .         prim                          : 
~Curve Information
#_______________________________________________________________________________
#
#LOGNAME           .UNIT     LOG_ID                        : DESCRIPTION
#_______________________________________________________________________________
DEPT               .M                                      : 1 Глубина, м -    0.0 см 
CRES               .UE                                     : 9 Проводимость, усл.ед. -  222.0 см 
GK                 .MKR/H                                  : 16 Гамма-активность, мкр./ч -  106.0 см 
GK$                .UE                                     : 13 Гамма-активность, усл.ед. -  106.0 см 
LM                 .                                       : 11 Локатор муфт,  -   16.0 см 
METKA              .                                       : 3 Метки,  -    0.0 см 
MN                 .ATM                                    : 15 Давление, атм. -  160.0 см 
MN$                .UE                                     : 7 Давление, усл.ед. -  160.0 см 
PL                 .UE                                     : 10 Плотность, усл.ед. -  270.0 см 
PL_2               .GSM3                                   : 18 Плотность, г./см3 -  270.0 см 
RCOR               .CM/KM                                  : 5 Коррекция по ролику, см/км -    0.0 см 
RES                .SM                                     : 17 Проводимость,  -  222.0 см 
SPID               .M/H                                    : 2 Скорость, м/час -    0.0 см 
STD                .                                       : 12 Приток,  -  170.0 см 
TIME               .S                                      : 4 Время, сек -    0.0 см 
TM                 .GRD                                    : 14 Температура, °C -  180.0 см 
TM$                .UE                                     : 6 Температура, усл.ед. -  180.0 см 
VGD                .                                       : 8 Влагомер,  -  170.0 см 
~Ascii
# ...
2747.2     1462       8.42       356        106        0          253.931    12285      15         0          0          5.442      580        10971      10911.35   56.299     13918      6614      
2747.4     1466       8.1        338        116        0          253.95     12285      14         0          0          5.4597     580        11003      10912.67   56.517     13972      6618      
2747.6     1468       7.93       338        96         0          254.01     12287      14         0          0          5.4682     569        11041      10913.99   56.66      14007      6619      
2747.8     1471       7.68       321        74         0          254.044    12287      15         0          0          5.4833     510        11075      10915.26   56.822     14048      6618      
2748       1471       7.53       321        5069       0          254.068    12287      14         0          0          5.4856     557        11110      10916.59   56.97      14084      6617      
2748.2     1476       7.47       323        3172       0          254.095    12287      14         0          0          5.5066     580        11147      10917.89   57.149     14128      6617      
2748.4     1479       7.51       339        3318       0          254.125    12288      14         0          0          5.5253     568        11184      10919.2    57.295     14165      6605      
2748.6     1481       7.83       355        826        0          254.177    12289      14         0          0          5.5317     580        11216      10920.46   57.43      14198      6602      
2748.8     1483       8.11       383        235        0          254.199    12289      13         0          0          5.5436     580        11250      10921.8    57.64      14250      6603      
2749       1487       8.45       383        113        0          254.221    12290      14         0          0          5.5626     545        11277      10923.05   57.774     14283      6593      
2749.2     1489       8.72       405        62         0          254.224    12289      13         0          0          5.5721     580        11307      10924.33   57.874     14308      6599      
2749.4     1489       9.12       416        69         0          254.269    12290      13         0          0          5.5705     580        11333      10925.65   57.993     14337      6578      
2749.6     1493       9.28       404        69         0          254.311    12291      13         0          0          5.5888     534        11363      10926.99   58.149     14376      6594      
2749.8     1494       9.28       404        69         0          254.305    12290      14         0          0          5.592      540        11388      10928.26   58.282     14409      6596      
2750       1495       8.99       357        83         0          254.347    12291      14         0          0          5.5991     580        11409      10929.57   58.422     14444      6600      
2750.2     1497       8.59       357        52         1          254.379    12292      14         0          0          5.6086     545        11433      10931.44   58.525     14469      6604      
2750.4     1498       8.55       376        54         0          254.38     12291      14         0          0          5.6134     580        11455      10932.71   58.61      14490      6611      
2750.6     1498       8.59       376        29         0          254.42     12293      14         0          0          5.6134     580        11482      10934.04   58.744     14523      6600      
2750.8     1499       8.74       395        28         0          254.442    12293      14         0          0          5.6198     580        11507      10935.31   58.826     14544      6608      
2751       1501       8.9        395        28         0          254.455    12293      14         0          0          5.6277     540        11525      10936.62   58.906     14563      6614      
2751.2     1239       8.64       364        28         0          254.463    12293      13         0          0          4.3809     533        11542      10937.93   59.001     14587      6605      
2751.4     1117       8.71       413        27         0          254.528    12294      13         0          0          3.8019     580        11558      10939.21   59.063     14602      6603      
2751.6     1058       9.31       432        27         0          254.546    12294      14         0          0          3.5169     580        11595      10940.47   59.287     14658      6609      
2751.8     1020       10.08      520        27         0          254.596    12296      14         0          0          3.3379     580        11644      10941.81   59.534     14719      6599      
2752       1004       10.99      520        26         0          254.588    12295      14         0          0          3.264      580        11679      10943.08   59.601     14735      6601      
2752.2     1000       11.55      543        27         -9999      254.572    12295      15         0          -9999      3.2453     -9999      11715      -9999      59.574     14729      6600      
2752.4     999        12.15      555        -9999      -9999      254.539    12294      14         0          -9999      3.2374     -9999      11750      -9999      59.519     14715      6603      
2752.6     997        12.25      517        -9999      -9999      254.505    12293      14         0          -9999      3.2302     -9999      11781      -9999      59.454     14699      6602      
2752.8     998        12.07      517        -9999      -9999      254.494    12293      13         0          -9999      3.2334     -9999      11807      -9999      59.377     14680      6605      
2753       997        11.93      510        -9999      -9999      254.484    12293      14         0          -9999      3.2293     -9999      11830      -9999      59.296     14660      6605      
2753.2     996        11.82      510        -9999      -9999      254.474    12293      14         0          -9999      3.2232     -9999      11847      -9999      59.219     14641      6605      
2753.4     996        -9999      -9999      -9999      -9999      254.415    12291      14         0          -9999      3.2239     -9999      11862      -9999      59.147     14623      6604      
2753.6     996        -9999      -9999      -9999      -9999      254.394    12290      14         0          -9999      3.2218     -9999      11875      -9999      59.067     14603      6605      
2753.8     995        -9999      -9999      -9999      -9999      -9999      -9999      14         0          -9999      3.2191     -9999      11887      -9999      59.001     14587      6608      
2754       995        -9999      -9999      -9999      -9999      -9999      -9999      13         0          -9999      3.2191     -9999      -9999      -9999      -9999      -9999      -9999     
2754.2     995        -9999      -9999      -9999      -9999      -9999      -9999      15         0          -9999      3.2191     -9999      -9999      -9999      -9999      -9999      -9999     
2754.4     994        -9999      -9999      -9999      -9999      -9999      -9999      13         0          -9999      3.2143     -9999      -9999      -9999      -9999      -9999      -9999     
2754.6     -9999      -9999      -9999      -9999      -9999      -9999      -9999      14         0          -9999      -9999      -9999      -9999      -9999      -9999      -9999      -9999     
2754.8     -9999      -9999      -9999      -9999      -9999      -9999      -9999      14         0          -9999      -9999      -9999      -9999      -9999      -9999      -9999      -9999     
