~Version
 VERS              .         2.0                           : CWLS LOG ASCII STANDARD - VERSION 2.0
 WRAP              .         NO                            : ONE LINE PER DEPTH STEP
 DLM               .         SPACE                         : DELIMITING CHARACTER(SPACE TAB OR COMMA)
~Well Information
#_______________________________________________________________________________
#
#PARAMETER_NAME    .UNIT     VALUE                         : DESCRIPTION
#_______________________________________________________________________________
STRT               .M        0.2                           : First reference value
STOP               .M        2774.2                        : Last reference value
STEP               .M        0.2                           : Step increment
NULL               .         -9999                         : Missing value
COMP               .                                       : Company
WELL               .         616                           : Well name
FLD                .                                       : Field
LOC                .                                       : Location
CNTY               .                                       : County
STAT               .                                       : State
CTRY               .                                       : Country
SRVC               .                                       : Service Company
DATE               .                                       : Date
API                .                                       : API number
PROJECT_UPGRADE_TIME .         2021-03-18T21_24_50           : 
group              .         Good                          : 
~Parameter Information Block
#_______________________________________________________________________________
#
#PARAMETER_NAME    .UNIT     VALUE                         : DESCRIPTION
#_______________________________________________________________________________
SET                .         D1799_D_2                     : 
NPR                .                                       : 
OTHER              .         Программное обеспечение станции MONITOR-386EX 25/12/99 15_08_10   BGF V52 22/08/01 16_56_30   3.1_SNGF___BGF_N_092049: 
OTHER_10           .         Тарировки_                    : 
OTHER_11           .         TM.GRD = 0.00403*TM$.UE + -1.07: 
OTHER_12           .         MN.ATM = (9.34907e-006*TM.GRD + 0.02171)*(MN$.UE + -7.93*TM.GRD + -1787): 
OTHER_13           .         GK.MKR/H = LM. / 42.4676      : 
OTHER_14           .         GK.FLT = 0.1*GK.MKR/H[-1] + (1-0.1)*GK.MKR/H[0]: 
OTHER_2            .         Kedr.exe версия 3.4.2.51      : 
OTHER_3            .         KedrData.dll версия 3.4.2.24  : 
OTHER_4            .         Драйвер версия 2.1.1.3        : 
OTHER_5            .         Мнемоники версия 3.3 S        : 
OTHER_6            .         Прибор_ КСА-Т4                : 
OTHER_7            .         Номер прибора_ 03             : 
OTHER_8            .         Режим_ КСА-Т4                 : 
OTHER_9            .         Форма_ КВА.                   : 
PR                 .                                       : 
PROJECT_UPGRADE_TIME .         2021-03-18T21_24_49           : 
PRTY               .         ПП-603-1                      : N партии
SRV                .                                       : 
SRVC               .         Карпов                        : Начальник партии
TLFamily_DEPT      .         Measured Depth                : 
TLFamily_LM        .         Casing Collar locator         : 
TLFamily_MN        .                                       : 
TLFamily_TM        .         Temperature                   : 
group              .         second                        : 
~Curve Information
#_______________________________________________________________________________
#
#LOGNAME           .UNIT     LOG_ID                        : DESCRIPTION
#_______________________________________________________________________________
DEPT               .M                                      : Depth curve 
LM                 .е.ацп                                  : Локатор муфт,е.ацп 
MN                 .атм                                    : Манометрия, атм 
TM                 .град.C                                 : Термограмма по стволу скважины,град.C 
~Ascii
# ...
1092.2     1011.998   98.631     40.64     
1092.4     988.006    98.647     40.643    
1092.6     1064.994   98.65      40.647    
1092.8     996.989    98.67      40.649    
1093       867.002    98.69      40.653    
1093.2     895        98.712     40.657    
1093.4     893.99     98.732     40.659    
1093.6     767        98.678     40.664    
1093.8     767.026    98.736     40.67     
1094       1080.994   98.771     40.674    
1094.2     1009.007   98.79      40.678    
1094.4     1100.99    98.811     40.681    
1094.6     974.991    98.818     40.685    
1094.8     861.995    98.843     40.689    
1095       797.003    98.861     40.693    
1095.2     836.009    98.871     40.697    
1095.4     946.006    98.892     40.701    
1095.6     1015.997   98.913     40.705    
1095.8     982.994    98.925     40.709    
1096       915.003    98.93      40.715    
1096.2     957.009    98.958     40.717    
1096.4     1070.004   98.995     40.72     
1096.6     1123.993   99.011     40.727    
1096.8     1033.012   99.012     40.732    
1097       1175.984   99.032     40.736    
1097.2     985.996    99.036     40.74     
1097.4     931.016    99.076     40.741    
1097.6     1128.999   99.075     40.743    
1097.8     1121.001   99.095     40.747    
1098       1134.994   99.115     40.751    
1098.2     1066.007   99.118     40.755    
1098.4     1155.365   99.153     40.759    
1098.6     5621.073   99.161     40.762    
1098.8     6517.811   99.175     40.766    
1099       4211.892   99.197     40.771    
1099.2     2897.928   99.204     40.778    
1099.4     2019.974   99.217     40.778    
1099.6     1700.979   99.236     40.782    
1099.8     1439       99.257     40.79     
1100       1438.975   99.28      40.794    
1100.2     1139.989   99.289     40.798    
1100.4     1010.002   99.315     40.802    
1100.6     1035.02    99.344     40.806    
1100.8     1277.986   99.354     40.81     
1101       1104.041   99.365     40.814    
1101.2     1601.994   99.385     40.818    
1101.4     1526.989   99.396     40.825    
1101.6     1397.989   99.404     40.83     
1101.8     1261.997   99.425     40.83     
1102       1219.997   99.446     40.833    
1102.2     1184.001   99.469     40.837    
1102.4     1201.023   99.49      40.842    
1102.6     1475.977   99.504     40.845    
1102.8     1200.014   99.509     40.849    
1103       1367.994   99.53      40.853    
1103.2     1296.994   99.546     40.857    
1103.4     1219.991   99.55      40.861    
1103.6     1111.004   99.558     40.865    
1103.8     1158.002   99.543     40.869    
1104       1179.023   99.633     40.87     
1104.2     1459.982   99.636     40.873    
1104.4     1238.989   99.657     40.877    
1104.6     1101.01    99.677     40.881    
1104.8     1220.009   99.698     40.885    
1105       1333.002   99.719     40.888    
1105.2     1351.992   99.739     40.892    
1105.4     1252.999   99.74      40.894    
1105.6     1235       99.76      40.896    
1105.8     1230.99    99.781     40.9      
1106       1115.004   99.801     40.904    
1106.2     1158.005   99.805     40.908    
1106.4     1212.998   99.822     40.912    
1106.6     1193.008   99.842     40.916    
1106.8     1288.989   99.862     40.919    
1107       1157       99.883     40.923    
1107.2     1157       99.89      40.927    
1107.4     1160.016   99.903     40.931    
1107.6     1354.994   99.925     40.935    
1107.8     1284.991   99.946     40.939    
1108       1172       99.966     40.943    
1108.2     1170.015   99.987     40.947    
1108.4     1349       99.998     40.951    
1108.6     1343.992   100.006    40.955    
1108.8     1249       100.027    40.958    
1109       1255.014   100.049    40.959    
1109.2     1419.015   100.07     40.962    
1109.4     1597.992   100.09     40.969    
1109.6     1500.996   100.105    40.974    
1109.8     1454.713   100.11     40.975    
1110       10082.7    100.131    40.981    
1110.2     6446.831   100.152    40.986    
1110.4     4400.928   100.175    40.987    
1110.6     3529.941   100.196    40.993    
1110.8     2816.946   100.212    40.998    
1111       2165.972   100.214    41.002    
1111.2     1829.983   100.236    41.006    
1111.4     1619.005   100.255    41.01     
1111.6     1674.027   100.254    41.015    
1111.8     1996.988   100.274    41.021    
1112       1848.991   100.295    41.025    
1112.2     1741.996   100.315    41.029    
1112.4     1697.008   100.335    41.035    
1112.6     1794.003   100.356    41.045    
1112.8     1834.995   100.36     41.049    
1113       1776       100.391    41.053    
1113.2     1775.994   100.403    41.056    
1113.4     1699.963   100.418    41.06     
1113.6     1257       100.44     41.064    
1113.8     1251.01    100.447    41.064    
1114       1370.98    100.458    41.068    
1114.2     1126.162   100.48     41.072    
1114.4     3073.948   100.501    41.072    
1114.6     2452.961   100.521    41.076    
1114.8     1979.97    100.533    41.08     
1115       1614.975   100.542    41.084    
1115.2     1308.993   100.562    41.084    
1115.4     1229.999   100.583    41.087    
1115.6     1218.002   100.605    41.088    
1115.8     1247.998   100.625    41.094    
1116       1227.004   100.646    41.096    
1116.2     1275.987   100.663    41.099    
1116.4     1121.984   100.671    41.103    
1116.6     932.002    100.706    41.107    
1116.8     953.002    100.705    41.113    
1117       973.991    100.709    41.118    
1117.2     870.995    100.749    41.12     
1117.4     809.998    100.769    41.124    
1117.6     783.024    100.769    41.13     
1117.8     1075.999   100.789    41.134    
1118       1059.005   100.81     41.138    
1118.2     1117.005   100.812    41.142    
1118.4     1174.999   100.846    41.146    
1118.6     1161       100.872    41.149    
1118.8     1162.99    100.877    41.152    
1119       1039.003   100.91     41.153    
1119.2     1074.998   100.921    41.156    
1119.4     1051.999   100.92     41.157    
1119.6     1042.995   100.934    41.16     
1119.8     985.001    100.957    41.16     
1120       993        100.978    41.161    
1120.2     993.019    101        41.165    
1120.4     1224.995   101.022    41.169    
1120.6     1165.01    101.029    41.173    
1120.8     1281.006   101.041    41.177    
1121       1352.715   101.062    41.181    
1121.2     9917.74    101.083    41.185    
1121.4     6801.799   101.103    41.189    
1121.6     4390.874   101.124    41.192    
1121.8     2888.93    101.146    41.196    
1122       2054.965   101.158    41.197    
1122.2     1634.974   101.164    41.204    
1122.4     1325.992   101.185    41.211    
1122.6     1227.993   101.2      41.216    
1122.8     1147.988   101.203    41.223    
1123       1009.993   101.228    41.228    
1123.2     924.003    101.264    41.231    
1123.4     956.008    101.266    41.235    
1123.6     1054.004   101.288    41.239    
1123.8     1098.993   101.307    41.243    
1124       1010.13    101.328    41.247    
1124.2     2567.087   101.328    41.249    
1124.4     3605.956   101.347    41.251    
1124.6     3077.924   101.37     41.253    
1124.8     2164.958   101.391    41.255    
1125       1669       101.393    41.259    
1125.2     1668.956   101.427    41.261    
1125.4     1149       101.437    41.262    
1125.6     1148.996   101.453    41.266    
1125.8     1098.004   101.473    41.27     
1126       1143.003   101.493    41.274    
1126.2     1173.008   101.514    41.281    
1126.4     1268.993   101.534    41.282    
1126.6     1180.982   101.544    41.289    
1126.8     961.992    101.555    41.29     
1127       861.002    101.575    41.293    
1127.2     879.002    101.596    41.297    
1127.4     904.994    101.618    41.297    
1127.6     834.007    101.639    41.301    
1127.8     917.997    101.66     41.305    
1128       883.002    101.674    41.309    
1128.2     907.004    101.673    41.313    
1128.4     951.993    101.683    41.314    
