~Version
 VERS              .         2.0                           : CWLS LOG ASCII STANDARD - VERSION 2.0
 WRAP              .         NO                            : ONE LINE PER DEPTH STEP
 DLM               .         SPACE                         : DELIMITING CHARACTER(SPACE TAB OR COMMA)
~Well Information
#_______________________________________________________________________________
#
#PARAMETER_NAME    .UNIT     VALUE                         : DESCRIPTION
#_______________________________________________________________________________
STRT               .M        139                           : First reference value
STOP               .M        251.8                         : Last reference value
STEP               .M        0.2                           : Step increment
NULL               .         -9999                         : Missing value
COMP               .                                       : Company
WELL               .         616                           : Well name
FLD                .                                       : Field
LOC                .                                       : Location
CNTY               .                                       : County
STAT               .                                       : State
CTRY               .                                       : Country
SRVC               .                                       : Service Company
DATE               .                                       : Date
API                .                                       : API number
PROJECT_UPGRADE_TIME .         2021-03-18T21_24_50           : 
group              .         Good                          : 
~Parameter Information Block
#_______________________________________________________________________________
#
#PARAMETER_NAME    .UNIT     VALUE                         : DESCRIPTION
#_______________________________________________________________________________
SET                .         616_1                         : 
CONF               .         00                            : 
END                .         0                             : 
ERR                .         0                             : 
GS00               .M        0249.70                       : 
GS01               .M        0136.66                       : 
MM00               .M        0050.00                       : 
NOKG               .         0                             : 
NPR                .         980119                        : 
PART               .         Палагутин                     : 
PROJECT_UPGRADE_TIME .         2021-03-18T21_24_49           : 
PRZK               .         Шакиров                       : 
TLFamily_AZIMUTH   .         True Dip Azimuth              : 
TLFamily_DEPTH     .         Measured Depth                : 
TLFamily_METKA     .                                       : 
TLFamily_ROLL      .                                       : 
TLFamily_SPEED     .         Spontaneous Potential         : 
TLFamily_ZENIT     .                                       : 
VPRG               .         310                           : 
WAY                .         UP                            : 
group              .         prim                          : 
~Curve Information
#_______________________________________________________________________________
#
#LOGNAME           .UNIT     LOG_ID                        : DESCRIPTION
#_______________________________________________________________________________
DEPTH              .M                                      :  
AZIMUTH            .DEG                                    :  
METKA              .                                       :  
ROLL               .DEG                                    :  
SPEED              .M/H                                    :  
ZENIT              .DEG                                    :  
~Ascii
# ...
163.4      248.19     0          220.67     612        13.52     
163.6      247.84     0          221.33     648        13.68     
163.8      247.81     0          221.59     648        13.62     
164        248.26     0          220.74     612        13.68     
164.2      247.84     0          219.73     648        13.66     
164.4      247.22     0          219.69     648        13.7      
164.6      248.03     0          220.04     648        13.82     
164.8      248.37     0          219.76     648        13.79     
165        248.17     0          219.1      576        13.87     
165.2      248.84     0          219.07     648        14.02     
165.4      248.63     0          218.9      612        14.11     
165.6      247.97     0          218.14     648        14.08     
165.8      248.3      0          217.43     648        14.08     
166        247.87     0          216.72     612        14.04     
166.2      248.19     0          215.64     648        14.08     
166.4      246.95     0          214.34     612        13.89     
166.6      247.59     0          213.87     648        13.95     
166.8      247.69     0          213.3      684        13.94     
167        247.36     0          211.77     648        13.96     
167.2      247.49     0          209.05     612        14.14     
167.4      248.79     0          206.59     612        14.43     
167.6      249.26     0          204.75     648        14.54     
167.8      248.71     0          202.73     612        14.48     
168        249.47     0          201.76     648        14.55     
168.2      248.59     0          201.13     612        14.41     
168.4      247.31     0          201.01     576        14.21     
168.6      246.78     0          200.89     648        14.15     
168.8      248.56     0          201.54     684        14.49     
169        248.11     0          201.75     612        14.16     
169.2      247.67     0          201.27     648        14.3      
169.4      248.25     0          199.05     648        14.32     
169.6      247.1      0          197.96     648        14.35     
169.8      251.17     0          199.87     648        14.7      
170        257.55     0          201.19     612        15.01     
170.2      276.07     0          200.94     612        15.22     
170.4      326.88     0          200.56     648        15.33     
170.6      149.31     0          200.75     612        15.1      
170.8      140.72     0          200.92     612        14.9      
171        77.71      0          200.84     648        14.75     
171.2      250.85     0          199.8      612        14.55     
171.4      249.12     0          198.2      648        14.43     
171.6      246.86     0          195.62     648        14.46     
171.8      245.52     0          191.92     576        14.38     
172        246.8      0          188.88     648        14.64     
172.2      247.87     1          186.2      612        14.85     
172.4      250.01     0          183.43     648        15.24     
172.6      250.94     0          180.29     648        15.44     
172.8      251.15     0          176.95     612        15.37     
173        245.7      0          173.95     576        14.2      
173.2      247.24     0          171.07     648        14.64     
173.4      246.37     0          167.76     648        14.52     
173.6      244.22     0          166.29     648        14.35     
173.8      244.3      0          166        612        14.39     
174        245.98     0          167.06     612        14.59     
174.2      246.92     0          170.48     612        15        
174.4      247.9      0          175.21     648        15.38     
174.6      250.05     0          177.47     648        15.3      
174.8      249.9      0          176.8      684        15.58     
175        250.32     0          174.93     576        15.85     
175.2      251.02     0          173.4      648        15.94     
175.4      250.89     0          171.63     648        15.95     
175.6      249.47     0          170.61     648        15.65     
175.8      248.15     0          169.52     612        15.25     
176        246.56     0          168.01     612        14.98     
176.2      245.9      0          166.27     648        14.7      
176.4      246.27     0          164.3      648        14.86     
176.6      245.86     0          163.29     648        14.88     
176.8      247        0          162.44     648        15.04     
177        247.52     0          161.53     612        15.23     
177.2      248.18     0          160.29     648        15.49     
177.4      249.45     0          158.88     612        15.74     
177.6      249.76     0          157.76     648        15.98     
177.8      250.89     0          156.97     612        15.96     
178        248.8      0          156.14     648        15.7      
178.2      246.21     0          156.15     612        15.4      
178.4      246.58     0          155.82     612        15.23     
178.6      246.75     0          154.9      648        15.2      
178.8      246.49     0          153.62     648        15.23     
179        248.08     0          151.1      612        15.46     
179.2      246.79     0          150.24     648        15.44     
179.4      247.91     0          149.53     648        15.53     
179.6      248.02     0          146.95     612        15.51     
179.8      248.33     0          144.04     648        15.61     
180        249.51     0          139.59     648        15.56     
180.2      247.88     0          135.17     612        15.65     
180.4      248.48     0          132.63     648        15.48     
180.6      247.56     0          129.87     648        15.56     
180.8      247.31     0          127.27     612        15.73     
181        248.68     0          125.82     648        15.87     
181.2      248.01     0          124.69     648        15.97     
181.4      248.36     0          123.85     648        15.98     
181.6      249.1      0          122.15     648        16.01     
181.8      250.2      0          118.44     576        15.9      
182        250.68     1          112.99     612        15.82     
182.2      250.47     0          106.42     612        15.59     
182.4      257.15     0          98.06      648        15.49     
182.6      285.85     0          87.97      684        15.46     
182.8      256.54     0          78.94      612        15.59     
183        202.68     0          71.71      612        15.89     
183.2      344.8      0          64.37      612        16.1      
183.4      275.22     0          58.25      648        16.55     
183.6      255.01     0          54.06      648        16.48     
183.8      250.49     0          52.58      612        16.35     
184        251.18     0          52.66      576        16.33     
184.2      249.03     0          52.28      648        16.16     
184.4      247.71     0          52.1       648        15.96     
184.6      248.7      0          52.39      648        16.06     
184.8      247.5      0          52.68      648        15.89     
185        248.33     0          53.14      576        16.14     
185.2      249.01     0          52.45      684        16.13     
185.4      248.92     0          49.45      648        16.19     
185.6      248.19     0          47.26      648        16.03     
185.8      248.82     0          47.13      612        16.01     
186        248.55     0          47.34      612        16.14     
186.2      249.9      0          48.16      648        16.24     
186.4      249.09     0          49.63      648        16.22     
186.6      250.46     0          52.28      648        16.39     
186.8      250.95     0          53.42      648        16.49     
187        248.6      0          51.02      612        16.45     
187.2      248.32     0          50.16      648        16.37     
187.4      247.69     0          51.31      576        16.38     
187.6      248.39     0          52.27      684        16.45     
