~Version
 VERS              .         2.0                           : CWLS LOG ASCII STANDARD - VERSION 2.0
 WRAP              .         NO                            : ONE LINE PER DEPTH STEP
 DLM               .         SPACE                         : DELIMITING CHARACTER(SPACE TAB OR COMMA)
~Well Information
#_______________________________________________________________________________
#
#PARAMETER_NAME    .UNIT     VALUE                         : DESCRIPTION
#_______________________________________________________________________________
STRT               .M        2647.6                        : First reference value
STOP               .M        2755.199839                   : Last reference value
STEP               .M        0.1999997                     : Step increment
NULL               .         -9999                         : Missing value
COMP               .                                       : Company
WELL               .         616                           : Well name
FLD                .                                       : Field
LOC                .                                       : Location
CNTY               .                                       : County
STAT               .                                       : State
CTRY               .                                       : Country
SRVC               .                                       : Service Company
DATE               .                                       : Date
API                .                                       : API number
PROJECT_UPGRADE_TIME .         2021-03-18T21_24_50           : 
group              .         Good                          : 
~Parameter Information Block
#_______________________________________________________________________________
#
#PARAMETER_NAME    .UNIT     VALUE                         : DESCRIPTION
#_______________________________________________________________________________
SET                .         D7024_D                       : 
OTHER              .         Kedr.exe версия 2.1.2.32      : 
OTHER_10           .         TM.GRD = 0.00404*TM$.UE + 0.07: 
OTHER_11           .         MN.ATM = (6.33279e-006*TM.GRD + 0.02401)*(MN$.UE + 2.72*TM.GRD + -2018): 
OTHER_12           .         GK.MKR/H = GK$.UE / 43.5489 + 0: 
OTHER_13           .         RES.SM = 0.00476*CRES.UE - 1.51709: 
OTHER_14           .         PL.GSM3 = 0 + 0 * (PL.UE / 1) +  0 * (PL.UE / 1)^2: 
OTHER_15           .         Постоянная времени ГГП = 6 сек: 
OTHER_16           .         Постоянная времени ГК = 6 сек : 
OTHER_2            .         KedrData.dll версия 3.2.2.14  : 
OTHER_3            .         LasInf.dll версия 3.2.0.13    : 
OTHER_4            .         Драйвер версия 1.2.0.5        : 
OTHER_5            .         Прибор_ КСА-M1                : 
OTHER_6            .         Номер прибора_ 155+р204       : 
OTHER_7            .         Режим_ КСА-М1 + ГГП + Резистивиметр: 
OTHER_8            .         Форма_ 223\2                  : 
OTHER_9            .         Тарировки_                    : 
PROJECT_UPGRADE_TIME .         2021-03-18T21_24_50           : 
TLFamily_CRES      .                                       : 
TLFamily_DEPT      .         Measured Depth                : 
TLFamily_GK        .         Gamma Ray                     : 
TLFamily_GK$       .                                       : 
TLFamily_LM        .         Casing Collar locator         : 
TLFamily_METKA     .                                       : 
TLFamily_MN        .                                       : 
TLFamily_MN$       .                                       : 
TLFamily_PL        .                                       : 
TLFamily_PL_2      .                                       : 
TLFamily_RCOR      .                                       : 
TLFamily_RES       .         Mud Resistivity               : 
TLFamily_SPID      .         Spontaneous Potential         : 
TLFamily_STD       .                                       : 
TLFamily_TIME      .         Time                          : 
TLFamily_TM        .         Temperature                   : 
TLFamily_TM$       .         Temperature                   : 
TLFamily_VGD       .         Gas Volume                    : 
group              .         prim                          : 
~Curve Information
#_______________________________________________________________________________
#
#LOGNAME           .UNIT     LOG_ID                        : DESCRIPTION
#_______________________________________________________________________________
DEPT               .M                                      : 1 Глубина, м -    0.0 см 
CRES               .UE                                     : 9 Проводимость, усл.ед. -  222.0 см 
GK                 .MKR/H                                  : 16 Гамма-активность, мкр./ч -  106.0 см 
GK$                .UE                                     : 13 Гамма-активность, усл.ед. -  106.0 см 
LM                 .                                       : 11 Локатор муфт,  -   16.0 см 
METKA              .                                       : 3 Метки,  -    0.0 см 
MN                 .ATM                                    : 15 Давление, атм. -  160.0 см 
MN$                .UE                                     : 7 Давление, усл.ед. -  160.0 см 
PL                 .UE                                     : 10 Плотность, усл.ед. -  270.0 см 
PL_2               .GSM3                                   : 18 Плотность, г./см3 -  270.0 см 
RCOR               .CM/KM                                  : 5 Коррекция по ролику, см/км -    0.0 см 
RES                .SM                                     : 17 Проводимость,  -  222.0 см 
SPID               .M/H                                    : 2 Скорость, м/час -    0.0 см 
STD                .                                       : 12 Приток,  -  170.0 см 
TIME               .S                                      : 4 Время, сек -    0.0 см 
TM                 .GRD                                    : 14 Температура, °C -  180.0 см 
TM$                .UE                                     : 6 Температура, усл.ед. -  180.0 см 
VGD                .                                       : 8 Влагомер,  -  170.0 см 
~Ascii
# ...
2696.799926 1243       10.67      462        74         0          373.326    17190      14         0          0          4.3996     580        10928      16153.65   55.757     13784      6700      
2696.999926 1242       10.73      478        93         0          372.885    17172      14         0          0          4.3925     545        10929      16154.98   55.749     13782      6700      
2697.199926 1243       10.85      478        98         0          374.698    17246      14         0          0          4.3996     557        10927      16156.25   55.741     13780      6699      
2697.399925 1242       11.03      504        85         0          374.47     17237      14         0          0          4.3948     510        10924      16157.58   55.734     13778      6700      
2697.599925 1244       11.37      511        65         0          374.14     17223      14         0          0          4.4027     580        10919      16158.86   55.724     13776      6701      
2697.799925 1241       11.6       522        53         0          373.452    17195      14         0          0          4.3901     557        10918      16160.14   55.716     13774      6700      
2697.999924 1240       11.79      522        45         0          373.219    17186      14         0          0          4.3829     580        10916      16161.41   55.707     13771      6700      
2698.199924 1239       11.68      492        45         0          372.685    17164      14         0          0          4.3805     580        10915      16162.74   55.701     13770      6699      
2698.399924 1238       11.49      492        53         0          372.716    17165      14         0          0          4.375      580        10914      16164.01   55.697     13769      6693      
2698.599923 1239       11.5       504        63         0          372.037    17137      14         0          0          4.3785     510        10918      16165.36   55.693     13768      6697      
2698.799923 1238       11.53      504        63         0          371.869    17131      14         0          0          4.3758     545        10920      16166.64   55.689     13767      6699      
2698.999923 1238       11.4       488        66         0          371.056    17097      14         0          0          4.3758     580        10920      16167.97   55.678     13764      6698      
2699.199923 1239       11.3       488        62         0          371.83     17129      14         0          0          4.3813     580        10918      16169.24   55.664     13761      6700      
2699.399922 1239       11.1       469        55         0          372.188    17144      14         0          0          4.379      522        10917      16170.51   55.648     13757      6701      
2699.599922 1240       10.94      469        50         0          372.937    17175      14         0          0          4.3837     545        10913      16171.85   55.635     13754      6699      
2699.799922 1240       11.51      538        68         0          373.551    17200      14         0          0          4.387      580        10911      16173.17   55.618     13749      6697      
2699.999921 1241       11.93      538        57         0          374.282    17230      14         0          0          4.3901     580        10906      16174.47   55.609     13747      6698      
2700.199921 1239       12.24      548        68         1          374.457    17237      14         0          0          4.3798     557        10904      16176.34   55.6       13745      6699      
2700.399921 1237       12.37      538        72         0          374.176    17226      14         0          0          4.371      580        10900      16177.67   55.581     13740      6699      
2700.59992 1238       12.08      513        85         0          375.251    17270      14         0          0          4.3758     580        10896      16178.94   55.563     13736      6698      
2700.79992 1234       11.93      513        73         0          375.41     17277      14         0          0          4.3568     530        10889      16180.19   55.548     13732      6699      
2700.99992 1236       11.17      449        67         0          374.954    17258      14         0          0          4.3655     580        10886      16181.49   55.539     13730      6699      
2701.19992 1235       10.19      382        73         0          373.909    17215      14         0          0          4.3591     533        10885      16182.77   55.531     13728      6697      
2701.399919 1237       9.48       382        87         0          373.168    17185      14         0          0          4.3694     580        10884      16184.1    55.521     13725      6698      
2701.599919 1232       10.29      521        71         0          372.56     17160      14         0          0          4.3479     580        10882      16185.37   55.504     13721      6699      
2701.799919 1233       11.1       521        71         0          374.316    17232      14         0          0          4.352      540        10877      16186.68   55.495     13719      6699      
2701.999918 1238       13.03      685        60         0          375.863    17296      13         0          0          4.3739     510        10874      16187.99   55.48      13715      6699      
2702.199918 1237       14.34      685        78         0          375.225    17270      14         0          0          4.371      580        10869      16189.26   55.466     13712      6699      
2702.399918 1237       14.17      604        64         0          374.835    17254      14         0          0          4.3726     580        10865      16190.53   55.45      13708      6700      
2702.599917 1235       14.02      604        51         0          374.737    17250      14         0          0          4.3615     580        10863      16191.87   55.445     13707      6700      
2702.799917 1235       13.81      589        62         0          374.266    17231      14         0          0          4.3631     580        10862      16193.16   55.436     13704      6701      
2702.999917 1233       13.67      589        54         0          374.027    17221      14         0          0          4.352      568        10860      16194.47   55.426     13702      6700      
2703.199917 1234       13.96      624        105        0          373.811    17212      14         0          0          4.3575     510        10859      16195.76   55.414     13699      6702      
2703.399916 1230       14.14      624        2881       0          373.369    17194      14         0          0          4.3361     566        10861      16197.04   55.409     13698      6702      
2703.599916 1232       12.44      467        4025       0          372.854    17173      14         0          0          4.3488     550        10862      16198.4    55.4       13696      6702      
2703.799916 1234       11.25      390        602        0          372.503    17158      14         0          0          4.3568     568        10860      16199.72   55.391     13693      6701      
2703.999915 1233       9.72       352        158        0          372.034    17139      14         0          0          4.352      522        10858      16201.05   55.386     13692      6701      
2704.199915 1237       8.89       350        57         0          373.047    17181      14         0          0          4.371      545        10859      16202.39   55.382     13691      6701      
2704.399915 1236       8.35       338        52         0          373.915    17217      14         0          0          4.3663     533        10860      16203.66   55.378     13690      6701      
2704.599915 1235       8.06       340        60         0          374.481    17240      14         0          0          4.3615     580        10859      16204.94   55.367     13687      6701      
2704.799914 1235       7.95       341        76         0          374.339    17234      14         0          0          4.3615     520        10859      16206.27   55.358     13685      6699      
