~Version
 VERS              .         2.0                           : CWLS LOG ASCII STANDARD - VERSION 2.0
 WRAP              .         NO                            : ONE LINE PER DEPTH STEP
 DLM               .         SPACE                         : DELIMITING CHARACTER(SPACE TAB OR COMMA)
~Well Information
#_______________________________________________________________________________
#
#PARAMETER_NAME    .UNIT     VALUE                         : DESCRIPTION
#_______________________________________________________________________________
STRT               .M        44.8                          : First reference value
STOP               .M        2755.2                        : Last reference value
STEP               .M        0.2                           : Step increment
NULL               .         -9999                         : Missing value
COMP               .                                       : Company
WELL               .         616                           : Well name
FLD                .                                       : Field
LOC                .                                       : Location
CNTY               .                                       : County
STAT               .                                       : State
CTRY               .                                       : Country
SRVC               .                                       : Service Company
DATE               .                                       : Date
API                .                                       : API number
PROJECT_UPGRADE_TIME .         2021-03-18T21_24_50           : 
group              .         Good                          : 
~Parameter Information Block
#_______________________________________________________________________________
#
#PARAMETER_NAME    .UNIT     VALUE                         : DESCRIPTION
#_______________________________________________________________________________
SET                .         D4390_D_2                     : 
COMM               .                                       : 
OTHER              .         Запись производится в присутствии: 
OTHER_10           .         Максимальная температура      : 
OTHER_100          .         GK.FLT = 0.1*GR.UR/H[-1] + (1-0.1)*GR.UR/H[0]: 
OTHER_11           .         Тип промывочной жидкости      : 
OTHER_12           .         Сопротивление ПЖ (Ом*м) при 20°C: 
OTHER_13           .         Плотность ПЖ(г/см3)           : 
OTHER_14           .         Вязкость ПЖ(с)                : 
OTHER_15           .         Водоотдача ПЖ(см3/30мин)      : 
OTHER_16           .         Уровень ПЖ                    : 
OTHER_17           .         Нефть ПЖ (%)                  : 
OTHER_18           .         Барит ПЖ (%)                  : 
OTHER_19           .         Гематит ПЖ (%)                : 
OTHER_2            .         Заказчик ННСН  ЦДНГ-1         : 
OTHER_20           .         КМЦ ПЖ (%)                    : 
OTHER_21           .         Разгазирование ПЖ (да,нет)    : 
OTHER_22           .         Подъемник                     : 
OTHER_23           .         Лаборатория                   : 
OTHER_24           .         Тип кабеля                    : 
OTHER_25           .         Длина кабеля (м)              : 
OTHER_26           .         Цена последней метки          : 
OTHER_27           .         Цена контрольной метки        : 
OTHER_28           .         Диаметр долота (мм)           : 
OTHER_29           .         Глубина бурения (м)           : 
OTHER_3            .         Площадь                       : 
OTHER_30           .         Искусственный забой (м)       : 
OTHER_31           .         Диаметр колонны (мм)          : 
OTHER_32           .         Толщина колонны (мм)          : 
OTHER_33           .         Башмак колонны (м)            : 
OTHER_34           .         Диаметр НКТ (мм)              : 
OTHER_35           .         Толщина НКТ (мм)              : 
OTHER_36           .         Воронка НКТ (м)               : 
OTHER_37           .         Дата цементожа                : 
OTHER_38           .         Тип, количество(т) и плотность цемента: 
OTHER_39           .         Интервалы перфорации (м)      : 
OTHER_4            .         Категория                     : 
OTHER_40           .         Направление, диаметр (мм)     : 
OTHER_41           .         Направление, глубина (м)      : 
OTHER_42           .         Кондуктор, диаметр (мм)       : 
OTHER_43           .         Кондуктор, глубина (м)        : 
OTHER_44           .         Техническая колонна, диаметр (мм): 
OTHER_45           .         Техническая колонна, глубина (м): 
OTHER_46           .         Эксплуатационная колонна, диаметр (мм): 
OTHER_47           .         Эксплуатационная колонна, глубина (м): 
OTHER_48           .         Программа Кедр-02 версия 3.4  : 
OTHER_49           .         Операционная система Windows NT 5.1 build 2600 Service Pack 2: 
OTHER_5            .         Назначение исследований       : 
OTHER_50           .         Программное обеспечение станции MONITOR-386EX 25/12/99 15_08_10   BGF V54 20/09/05 15_32_17   3.3__BGF_9030071: 
OTHER_51           .         Kedr.exe версия 3.4.2.74      : 
OTHER_52           .         KedrData.dll версия 3.4.2.29  : 
OTHER_53           .         Мнемоники версия 3.18 S       : 
OTHER_54           .         Драйвер версия 2.1.1.4        : 
OTHER_55           .         LasInf.dll 4.3.0.35           : 
OTHER_56           .         Прибор_ КСА-Т4                : 
OTHER_57           .         Номер прибора_ 160            : 
OTHER_58           .         Режим_ КСА-Т4                 : 
OTHER_59           .         Форма_ С.А.Б.                 : 
OTHER_6            .         Альтитуда стола ротора        : 
OTHER_60           .         Тарировки_                    : 
OTHER_61           .         <_techsia_sc_> Дата тарировки температуры 25.05.2010: 
OTHER_62           .         Ручной ввод коэффициентов     : 
OTHER_63           .         TM.DEGC = 0.00402*RTM.E.ACP + -0.994: 
OTHER_64           .         <_techsia_sc_> Дата тарировки давления 25.05.2010: 
OTHER_65           .         Ручной ввод коэффициентов     : 
OTHER_66           .         MN.ATM = (2.27521e-006*TM.DEGC + 0.02078)*(RMN.E.ACP + 6.2*TM.DEGC + -1688): 
OTHER_67           .         <_techsia_sc_> Дата тарировки ГК 25.05.2010: 
OTHER_68           .         Ручной ввод коэффициентов     : 
OTHER_69           .         GR.UR/H = RGR.IMP/MIN / 45.5144: 
OTHER_7            .         Вид исследований 3  6         : 
OTHER_70           .         GK.FLT = 0.1*GR.UR/H[-1] + (1-0.1)*GR.UR/H[0]: 
OTHER_71           .         <_techsia_sc_> Дата тарировки температуры 25.05.2010: 
OTHER_72           .         Ручной ввод коэффициентов     : 
OTHER_73           .         TM.DEGC = 0.00402*RTM.E.ACP + -0.994: 
OTHER_74           .         <_techsia_sc_> Дата тарировки давления 25.05.2010: 
OTHER_75           .         Ручной ввод коэффициентов     : 
OTHER_76           .         MN.ATM = (2.27521e-006*TM.DEGC + 0.02078)*(RMN.E.ACP + 6.2*TM.DEGC + -1688): 
OTHER_77           .         <_techsia_sc_> Дата тарировки ГК 25.05.2010: 
OTHER_78           .         Ручной ввод коэффициентов     : 
OTHER_79           .         GR.UR/H = RGR.IMP/MIN / 45.5144: 
OTHER_8            .         Начало бурения интервала каротажа: 
OTHER_80           .         GK.FLT = 0.1*GR.UR/H[-1] + (1-0.1)*GR.UR/H[0]: 
OTHER_81           .         <_techsia_sc_> Дата тарировки температуры 25.05.2010: 
OTHER_82           .         Ручной ввод коэффициентов     : 
OTHER_83           .         TM.DEGC = 0.00402*RTM.E.ACP + -0.994: 
OTHER_84           .         <_techsia_sc_> Дата тарировки давления 25.05.2010: 
OTHER_85           .         Ручной ввод коэффициентов     : 
OTHER_86           .         MN.ATM = (2.27521e-006*TM.DEGC + 0.02078)*(RMN.E.ACP + 6.2*TM.DEGC + -1688): 
OTHER_87           .         <_techsia_sc_> Дата тарировки ГК 25.05.2010: 
OTHER_88           .         Ручной ввод коэффициентов     : 
OTHER_89           .         GR.UR/H = RGR.IMP/MIN / 45.5144: 
OTHER_9            .         Окончание бурения интервала каротажа: 
OTHER_90           .         GK.FLT = 0.1*GR.UR/H[-1] + (1-0.1)*GR.UR/H[0]: 
OTHER_91           .         <_techsia_sc_> Дата тарировки температуры 25.05.2010: 
OTHER_92           .         Ручной ввод коэффициентов     : 
OTHER_93           .         TM.DEGC = 0.00402*RTM.E.ACP + -0.994: 
OTHER_94           .         <_techsia_sc_> Дата тарировки давления 25.05.2010: 
OTHER_95           .         Ручной ввод коэффициентов     : 
OTHER_96           .         MN.ATM = (2.27521e-006*TM.DEGC + 0.02078)*(RMN.E.ACP + 6.2*TM.DEGC + -1688): 
OTHER_97           .         <_techsia_sc_> Дата тарировки ГК 25.05.2010: 
OTHER_98           .         Ручной ввод коэффициентов     : 
OTHER_99           .         GR.UR/H = RGR.IMP/MIN / 45.5144: 
PROJECT_UPGRADE_TIME .         2021-03-18T21_24_50           : 
PRTY               .         ПП-601-1                      : N партии
SRVC               .         Барковский                    : Начальник партии
TLFamily_DEPT      .         Measured Depth                : 
TLFamily_LM        .         Casing Collar locator         : 
TLFamily_METKA     .                                       : 
TLFamily_MN        .                                       : 
TLFamily_TM        .         Temperature                   : 
group              .         second                        : 
~Curve Information
#_______________________________________________________________________________
#
#LOGNAME           .UNIT     LOG_ID                        : DESCRIPTION
#_______________________________________________________________________________
DEPT               .M                                      : Depth curve 
LM                 .е.ацп                                  : Локатор муфт,е.ацп 
METKA              .е.ацп                                  : Магнитные метки,е.ацп 
MN                 .атм                                    : 12 Давление, атм. -  160.0 см 
TM                 .град.C                                 : Термограмма по стволу скважины,град.C 
~Ascii
# ...
395.2      314        0          39.921     13.263    
395.4      336.075    0          39.946     13.265    
395.6      3713.958   0          39.961     13.268    
395.8      1826.988   0          39.994     13.274    
396        1295.991   0          40.004     13.279    
396.2      907.995    0          40.029     13.283    
396.4      672.998    0          40.048     13.288    
396.6      581.999    0          40.07      13.299    
396.8      556.999    0          40.07      13.304    
397        534.002    0          40.093     13.309    
397.2      641.999    0          40.127     13.31     
397.4      577.001    0          40.135     13.316    
397.6      640.998    0          40.156     13.324    
397.8      563.999    0          40.167     13.329    
398        526.001    0          40.192     13.334    
398.2      583.999    0          40.199     13.337    
398.4      532.999    0          40.221     13.339    
398.6      503.999    0          40.242     13.344    
398.8      461.001    0          40.253     13.345    
399        514        0          40.263     13.349    
399.2      517.999    0          40.282     13.349    
399.4      462.999    0          40.305     13.349    
399.6      400        0          40.313     13.352    
399.8      378.999    0          40.338     13.353    
400        324.002    0          40.363     13.353    
400.2      396.002    0          40.387     13.353    
400.4      462.998    0          40.394     13.356    
400.6      353        0          40.41      13.357    
400.8      362        0          40.422     13.357    
401        373.001    0          40.448     13.358    
401.2      434.001    0          40.473     13.363    
401.4      460.998    0          40.468     13.368    
401.6      370.999    0          40.483     13.369    
401.8      329.002    0          40.53      13.374    
402        397.999    0          40.537     13.377    
402.2      363        0          40.559     13.379    
402.4      355.999    0          40.559     13.382    
402.6      313        0          40.56      13.385    
402.8      298        0          40.608     13.39     
403        310        0          40.623     13.395    
403.2      307        0          40.624     13.4      
403.4      299        0          40.642     13.402    
403.6      313.003    0          40.679     13.41     
403.8      432.999    0          40.688     13.414    
404        385        0          40.71      13.419    
404.2      373        0          40.716     13.424    
404.4      367        0          40.733     13.432    
404.6      377        0          40.747     13.438    
404.8      380.998    0          40.791     13.443    
405        273.002    2          40.797     13.448    
405.2      372        0          40.81      13.456    
405.4      382.098    0          40.84      13.461    
405.6      4627.966   0          40.856     13.466    
405.8      3147.976   0          40.863     13.471    
406        2105.976   0          40.885     13.479    
406.2      1045.997   0          40.894     13.485    
406.4      900.999    0          40.921     13.49     
406.6      854.996    0          40.949     13.493    
406.8      694.999    0          40.965     13.499    
407        641.998    0          40.991     13.502    
407.2      568        0          40.997     13.505    
407.4      572        0          41.013     13.51     
407.6      591.001    0          41.043     13.514    
407.8      620        0          41.056     13.519    
408        602.998    0          41.062     13.526    
408.2      535.999    0          41.1       13.533    
408.4      485        0          41.1       13.538    
408.6      483        0          41.131     13.543    
408.8      484.999    0          41.143     13.548    
409        440.001    0          41.146     13.55     
409.2      488        0          41.171     13.553    
409.4      509        0          41.197     13.558    
409.6      504        0          41.208     13.559    
409.8      500.999    0          41.208     13.566    
410        449.999    0          41.251     13.568    
410.2      428.001    0          41.272     13.576    
410.4      461        0          41.283     13.578    
410.6      440.003    0          41.293     13.583    
410.8      549.001    0          41.312     13.584    
411        586.999    0          41.315     13.588    
411.2      538.999    0          41.328     13.593    
411.4      479.002    0          41.368     13.598    
411.6      549        0          41.393     13.603    
411.8      532.002    0          41.38      13.608    
412        595.997    0          41.422     13.613    
412.2      476.999    0          41.438     13.618    
412.4      418.001    0          41.465     13.622    
412.6      448        0          41.466     13.627    
412.8      462.999    0          41.506     13.634    
413        428.999    0          41.512     13.641    
413.2      378.001    0          41.531     13.646    
413.4      424        0          41.532     13.651    
413.6      409.999    0          41.547     13.655    
413.8      378.002    0          41.572     13.66     
414        482        0          41.597     13.665    
414.2      492.001    0          41.617     13.667    
414.4      540.999    0          41.627     13.67     
414.6      485.001    0          41.639     13.675    
414.8      521.997    0          41.656     13.679    
415        410.998    2          41.681     13.679    
415.2      332.092    0          41.702     13.679    
415.4      4191.966   0          41.711     13.682    
415.6      2762.978   0          41.723     13.687    
415.8      1829.987   0          41.756     13.688    
416        1268.991   0          41.766     13.692    
416.2      899.994    0          41.769     13.697    
416.4      629.997    0          41.796     13.702    
416.6      501.002    0          41.831     13.711    
416.8      578.998    0          41.841     13.722    
417        492.999    0          41.867     13.731    
417.2      468        0          41.893     13.741    
417.4      454.001    0          41.899     13.75     
417.6      489.001    0          41.925     13.762    
417.8      520        0          41.944     13.774    
418        537.999    0          41.944     13.779    
418.2      490        0          41.977     13.788    
418.4      497        0          41.988     13.794    
418.6      510.998    0          42.012     13.802    
418.8      413.999    0          42.031     13.806    
419        376        0          42.041     13.808    
419.2      380.001    0          42.066     13.812    
419.4      422.999    0          42.073     13.812    
419.6      385.999    0          42.093     13.81     
419.8      329.999    0          42.099     13.81     
420        278.001    0          42.132     13.812    
420.2      317.004    0          42.156     13.812    
420.4      484.001    0          42.157     13.813    
420.6      515.998    0          42.157     13.816    
420.8      417        0          42.203     13.816    
421        432.999    0          42.22      13.819    
421.2      392.998    0          42.234     13.82     
421.4      331.007    0          42.241     13.82     
421.6      623.997    0          42.263     13.822    
421.8      495        0          42.289     13.824    
422        490.998    0          42.314     13.827    
422.2      425.999    0          42.311     13.828    
422.4      372        0          42.322     13.829    
422.6      363.001    0          42.367     13.832    
422.8      412        0          42.371     13.832    
423        416        0          42.397     13.835    
423.2      396.003    0          42.409     13.836    
423.4      521        0          42.41      13.836    
423.6      501.003    0          42.431     13.841    
423.8      604.998    0          42.456     13.846    
424        537        0          42.474     13.851    
424.2      523        0          42.486     13.856    
