~Version
 VERS              .         2.0                           : CWLS LOG ASCII STANDARD - VERSION 2.0
 WRAP              .         NO                            : ONE LINE PER DEPTH STEP
 DLM               .         SPACE                         : DELIMITING CHARACTER(SPACE TAB OR COMMA)
~Well Information
#_______________________________________________________________________________
#
#PARAMETER_NAME    .UNIT     VALUE                         : DESCRIPTION
#_______________________________________________________________________________
STRT               .M        2658                          : First reference value
STOP               .M        2762                          : Last reference value
STEP               .M        0.2                           : Step increment
NULL               .         -9999                         : Missing value
COMP               .                                       : Company
WELL               .         616                           : Well name
FLD                .                                       : Field
LOC                .                                       : Location
CNTY               .                                       : County
STAT               .                                       : State
CTRY               .                                       : Country
SRVC               .                                       : Service Company
DATE               .                                       : Date
API                .                                       : API number
PROJECT_UPGRADE_TIME .         2021-03-18T21_24_50           : 
group              .         Good                          : 
~Parameter Information Block
#_______________________________________________________________________________
#
#PARAMETER_NAME    .UNIT     VALUE                         : DESCRIPTION
#_______________________________________________________________________________
SET                .         D8103_D                       : 
OTHER              .         Программное обеспечение станции MONITOR-386EX 25/12/99 15_08_10   BGF V52 22/08/01 16_56_30   4_SNGF_BGF_N_011645: 
OTHER_10           .         Тарировки_                    : 
OTHER_11           .         TM.GRD = 0.00412*TM$.UE + -2.13: 
OTHER_12           .         MN.ATM = (5.87652e-006*TM.GRD + 0.01993)*(MN$.UE + -2.72*TM.GRD + -1925): 
OTHER_13           .         GK.MKR/H = GK$.UE / 57.4657   : 
OTHER_2            .         Kedr.exe версия 3.4.2.51      : 
OTHER_3            .         KedrData.dll версия 3.4.2.24  : 
OTHER_4            .         Драйвер версия 2.1.0.2        : 
OTHER_5            .         Мнемоники версия 3.3 S        : 
OTHER_6            .         Прибор_ АКП4-90               : 
OTHER_7            .         Номер прибора_ 53             : 
OTHER_8            .         Режим_ АКП4_90                : 
OTHER_9            .         Форма_ ПК-53ое                : 
PROJECT_UPGRADE_TIME .         2021-03-18T21_24_50           : 
TLFamily_DEPT      .         Measured Depth                : 
TLFamily_GK        .         Gamma Ray                     : 
TLFamily_GK$       .                                       : 
TLFamily_LM        .         Casing Collar locator         : 
TLFamily_METKA     .                                       : 
TLFamily_METKA_1   .                                       : 
TLFamily_MN        .                                       : 
TLFamily_MN$       .                                       : 
TLFamily_RCOR      .                                       : 
TLFamily_SPID      .         Spontaneous Potential         : 
TLFamily_TENS      .         Cable Tension                 : 
TLFamily_TIME      .         Time                          : 
TLFamily_TM        .         Temperature                   : 
TLFamily_TM$       .         Temperature                   : 
group              .         prim                          : 
~Curve Information
#_______________________________________________________________________________
#
#LOGNAME           .UNIT     LOG_ID                        : DESCRIPTION
#_______________________________________________________________________________
DEPT               .M                                      : 1 Глубина, м -    0.0 см 
GK                 .MKR/H                                  : 13 Гамма-активность, мкр./ч -   65.0 см 
GK$                .UE                                     : 10 Гамма-активность, усл.ед. -   65.0 см 
LM                 .                                       : 9 Локатор муфт,  -   30.0 см 
METKA              .                                       : 3 Метки,  -    0.0 см 
METKA_1            .                                       : 14 Маркеры - 65 см 
MN                 .ATM                                    : 12 Давление, атм. -  140.0 см 
MN$                .UE                                     : 8 Давление, усл.ед. -  140.0 см 
RCOR               .CM/KM                                  : 5 Коррекция по ролику, см/км -    0.0 см 
SPID               .M/H                                    : 2 Скорость, м/час -    0.0 см 
TENS               .T                                      : 6 Натяжение кабеля, т -    0.0 см 
TIME               .S                                      : 4 Время, сек -    0.0 см 
TM                 .GRD                                    : 11 Температура, °C -  145.0 см 
TM$                .UE                                     : 7 Температура, усл.ед. -  145.0 см 
~Ascii
# ...
2689.2     5.21       299        221        0          0          246.295    14283      -26        -337       0.8        3646.08    63.497     15929     
2689.4     5.66       325        294        0          0          246.295    14283      -26        -335       0.8        3644       63.416     15909     
2689.6     5.88       338        416        0          0          246.308    14284      -26        -333       0.8        3641.92    63.37      15898     
2689.8     5.68       326        326        0          0          246.348    14286      -26        -333       0.8        3639.78    63.3       15881     
2690       5.46       314        134        0          0          246.375    14287      -26        -332       0.8        3637.64    63.252     15869     
2690.2     4.98       286        201        0          0          246.388    14288      -26        -335       0.8        3635.5     63.196     15856     
2690.4     5.04       289        265        0          0          246.415    14289      -26        -329       0.82       3633.36    63.102     15833     
2690.6     5.36       308        255        2          0          246.435    14290      -25        -336       0.8        3631.15    63.017     15812     
2690.8     5.55       319        405        0          0          246.444    14291      -25        -335       0.81       3628.97    62.986     15805     
2691       5.48       315        212        0          0          246.474    14292      -25        -339       0.82       3626.9     62.9       15784     
2691.2     5.33       306        161        0          0          246.494    14293      -25        -337       0.8        3624.82    62.802     15760     
2691.4     5.24       301        197        0          0          246.514    14294      -25        -335       0.8        3622.74    62.76      15750     
2691.6     5.69       327        245        0          0          246.534    14295      -25        -333       0.8        3620.56    62.684     15732     
2691.8     5.88       338        272        0          0          246.554    14296      -25        -335       0.8        3618.39    62.608     15713     
2692       5.69       327        234        0          0          246.554    14296      -25        -339       0.8        3616.31    62.554     15700     
2692.2     6.2        356        283        0          0          246.584    14298      -25        -336       0.8        3614.14    62.421     15668     
2692.4     6.72       386        271        0          0          246.634    14300      -25        -338       0.8        3612.05    62.353     15651     
2692.6     6.78       390        321        0          0          246.634    14300      -25        -336       0.8        3609.91    62.285     15635     
2692.8     6.65       382        323        0          0          246.639    14300      -25        -338       0.82       3607.8     62.148     15601     
2693       6.54       376        302        0          0          246.694    14303      -25        -334       0.8        3605.73    62.006     15567     
2693.2     6.46       371        173        0          0          246.699    14303      -25        -337       0.8        3603.61    61.868     15534     
2693.4     6.47       372        212        0          0          246.713    14304      -25        -333       0.8        3601.38    61.747     15504     
2693.6     5.9        339        332        0          0          246.753    14306      -25        -336       0.82       3599.3     61.569     15461     
2693.8     5.76       331        425        0          0          246.773    14307      -25        -337       0.82       3597.21    61.384     15416     
2694       5.72       329        4960       0          0          246.76     14306      -25        -327       0.8        3595.07    61.19      15369     
2694.2     6.25       359        24445      0          0          246.818    14309      -25        -332       0.82       3592.94    60.906     15300     
2694.4     6.45       371        3697       0          0          246.843    14310      -25        -332       0.8        3590.8     60.723     15256     
2694.6     6.35       365        259        0          0          246.853    14311      -25        -332       0.8        3588.53    60.535     15210     
2694.8     6.49       373        347        0          0          246.888    14313      -25        -336       0.8        3586.39    60.237     15138     
2695       6.45       371        275        0          0          246.923    14315      -25        -336       0.8        3584.27    59.976     15074     
2695.2     6.37       366        453        0          0          246.898    14313      -25        -339       0.82       3582.18    59.608     14985     
2695.4     6.32       363        305        0          0          246.948    14316      -25        -334       0.8        3580.05    59.443     14945     
2695.6     6.36       365        294        0          0          246.959    14316      -25        -332       0.8        3577.89    59.192     14884     
2695.8     6.46       371        390        0          0          246.933    14315      -25        -334       0.8        3575.8     58.99      14835     
2696       6.54       376        390        0          0          246.973    14317      -25        -338       0.8        3573.72    58.688     14762     
2696.2     6.53       375        285        0          0          246.992    14318      -25        -337       0.8        3571.59    58.288     14665     
2696.4     6.73       387        385        0          0          246.973    14317      -25        -342       0.8        3569.4     57.998     14594     
2696.6     6.69       385        252        0          0          246.973    14317      -25        -335       0.8        3567.34    57.757     14536     
2696.8     6.5        374        208        0          0          247.065    14322      -25        -338       0.8        3565.21    57.563     14488     
2697       6.13       352        70         0          0          247.072    14322      -25        -337       0.8        3563.09    57.389     14446     
2697.2     6.46       371        149        0          0          247.082    14322      -25        -336       0.8        3560.95    57.153     14389     
2697.4     6.96       400        281        0          0          247.132    14325      -25        -340       0.8        3558.89    56.856     14317     
2697.6     6.61       380        129        0          0          247.145    14326      -25        -336       0.8        3556.73    56.586     14251     
2697.8     6.65       382        311        0          0          247.162    14327      -25        -341       0.8        3554.57    56.386     14203     
2698       6.74       387        318        0          0          247.212    14329      -25        -340       0.8        3552.45    56.202     14158     
2698.2     7.02       403        394        0          0          247.212    14329      -25        -337       0.8        3550.34    56.04      14119     
2698.4     6.92       397        268        0          0          247.212    14329      -25        -335       0.8        3548.17    55.814     14064     
2698.6     6.68       384        385        0          0          247.271    14332      -25        -330       0.8        3546.15    55.59      14010     
2698.8     6.7        385        320        0          0          247.272    14332      -25        -331       0.82       3544.02    55.432     13971     
2699       6.94       399        169        0          0          247.291    14333      -25        -339       0.8        3541.87    55.301     13940     
2699.2     7.05       405        209        0          0          247.331    14335      -25        -336       0.8        3539.73    55.208     13917     
2699.4     7.23       416        98         0          0          247.325    14335      -25        -334       0.8        3537.59    55.095     13890     
