~Version
 VERS              .         2.0                           : CWLS LOG ASCII STANDARD - VERSION 2.0
 WRAP              .         NO                            : ONE LINE PER DEPTH STEP
 DLM               .         SPACE                         : DELIMITING CHARACTER(SPACE TAB OR COMMA)
~Well Information
#_______________________________________________________________________________
#
#PARAMETER_NAME    .UNIT     VALUE                         : DESCRIPTION
#_______________________________________________________________________________
STRT               .M        3.4                           : First reference value
STOP               .M        832.4                         : Last reference value
STEP               .M        0.2                           : Step increment
NULL               .         -9999                         : Missing value
COMP               .                                       : Company
WELL               .         616                           : Well name
FLD                .                                       : Field
LOC                .                                       : Location
CNTY               .                                       : County
STAT               .                                       : State
CTRY               .                                       : Country
SRVC               .                                       : Service Company
DATE               .                                       : Date
API                .                                       : API number
PROJECT_UPGRADE_TIME .         2021-03-18T21_24_50           : 
group              .         Good                          : 
~Parameter Information Block
#_______________________________________________________________________________
#
#PARAMETER_NAME    .UNIT     VALUE                         : DESCRIPTION
#_______________________________________________________________________________
SET                .         ULN                           : 
PROJECT_UPGRADE_TIME .         2021-03-18T21_24_50           : 
TLFamily_AK4       .                                       : 
TLFamily_ALFAK     .                                       : 
TLFamily_AMPL      .                                       : 
TLFamily_DEPTH     .         Measured Depth                : 
TLFamily_DK1       .                                       : 
TLFamily_DK2       .                                       : 
TLFamily_DTK       .         Compressional Slowness        : 
TLFamily_QCBL      .                                       : 
TLFamily_T1        .         Travel Time 1                 : 
TLFamily_T2        .         Travel Time 2                 : 
group              .         prim                          : 
~Curve Information
#_______________________________________________________________________________
#
#LOGNAME           .UNIT     LOG_ID                        : DESCRIPTION
#_______________________________________________________________________________
DEPTH              .M                                      : 0 Depth curve 
AK4                .                                       : 2 Амплитуда - Волна по колонне - Канал1 
ALFAK              .дБ/м                                   : 1 Затухание - Волна по колонне 
AMPL               .                                       : 8 Коэффициент усиления ВС 
DK1                .дБ                                     : 3 Кривая ослабления - Волна по колонне - Канал1 
DK2                .дБ                                     : 4 Кривая ослабления - Волна по колонне - Канал2 
DTK                .мкс/м                                  : 5 ДельтаТ - Волна по породе 
QCBL               .                                       : 9 Контакт цемент-колонна 
T1                 .мкс                                    : 6 Время пробега - Волна по породе - Канал1 
T2                 .мкс                                    : 7 Время пробега - Волна по породе - Канал2 
~Ascii
3.4        0          42         1          89.433     90.433     -9999      4          -9999      -9999     
3.6        0          42         1          89.433     90.433     -9999      4          -9999      -9999     
3.8        0          42         1          89.433     90.433     -9999      4          -9999      -9999     
4          0          42         1          89.433     90.433     -9999      4          -9999      -9999     
4.2        0          42         1          89.433     90.433     -9999      4          -9999      -9999     
4.4        0          42         1          89.433     90.433     -9999      4          -9999      -9999     
4.6        0          42         1          89.433     90.433     -9999      4          -9999      -9999     
4.8        0          42         1          89.433     90.433     -9999      4          -9999      -9999     
5          0          42         1          89.433     90.433     -9999      4          -9999      -9999     
5.2        0          42         1          89.433     90.433     -9999      4          -9999      -9999     
5.4        0          42         1          89.433     90.433     -9999      4          -9999      -9999     
5.6        0          42         1          89.433     90.433     -9999      4          -9999      -9999     
5.8        0          42         1          89.433     90.433     -9999      4          -9999      515.802   
6          0          42         1          89.433     90.433     227.942    4          424.009    515.81    
6.2        87.143     42         1          89.433     87.252     256.628    4          419.757    545.224   
6.4        87.143     42         1          89.433     85.662     386.043    4          411.254    604.038   
6.6        87.143     42         1          89.433     80.682     435.667    4          402.751    636.804   
6.8        2.992      37.34      1          83.412     79.366     485.083    4          407.083    651.771   
7          5.984      32.496     1          77.392     71.944     402.349    4          415.667    612.816   
7.2        173.913    27.468     1          59.71      72.417     364.986    4          414.054    588.622   
7.4        1688.264   25.065     1          41.676     63.692     293.412    4          400.616    541.543   
7.6        3202.615   20.812     1          23.642     50.768     248.589    4          387.178    511.864   
7.8        4552.029   14.191     1          17.269     32.062     209.674    4          383.936    491.131   
8          4627.204   9.736      1          17.129     21.997     187.286    2          383.343    479.345   
8.2        10207.05   15.477     1          12.662     20.401     190.999    2          376.864    474.722   
8.4        15786.89   24.29      1          8.195      20.34      205.309    2          370.385    473.039   
8.6        21291.56   31.146     1          3.869      19.442     218.452    2          364.498    473.724   
8.8        22417.66   21.793     1          3.442      14.339     219.652    2          363.744    472.24    
9          23646.66   11.91      1          2.98       8.935      211.56     2          362.237    466.686   
9.2        24619.93   3.782      1          2.608      4.499      205.926    2          360.128    461.761   
9.4        24208.61   4.7        1          2.756      5.106      201.506    2          358.868    459.621   
9.6        23139.43   7.137      1          3.154      6.723      202.086    2          359.516    460.559   
9.8        21779.19   10.038     1          3.689      8.707      198.506    2          362.026    461.279   
10         19905.66   11.076     1          4.483      10.021     193.59     2          363.979    460.775   
10.2       18587.11   10.786     1          5.063      10.456     191.905    2          364.778    460.73    
10.4       16417.54   9.389      1          6.194      10.888     193.301    2          364.084    460.734   
10.6       15019.75   9.062      1          6.971      11.502     194.741    2          363.852    461.223   
10.8       14698.52   10.443     1          7.132      12.354     197.023    2          362.508    461.019   
11         15775.1    12.827     1          6.516      12.929     197.013    2          361.394    459.9     
11.2       17722.71   14.989     1          5.483      12.977     195.723    2          361.434    459.295   
11.4       18593.75   14.024     1          5.065      12.077     193.326    2          362.587    459.25    
11.6       20300.63   12.8       1          4.297      10.697     191.969    2          363.123    459.107   
11.8       21452.34   11.264     1          3.824      9.456      194.193    2          361.95     459.046   
12         22604.05   10.259     1          3.351      8.481      196.987    2          360.777    459.27    
12.2       23471.23   9.176      1          3.027      7.615      200.621    2          359.535    459.846   
12.4       24022.55   8.054      1          2.825      6.852      202.523    2          358.849    460.111   
12.6       24573.86   8.327      1          2.623      6.787      203.884    2          358.163    460.105   
12.8       24405.2    8.138      1          2.684      6.753      204.398    2          358.044    460.244   
13         24236.55   7.788      1          2.744      6.638      204.433    2          357.926    460.143   
13.2       24272.17   6.52       1          2.731      5.991      203.622    2          358.423    460.234   
13.4       24476.44   5.522      1          2.658      5.419      202.043    2          359.038    460.06    
13.6       24680.71   5.052      1          2.586      5.112      200.695    2          359.653    460.001   
13.8       24751.17   4.741      1          2.561      4.932      201.687    2          359.041    459.885   
14         25742.93   5.177      1          2.231      4.82       203.041    2          358.564    460.085   
14.2       26734.68   5.402      1          1.902      4.603      203.044    2          358.088    459.61    
14.4       27558.28   5.34       1          1.628      4.298      200.365    2          361.226    458.371   
14.6       26624.64   4.156      1          1.937      4.015      192.443    2          367.231    457.064   
14.8       25691      3.455      1          2.246      3.974      188.332    2          373.236    456.971   
15         24855.05   3.193      1          2.525      4.121      188.116    2          376.239    462.904   
15.2       24855.05   6.076      1          2.525      5.563      194.758    2          376.239    469.575   
15.4       22165.91   6.994      1          3.661      7.158      196.906    2          376.926    475.379   
15.6       19476.77   7.85       1          4.797      8.722      196.869    2          377.612    476.047   
15.8       16869.91   6.512      1          5.891      9.147      202.036    2          378.227    475.861   
16         19895.94   9.581      1          4.639      9.43       215.674    2          371.442    475.895   
16.2       22921.96   13.273     1          3.388      10.024     228.944    2          364.656    473.495   
16.4       25865.71   11.961     1          2.178      8.159      226.683    2          357.943    469.035   
16.6       25865.71   8.207      1          2.178      6.282      213.787    2          357.943    462.587   
16.8       25753.17   3.777      1          2.216      4.105      202.867    0          357.433    458.867   
17         25640.63   3.928      1          2.254      4.218      200.992    0          356.923    457.42    
17.2       25528.09   3.997      1          2.292      4.291      203.368    0          356.413    458.097   
17.4       25543.91   4.207      1          2.287      4.39       204.067    0          356.796    458.83    
17.6       25559.74   4.493      1          2.282      4.528      204.692    0          357.18     459.526   
17.8       25649.39   4.515      1          2.251      4.509      203.506    0          357.55     459.303   
