~Version
 VERS              .         2.0                           : CWLS LOG ASCII STANDARD - VERSION 2.0
 WRAP              .         NO                            : ONE LINE PER DEPTH STEP
 DLM               .         SPACE                         : DELIMITING CHARACTER(SPACE TAB OR COMMA)
~Well Information
#_______________________________________________________________________________
#
#PARAMETER_NAME    .UNIT     VALUE                         : DESCRIPTION
#_______________________________________________________________________________
STRT               .M        2689.8                        : First reference value
STOP               .M        2754.4                        : Last reference value
STEP               .M        0.1999995                     : Step increment
NULL               .         -9999                         : Missing value
COMP               .                                       : Company
WELL               .         616                           : Well name
FLD                .                                       : Field
LOC                .                                       : Location
CNTY               .                                       : County
STAT               .                                       : State
CTRY               .                                       : Country
SRVC               .                                       : Service Company
DATE               .                                       : Date
API                .                                       : API number
PROJECT_UPGRADE_TIME .         2021-03-18T21_24_50           : 
group              .         Good                          : 
~Parameter Information Block
#_______________________________________________________________________________
#
#PARAMETER_NAME    .UNIT     VALUE                         : DESCRIPTION
#_______________________________________________________________________________
SET                .         D7018_D                       : 
OTHER              .         Kedr.exe версия 2.1.2.32      : 
OTHER_10           .         TM.GRD = 0.00404*TM$.UE + 0.07: 
OTHER_11           .         MN.ATM = (6.33279e-006*TM.GRD + 0.02401)*(MN$.UE + 2.72*TM.GRD + -2018): 
OTHER_12           .         GK.MKR/H = GK$.UE / 43.5489 + 0: 
OTHER_13           .         RES.SM = 0.00476*CRES.UE - 1.51709: 
OTHER_14           .         PL.GSM3 = 0 + 0 * (PL.UE / 1) +  0 * (PL.UE / 1)^2: 
OTHER_15           .         Постоянная времени ГГП = 6 сек: 
OTHER_16           .         Постоянная времени ГК = 6 сек : 
OTHER_2            .         KedrData.dll версия 3.2.2.14  : 
OTHER_3            .         LasInf.dll версия 3.2.0.13    : 
OTHER_4            .         Драйвер версия 1.2.0.5        : 
OTHER_5            .         Прибор_ КСА-M1                : 
OTHER_6            .         Номер прибора_ 155+р204       : 
OTHER_7            .         Режим_ КСА-М1 + ГГП + Резистивиметр: 
OTHER_8            .         Форма_ 223\2                  : 
OTHER_9            .         Тарировки_                    : 
PROJECT_UPGRADE_TIME .         2021-03-18T21_24_50           : 
TLFamily_CRES      .                                       : 
TLFamily_DEPT      .         Measured Depth                : 
TLFamily_GK        .         Gamma Ray                     : 
TLFamily_GK$       .                                       : 
TLFamily_LM        .         Casing Collar locator         : 
TLFamily_METKA     .                                       : 
TLFamily_MN        .                                       : 
TLFamily_MN$       .                                       : 
TLFamily_PL        .                                       : 
TLFamily_PL_2      .                                       : 
TLFamily_RCOR      .                                       : 
TLFamily_RES       .         Mud Resistivity               : 
TLFamily_SPID      .         Spontaneous Potential         : 
TLFamily_STD       .                                       : 
TLFamily_TIME      .         Time                          : 
TLFamily_TM        .         Temperature                   : 
TLFamily_TM$       .         Temperature                   : 
TLFamily_VGD       .         Gas Volume                    : 
group              .         prim                          : 
~Curve Information
#_______________________________________________________________________________
#
#LOGNAME           .UNIT     LOG_ID                        : DESCRIPTION
#_______________________________________________________________________________
DEPT               .M                                      : 1 Глубина, м -    0.0 см 
CRES               .UE                                     : 9 Проводимость, усл.ед. -  222.0 см 
GK                 .MKR/H                                  : 16 Гамма-активность, мкр./ч -  106.0 см 
GK$                .UE                                     : 13 Гамма-активность, усл.ед. -  106.0 см 
LM                 .                                       : 11 Локатор муфт,  -   16.0 см 
METKA              .                                       : 3 Метки,  -    0.0 см 
MN                 .ATM                                    : 15 Давление, атм. -  160.0 см 
MN$                .UE                                     : 7 Давление, усл.ед. -  160.0 см 
PL                 .UE                                     : 10 Плотность, усл.ед. -  270.0 см 
PL_2               .GSM3                                   : 18 Плотность, г./см3 -  270.0 см 
RCOR               .CM/KM                                  : 5 Коррекция по ролику, см/км -    0.0 см 
RES                .SM                                     : 17 Проводимость,  -  222.0 см 
SPID               .M/H                                    : 2 Скорость, м/час -    0.0 см 
STD                .                                       : 12 Приток,  -  170.0 см 
TIME               .S                                      : 4 Время, сек -    0.0 см 
TM                 .GRD                                    : 14 Температура, °C -  180.0 см 
TM$                .UE                                     : 6 Температура, усл.ед. -  180.0 см 
VGD                .                                       : 8 Влагомер,  -  170.0 см 
~Ascii
# ...
2714.4     1206       6.75       292        50         0          249.703    12168      14         0          0          4.2251     -260       9029       9849.64    46.025     11375      6613      
2714.6     1214       6.81       300        51         0          249.719    12169      13         0          0          4.2599     -280       9030       9846.88    46.029     11376      6615      
2714.8     1212       6.88       283        65         0          249.712    12168      13         0          0          4.2504     -260       9030       9844.12    46.03      11376      6615      
2715       1202       7.55       303        56         0          249.744    12170      14         0          0          4.2029     -260       9033       9841.24    46.036     11378      6622      
2715.2     1205       7.94       355        61         0          249.751    12170      14         0          0          4.2187     -260       9034       9838.48    46.034     11377      6617      
2715.4     1206       7.56       348        67         0          249.775    12171      15         0          0          4.2235     -260       9037       9835.73    46.029     11376      6620      
2715.6     1208       8.07       317        92         0          249.8      12172      14         0          0          4.2331     -320       9041       9832.97    46.029     11376      6622      
2715.8     1212       10.2       434        123        0          249.801    12172      14         0          0          4.252      -260       9040       9830.21    46.033     11377      6618      
2716       1217       10.66      474        177        0          249.818    12173      14         0          0          4.2774     -320       9040       9827.33    46.037     11378      6621      
2716.2     1212       10.21      436        182        0          249.826    12173      13         0          0          4.2536     -260       9040       9824.57    46.041     11379      6622      
2716.4     1217       10.53      458        55         0          249.843    12174      14         0          0          4.2774     -260       9037       9821.69    46.041     11379      6622      
2716.6     1216       10.56      459        78         0          249.875    12175      15         0          0          4.2727     -260       9033       9818.92    46.045     11380      6620      
2716.8     1214       10.54      462        120        0          249.826    12173      14         0          0          4.2631     -260       9034       9816.11    46.042     11379      6620      
2717       1213       9.76       475        119        0          249.9      12176      14         0          0          4.2552     -260       9035       9813.28    46.047     11380      6623      
2717.2     1209       8.25       435        205        0          249.924    12177      14         0          0          4.2378     -260       9041       9810.52    46.051     11381      6638      
2717.4     1209       7.13       316        242        0          249.924    12177      14         0          0          4.2378     -320       9042       9807.64    46.045     11380      6632      
2717.6     1212       6.78       303        263        0          249.947    12178      13         0          0          4.2521     -260       9040       9804.88    46.047     11380      6637      
2717.8     1214       6.32       289        114        0          249.944    12178      14         0          0          4.2615     -260       9038       9802       46.037     11378      6644      
2718       1214       5.79       254        222        0          249.962    12179      14         0          0          4.2615     -260       9034       9799.24    46.017     11373      6647      
2718.2     1214       5.72       249        216        0          249.987    12180      14         0          0          4.2615     -260       9030       9796.42    45.966     11360      6651      
2718.4     1213       5.76       247        393        0          250.003    12180      14         0          0          4.2584     -260       9035       9793.6     45.974     11362      6649      
2718.6     1219       6.22       244        412        0          250.021    12181      13         0          0          4.283      -260       9026       9790.83    46.098     11393      6652      
2718.8     1219       7          274        181        0          250.038    12181      14         0          0          4.2869     -300       9017       9788.08    46.106     11395      6640      
2719       1217       7.38       322        510        0          250.053    12182      14         0          0          4.2758     -320       9016       9785.19    46.113     11397      6640      
2719.2     1217       7.34       322        658        0          250.029    12181      14         0          0          4.2758     -320       9015       9782.45    46.11      11396      6642      
2719.4     1216       7.19       318        624        0          250.11     12184      14         0          0          4.2711     -260       9022       9779.68    46.11      11396      6639      
2719.6     1215       6.92       311        150        0          250.092    12184      14         0          0          4.2662     -260       9037       9776.79    46.107     11395      6652      
2719.8     1212       6.66       283        172        1          250.11     12185      14         0          0          4.2535     -260       9047       9773.91    46.096     11393      6662      
2720       1220       7.2        283        131        0          250.16     12187      14         0          0          4.2901     -260       9050       9769.45    46.077     11388      6664      
2720.2     1225       7.71       331        153        0          250.094    12184      14         0          0          4.3123     -190       9054       9766.68    46.053     11382      6662      
2720.4     1227       7.72       339        190        0          250.183    12188      14         0          0          4.325      -300       9050       9763.81    46.047     11380      6665      
2720.6     1230       7.87       345        145        0          250.263    12191      13         0          0          4.3377     -253       9047       9760.97    46.045     11380      6659      
2720.8     1232       7.67       342        134        0          250.118    12185      14         0          0          4.3472     -280       9047       9758.16    46.045     11380      6643      
2721       1233       7.31       313        149        0          250.167    12187      14         0          0          4.352      -260       9046       9755.4     46.045     11380      6643      
2721.2     1234       7.97       336        107        0          250.192    12188      14         0          0          4.3552     -260       9046       9752.5     46.049     11381      6649      
2721.4     1234       8.61       376        98         0          250.21     12189      13         0          0          4.3583     -260       9047       9749.76    46.053     11382      6659      
2721.6     1235       8.39       385        274        0          250.221    12189      13         0          0          4.3615     -260       9049       9746.87    46.067     11385      6665      
2721.8     1235       7.5        343        123        0          250.223    12189      14         0          0          4.3615     -260       9056       9744.12    46.09      11391      6668      
2722       1236       7          310        124        0          250.265    12191      13         0          0          4.3663     -260       9060       9741.35    46.106     11395      6658      
2722.2     1237       7.34       291        106        0          250.251    12190      14         0          0          4.371      -260       9066       9738.6     46.117     11398      6654      
2722.4     1239       8.11       329        300        0          250.278    12191      13         0          0          4.379      -280       9073       9735.71    46.132     11402      6653      
