~Version
 VERS              .         2.0                           : CWLS LOG ASCII STANDARD - VERSION 2.0
 WRAP              .         NO                            : ONE LINE PER DEPTH STEP
 DLM               .         SPACE                         : DELIMITING CHARACTER(SPACE TAB OR COMMA)
~Well Information
#_______________________________________________________________________________
#
#PARAMETER_NAME    .UNIT     VALUE                         : DESCRIPTION
#_______________________________________________________________________________
STRT               .M        46                            : First reference value
STOP               .M        2756.6                        : Last reference value
STEP               .M        0.2                           : Step increment
NULL               .         -9999                         : Missing value
COMP               .                                       : Company
WELL               .         616                           : Well name
FLD                .                                       : Field
LOC                .                                       : Location
CNTY               .                                       : County
STAT               .                                       : State
CTRY               .                                       : Country
SRVC               .                                       : Service Company
DATE               .                                       : Date
API                .                                       : API number
PROJECT_UPGRADE_TIME .         2021-03-18T21_24_50           : 
group              .         Good                          : 
~Parameter Information Block
#_______________________________________________________________________________
#
#PARAMETER_NAME    .UNIT     VALUE                         : DESCRIPTION
#_______________________________________________________________________________
SET                .         D4390_D                       : 
OTHER              .         Запись производится в присутствии: 
OTHER_10           .         Максимальная температура      : 
OTHER_100          .         GK.FLT = 0.1*GR.UR/H[-1] + (1-0.1)*GR.UR/H[0]: 
OTHER_11           .         Тип промывочной жидкости      : 
OTHER_12           .         Сопротивление ПЖ (Ом*м) при 20°C: 
OTHER_13           .         Плотность ПЖ(г/см3)           : 
OTHER_14           .         Вязкость ПЖ(с)                : 
OTHER_15           .         Водоотдача ПЖ(см3/30мин)      : 
OTHER_16           .         Уровень ПЖ                    : 
OTHER_17           .         Нефть ПЖ (%)                  : 
OTHER_18           .         Барит ПЖ (%)                  : 
OTHER_19           .         Гематит ПЖ (%)                : 
OTHER_2            .         Заказчик ННСН  ЦДНГ-1         : 
OTHER_20           .         КМЦ ПЖ (%)                    : 
OTHER_21           .         Разгазирование ПЖ (да,нет)    : 
OTHER_22           .         Подъемник                     : 
OTHER_23           .         Лаборатория                   : 
OTHER_24           .         Тип кабеля                    : 
OTHER_25           .         Длина кабеля (м)              : 
OTHER_26           .         Цена последней метки          : 
OTHER_27           .         Цена контрольной метки        : 
OTHER_28           .         Диаметр долота (мм)           : 
OTHER_29           .         Глубина бурения (м)           : 
OTHER_3            .         Площадь                       : 
OTHER_30           .         Искусственный забой (м)       : 
OTHER_31           .         Диаметр колонны (мм)          : 
OTHER_32           .         Толщина колонны (мм)          : 
OTHER_33           .         Башмак колонны (м)            : 
OTHER_34           .         Диаметр НКТ (мм)              : 
OTHER_35           .         Толщина НКТ (мм)              : 
OTHER_36           .         Воронка НКТ (м)               : 
OTHER_37           .         Дата цементожа                : 
OTHER_38           .         Тип, количество(т) и плотность цемента: 
OTHER_39           .         Интервалы перфорации (м)      : 
OTHER_4            .         Категория                     : 
OTHER_40           .         Направление, диаметр (мм)     : 
OTHER_41           .         Направление, глубина (м)      : 
OTHER_42           .         Кондуктор, диаметр (мм)       : 
OTHER_43           .         Кондуктор, глубина (м)        : 
OTHER_44           .         Техническая колонна, диаметр (мм): 
OTHER_45           .         Техническая колонна, глубина (м): 
OTHER_46           .         Эксплуатационная колонна, диаметр (мм): 
OTHER_47           .         Эксплуатационная колонна, глубина (м): 
OTHER_48           .         Программа Кедр-02 версия 3.4  : 
OTHER_49           .         Операционная система Windows NT 5.1 build 2600 Service Pack 2: 
OTHER_5            .         Назначение исследований       : 
OTHER_50           .         Программное обеспечение станции MONITOR-386EX 25/12/99 15_08_10   BGF V54 20/09/05 15_32_17   3.3__BGF_9030071: 
OTHER_51           .         Kedr.exe версия 3.4.2.74      : 
OTHER_52           .         KedrData.dll версия 3.4.2.29  : 
OTHER_53           .         Мнемоники версия 3.18 S       : 
OTHER_54           .         Драйвер версия 2.1.1.4        : 
OTHER_55           .         LasInf.dll 4.3.0.35           : 
OTHER_56           .         Прибор_ КСА-Т4                : 
OTHER_57           .         Номер прибора_ 160            : 
OTHER_58           .         Режим_ КСА-Т4                 : 
OTHER_59           .         Форма_ С.А.Б.                 : 
OTHER_6            .         Альтитуда стола ротора        : 
OTHER_60           .         Тарировки_                    : 
OTHER_61           .         <_techsia_sc_> Дата тарировки температуры 25.05.2010: 
OTHER_62           .         Ручной ввод коэффициентов     : 
OTHER_63           .         TM.DEGC = 0.00402*RTM.E.ACP + -0.994: 
OTHER_64           .         <_techsia_sc_> Дата тарировки давления 25.05.2010: 
OTHER_65           .         Ручной ввод коэффициентов     : 
OTHER_66           .         MN.ATM = (2.27521e-006*TM.DEGC + 0.02078)*(RMN.E.ACP + 6.2*TM.DEGC + -1688): 
OTHER_67           .         <_techsia_sc_> Дата тарировки ГК 25.05.2010: 
OTHER_68           .         Ручной ввод коэффициентов     : 
OTHER_69           .         GR.UR/H = RGR.IMP/MIN / 45.5144: 
OTHER_7            .         Вид исследований 3  6         : 
OTHER_70           .         GK.FLT = 0.1*GR.UR/H[-1] + (1-0.1)*GR.UR/H[0]: 
OTHER_71           .         <_techsia_sc_> Дата тарировки температуры 25.05.2010: 
OTHER_72           .         Ручной ввод коэффициентов     : 
OTHER_73           .         TM.DEGC = 0.00402*RTM.E.ACP + -0.994: 
OTHER_74           .         <_techsia_sc_> Дата тарировки давления 25.05.2010: 
OTHER_75           .         Ручной ввод коэффициентов     : 
OTHER_76           .         MN.ATM = (2.27521e-006*TM.DEGC + 0.02078)*(RMN.E.ACP + 6.2*TM.DEGC + -1688): 
OTHER_77           .         <_techsia_sc_> Дата тарировки ГК 25.05.2010: 
OTHER_78           .         Ручной ввод коэффициентов     : 
OTHER_79           .         GR.UR/H = RGR.IMP/MIN / 45.5144: 
OTHER_8            .         Начало бурения интервала каротажа: 
OTHER_80           .         GK.FLT = 0.1*GR.UR/H[-1] + (1-0.1)*GR.UR/H[0]: 
OTHER_81           .         <_techsia_sc_> Дата тарировки температуры 25.05.2010: 
OTHER_82           .         Ручной ввод коэффициентов     : 
OTHER_83           .         TM.DEGC = 0.00402*RTM.E.ACP + -0.994: 
OTHER_84           .         <_techsia_sc_> Дата тарировки давления 25.05.2010: 
OTHER_85           .         Ручной ввод коэффициентов     : 
OTHER_86           .         MN.ATM = (2.27521e-006*TM.DEGC + 0.02078)*(RMN.E.ACP + 6.2*TM.DEGC + -1688): 
OTHER_87           .         <_techsia_sc_> Дата тарировки ГК 25.05.2010: 
OTHER_88           .         Ручной ввод коэффициентов     : 
OTHER_89           .         GR.UR/H = RGR.IMP/MIN / 45.5144: 
OTHER_9            .         Окончание бурения интервала каротажа: 
OTHER_90           .         GK.FLT = 0.1*GR.UR/H[-1] + (1-0.1)*GR.UR/H[0]: 
OTHER_91           .         <_techsia_sc_> Дата тарировки температуры 25.05.2010: 
OTHER_92           .         Ручной ввод коэффициентов     : 
OTHER_93           .         TM.DEGC = 0.00402*RTM.E.ACP + -0.994: 
OTHER_94           .         <_techsia_sc_> Дата тарировки давления 25.05.2010: 
OTHER_95           .         Ручной ввод коэффициентов     : 
OTHER_96           .         MN.ATM = (2.27521e-006*TM.DEGC + 0.02078)*(RMN.E.ACP + 6.2*TM.DEGC + -1688): 
OTHER_97           .         <_techsia_sc_> Дата тарировки ГК 25.05.2010: 
OTHER_98           .         Ручной ввод коэффициентов     : 
OTHER_99           .         GR.UR/H = RGR.IMP/MIN / 45.5144: 
PROJECT_UPGRADE_TIME .         2021-03-18T21_24_50           : 
TLFamily_CCLC      .                                       : 
TLFamily_DEPT      .         Measured Depth                : 
TLFamily_GK        .         Gamma Ray                     : 
TLFamily_GR        .         Gamma Ray                     : 
TLFamily_METKA     .                                       : 
TLFamily_MN        .                                       : 
TLFamily_RCOR      .                                       : 
TLFamily_RGR       .                                       : 
TLFamily_RMN       .                                       : 
TLFamily_RTEN      .                                       : 
TLFamily_RTM       .                                       : 
TLFamily_SPEE      .         Cable Speed                   : 
TLFamily_TIME      .         Time                          : 
TLFamily_TM        .         Temperature                   : 
group              .         prim                          : 
~Curve Information
#_______________________________________________________________________________
#
#LOGNAME           .UNIT     LOG_ID                        : DESCRIPTION
#_______________________________________________________________________________
DEPT               .M                                      : 1 Глубина, м -    0.0 см 
CCLC               .E.ACP                                  : 9 Локатор муфт,  -   20.0 см 
GK                 .FLT                                    : 14 Гамма-активность фильтрованная, мкр./ч -  110.0 см 
GR                 .UR/H                                   : 13 Гамма-активность, мкр./ч -  110.0 см 
METKA              .CU                                     : 3 Метки,  -    0.0 см 
MN                 .ATM                                    : 12 Давление, атм. -  160.0 см 
RCOR               .CM/KM                                  : 5 Коррекция по ролику, см/км -    0.0 см 
RGR                .IMP/MIN                                : 10 Гамма-активность, усл.ед. -  110.0 см 
RMN                .E.ACP                                  : 8 Давление, усл.ед. -  160.0 см 
RTEN               .T                                      : 6 Натяжение кабеля, т -    0.0 см 
RTM                .E.ACP                                  : 7 Температура, усл.ед. -  170.0 см 
SPEE               .M/H                                    : 2 Скорость, м/час -    0.0 см 
TIME               .S                                      : 4 Время, сек -    0.0 см 
TM                 .DEGC                                   : 11 Температура, °C -  170.0 см 
~Ascii
# ...
1491.6     1098       6.72       6.72       0          131.859    -814       306        7762       0.1        10045      1636       3167.47    39.387    
1491.8     945        6.79       6.79       0          131.847    -814       309        7761       0.1        10046      1637       3167.91    39.391    
1492       915        6.81       6.81       0          131.875    -814       310        7763       0.1        10047      1638       3168.36    39.395    
1492.2     837        6.81       6.81       0          131.902    -814       310        7764       0.1        10048      1638       3168.78    39.399    
1492.4     990        6.81       6.81       0          131.908    -814       310        7764       0.1        10049      1636       3169.23    39.403    
1492.6     1063       6.81       6.81       0          131.924    -814       310        7765       0.1        10050      1635       3169.68    39.406    
1492.8     951        6.54       6.54       0          131.938    -814       298        7766       0.1        10051      1635       3170.14    39.411    
1493       900        6.39       6.39       0          131.946    -814       291        7766       0.1        10052      1636       3170.56    39.416    
1493.2     1105       6.39       6.39       0          131.969    -814       291        7767       0.1        10053      1637       3171.01    39.421    
1493.4     1165       6.39       6.39       0          131.99     -814       291        7768       0.1        10055      1637       3171.43    39.426    
1493.6     1128       6.39       6.39       0          132        -814       291        7768       0.1        10056      1638       3171.88    39.431    
1493.8     1151       6.39       6.39       0          132.025    -814       291        7770       0.1        10057      1638       3172.31    39.435    
1494       1019       6.58       6.58       0          132.033    -814       299        7770       0.1        10058      1636       3172.74    39.439    
1494.2     1129       6.61       6.61       0          132.056    -814       301        7771       0.1        10058      1635       3173.22    39.441    
1494.4     1175       6.61       6.61       0          132.076    -814       301        7772       0.1        10060      1636       3173.67    39.446    
1494.6     1135       6.61       6.61       0          132.067    -814       301        7772       0.1        10061      1636       3174.09    39.451    
1494.8     1111       6.61       6.61       0          132.097    -814       301        7773       0.1        10062      1637       3174.53    39.455    
1495       958        6.61       6.61       0          132.119    -814       301        7774       0.1        10062      1637       3174.96    39.456    
1495.2     1066       6.57       6.57       0          132.12     -814       299        7774       0.1        10063      1636       3175.4     39.461    
1495.4     994        6.57       6.57       0          132.145    -814       299        7775       0.1        10065      1634       3175.87    39.466    
1495.6     592        6.57       6.57       0          132.162    -814       299        7776       0.1        10065      1634       3176.31    39.467    
1495.8     548        6.57       6.57       0          132.176    -814       299        7777       0.1        10066      1635       3176.77    39.471    
1496       558        6.57       6.57       0          132.202    -813       299        7778       0.1        10067      1633       3177.16    39.476    
1496.2     670        6.57       6.57       2          132.206    -812       299        7778       0.1        10068      1632       3177.58    39.479    
1496.4     580        6.48       6.48       0          132.214    -812       295        7778       0.1        10069      1631       3178.06    39.482    
1496.6     505        6.48       6.48       0          132.249    -812       295        7780       0.1        10070      1629       3178.49    39.486    
1496.8     518        6.48       6.48       0          132.26     -812       295        7781       0.1        10071      1631       3178.91    39.491    
1497       653        6.48       6.48       0          132.271    -812       295        7781       0.1        10072      1631       3179.36    39.496    
1497.2     831        6.48       6.48       0          132.313    -812       295        7783       0.1        10073      1629       3179.8     39.501    
1497.4     812        6.5        6.5        0          132.319    -812       296        7783       0.1        10075      1629       3180.23    39.506    
1497.6     768        6.81       6.81       0          132.342    -812       310        7784       0.1        10075      1631       3180.69    39.507    
1497.8     4136       6.81       6.81       0          132.347    -812       310        7785       0.1        10076      1630       3181.14    39.511    
1498       2724       6.81       6.81       0          132.367    -812       310        7785       0.1        10077      1629       3181.56    39.516    
1498.2     1859       6.81       6.81       0          132.359    -812       310        7785       0.1        10078      1631       3182.01    39.52     
1498.4     1285       6.79       6.79       0          132.381    -812       309        7786       0.1        10079      1632       3182.46    39.524    
1498.6     658        6.59       6.59       0          132.401    -812       300        7787       0.1        10081      1633       3182.88    39.53     
1498.8     720        6.59       6.59       0          132.412    -812       300        7788       0.1        10082      1634       3183.33    39.535    
1499       667        6.59       6.59       0          132.437    -812       300        7789       0.1        10083      1635       3183.79    39.54     
1499.2     601        6.59       6.59       0          132.463    -812       300        7790       0.1        10084      1634       3184.24    39.545    
1499.4     630        6.59       6.59       0          132.467    -812       300        7790       0.1        10086      1632       3184.66    39.552    
1499.6     529        6.62       6.62       0          132.478    -812       301        7791       0.1        10088      1632       3185.11    39.558    
1499.8     647        6.68       6.68       0          132.51     -812       304        7792       0.1        10089      1633       3185.56    39.563    
1500       596        6.68       6.68       0          132.525    -812       304        7793       0.1        10090      1634       3186.01    39.568    
1500.2     571        6.68       6.68       0          132.55     -812       304        7794       0.1        10091      1634       3186.46    39.573    
1500.4     645        6.68       6.68       0          132.553    -812       304        7794       0.1        10092      1633       3186.89    39.576    
1500.6     641        6.68       6.68       0          132.561    -812       304        7794       0.1        10093      1633       3187.34    39.579    
1500.8     692        6.83       6.83       0          132.587    -812       311        7796       0.1        10094      1634       3187.78    39.584    
1501       691        6.99       6.99       0          132.611    -812       318        7797       0.1        10095      1632       3188.2     39.588    
1501.2     555        6.99       6.99       0          132.618    -812       318        7797       0.1        10096      1630       3188.64    39.592    
1501.4     649        6.99       6.99       0          132.624    -812       318        7797       0.1        10097      1630       3189.12    39.594    
1501.6     507        6.99       6.99       0          132.661    -812       318        7799       0.1        10098      1631       3189.56    39.599    
1501.8     479        6.99       6.99       0          132.65     -812       318        7798       0.1        10099      1632       3189.97    39.604    
