~Version
 VERS              .         2.0                           : CWLS LOG ASCII STANDARD - VERSION 2.0
 WRAP              .         NO                            : ONE LINE PER DEPTH STEP
 DLM               .         SPACE                         : DELIMITING CHARACTER(SPACE TAB OR COMMA)
~Well Information
#_______________________________________________________________________________
#
#PARAMETER_NAME    .UNIT     VALUE                         : DESCRIPTION
#_______________________________________________________________________________
STRT               .M        139                           : First reference value
STOP               .M        251.8                         : Last reference value
STEP               .M        0.2                           : Step increment
NULL               .         -9999                         : Missing value
COMP               .                                       : Company
WELL               .         616                           : Well name
FLD                .                                       : Field
LOC                .                                       : Location
CNTY               .                                       : County
STAT               .                                       : State
CTRY               .                                       : Country
SRVC               .                                       : Service Company
DATE               .                                       : Date
API                .                                       : API number
PROJECT_UPGRADE_TIME .         2021-03-18T21_24_50           : 
group              .         Good                          : 
~Parameter Information Block
#_______________________________________________________________________________
#
#PARAMETER_NAME    .UNIT     VALUE                         : DESCRIPTION
#_______________________________________________________________________________
SET                .         616_1                         : 
CONF               .         00                            : 
END                .         0                             : 
ERR                .         0                             : 
GS00               .M        0249.70                       : 
GS01               .M        0136.66                       : 
MM00               .M        0050.00                       : 
NOKG               .         0                             : 
NPR                .         980119                        : 
PART               .         Палагутин                     : 
PROJECT_UPGRADE_TIME .         2021-03-18T21_24_49           : 
PRZK               .         Шакиров                       : 
TLFamily_AZIMUTH   .         True Dip Azimuth              : 
TLFamily_DEPTH     .         Measured Depth                : 
TLFamily_METKA     .                                       : 
TLFamily_ROLL      .                                       : 
TLFamily_SPEED     .         Spontaneous Potential         : 
TLFamily_ZENIT     .                                       : 
VPRG               .         310                           : 
WAY                .         UP                            : 
group              .         prim                          : 
~Curve Information
#_______________________________________________________________________________
#
#LOGNAME           .UNIT     LOG_ID                        : DESCRIPTION
#_______________________________________________________________________________
DEPTH              .M                                      :  
AZIMUTH            .DEG                                    :  
METKA              .                                       :  
ROLL               .DEG                                    :  
SPEED              .M/H                                    :  
ZENIT              .DEG                                    :  
~Ascii
# ...
236.6      254.95     0          312.69     468        23.99     
236.8      253.78     0          312.44     504        23.98     
237        253.26     0          314.16     540        24.08     
237.2      256.24     0          314.72     468        24.16     
237.4      254.14     0          314.58     504        23.97     
237.6      254.92     0          313.44     504        24.04     
237.8      254.96     0          312.64     504        24.18     
238        255.45     0          311.93     504        24.2      
238.2      255.68     0          311.38     504        24.12     
238.4      255.26     0          311.94     540        24.24     
238.6      254.45     0          313.23     468        24.08     
238.8      256.06     0          314.12     504        24.48     
239        256.23     0          314.75     504        24.36     
239.2      256.34     0          315.02     504        24.25     
239.4      256.27     0          313.31     432        24.31     
239.6      256.2      0          311.36     504        24.36     
239.8      257.34     0          310.34     468        24.42     
240        257.52     0          309.37     540        24.56     
240.2      257.49     0          307.95     468        24.45     
240.4      258.43     0          308.42     504        24.62     
240.6      258.93     0          308.67     468        24.58     
240.8      257.75     0          309.1      504        24.57     
241        258.77     0          309.03     504        24.79     
241.2      260.62     0          309.84     504        24.73     
241.4      258.65     0          310.64     504        24.44     
241.6      261.83     0          310.39     468        24.81     
241.8      263.84     0          309.44     504        24.78     
242        265.11     0          308.84     504        24.76     
242.2      268.16     1          308.22     504        25.05     
242.4      268.36     0          308.24     1188       24.76     
242.6      270.72     0          307.8      504        24.77     
242.8      275.9      0          305.81     468        24.69     
243        285.92     0          305.22     468        25.12     
243.2      298.23     0          303.75     504        25.17     
243.4      315.66     0          301.2      504        25.34     
243.6      333.19     0          299.15     504        25.18     
243.8      341.12     2          298.6      144        24.82     
244        328.57     0          296.5      468        25.36     
244.2      186.96     0          295.49     540        25.5      
244.4      179.66     0          296.5      468        25.69     
244.6      287.88     0          296.82     504        26.11     
244.8      344.77     0          298.8      504        25.89     
245        160.99     0          300.55     504        26.23     
245.2      101.58     0          302.42     468        26.44     
245.4      40.45      0          307.55     468        26.27     
245.6      344.21     0          312.47     504        26.18     
245.8      354.08     0          317.41     504        25.87     
246        6.15       0          319.65     504        25.76     
246.2      341.54     0          322.35     504        25.83     
246.4      3.71       0          324.71     468        25.81     
246.6      357.48     0          326.48     504        25.76     
246.8      353.06     0          329.61     468        25.89     
247        327.73     0          333.23     504        25.99     
247.2      321.38     0          337.33     504        25.74     
247.4      323.55     0          337.66     504        25.8      
247.6      339.26     0          337.17     504        25.84     
247.8      327.35     0          338.63     468        25.86     
248        337.52     0          341.46     540        25.78     
248.2      326.68     0          344.5      504        25.86     
248.4      315.23     0          345.29     468        25.71     
248.6      343.47     0          347.78     468        25.78     
248.8      335.37     0          349.52     540        25.89     
249        330.63     0          346.44     504        25.59     
249.2      356.07     0          340.52     504        25.73     
249.4      0.91       2          342.86     36         25.95     
249.6      20.96      0          333.53     468        25.52     
249.8      356.08     0          322.49     504        25.51     
250        347.14     0          309.53     504        25.43     
250.2      357.81     0          292.16     504        25.56     
250.4      9.53       0          271.87     468        25.84     
250.6      10.6       0          253.47     504        26.16     
250.8      318.81     0          230.26     468        26.45     
251        350.52     0          192.12     504        25.87     
251.2      24.79      0          156.43     504        25.06     
251.4      333.52     0          109.58     504        25.85     
251.6      355.98     0          42.97      504        26.39     
251.8      34.32      0          329.64     504        25.02     
