~Version
 VERS              .         2.0                           : CWLS LOG ASCII STANDARD - VERSION 2.0
 WRAP              .         NO                            : ONE LINE PER DEPTH STEP
 DLM               .         SPACE                         : DELIMITING CHARACTER(SPACE TAB OR COMMA)
~Well Information
#_______________________________________________________________________________
#
#PARAMETER_NAME    .UNIT     VALUE                         : DESCRIPTION
#_______________________________________________________________________________
STRT               .M        8.21                          : First reference value
STOP               .M        2780.41                       : Last reference value
STEP               .M        0.2                           : Step increment
NULL               .         -9999                         : Missing value
COMP               .                                       : Company
WELL               .         616                           : Well name
FLD                .                                       : Field
LOC                .                                       : Location
CNTY               .                                       : County
STAT               .                                       : State
CTRY               .                                       : Country
SRVC               .                                       : Service Company
DATE               .                                       : Date
API                .                                       : API number
PROJECT_UPGRADE_TIME .         2021-03-18T21_24_50           : 
group              .         Good                          : 
~Parameter Information Block
#_______________________________________________________________________________
#
#PARAMETER_NAME    .UNIT     VALUE                         : DESCRIPTION
#_______________________________________________________________________________
SET                .         ULN_2                         : 
PROJECT_UPGRADE_TIME .         2021-03-18T21_24_50           : 
TLFamily_AK4       .                                       : 
TLFamily_ALFAK     .                                       : 
TLFamily_AMPL      .                                       : 
TLFamily_DEPTH     .         Measured Depth                : 
TLFamily_DK1       .                                       : 
TLFamily_DK2       .                                       : 
TLFamily_DTK       .         Compressional Slowness        : 
TLFamily_QCBL      .                                       : 
TLFamily_T1        .         Travel Time 1                 : 
TLFamily_T2        .         Travel Time 2                 : 
group              .         prim                          : 
~Curve Information
#_______________________________________________________________________________
#
#LOGNAME           .UNIT     LOG_ID                        : DESCRIPTION
#_______________________________________________________________________________
DEPTH              .M                                      : 0 Depth curve 
AK4                .                                       : 2 Амплитуда - Волна по колонне - Канал1 
ALFAK              .дБ/м                                   : 1 Затухание - Волна по колонне 
AMPL               .                                       : 8 Коэффициент усиления ВС 
DK1                .дБ                                     : 3 Кривая ослабления - Волна по колонне - Канал1 
DK2                .дБ                                     : 4 Кривая ослабления - Волна по колонне - Канал2 
DTK                .мкс/м                                  : 5 ДельтаТ - Волна по породе 
QCBL               .                                       : 9 Контакт цемент-колонна 
T1                 .мкс                                    : 6 Время пробега - Волна по породе - Канал1 
T2                 .мкс                                    : 7 Время пробега - Волна по породе - Канал2 
~Ascii
# ...
928.01     1188.133   33.461     1          26.55      43.489     191.535    2          343.366    444.578   
928.21     1213.543   35.399     1          26.366     44.065     213.761    2          342.85     454.903   
928.41     1272.422   37.894     1          25.954     44.901     233.31     2          343.376    460.032   
928.61     1269.845   35.241     1          25.972     43.592     232.154    2          343.413    459.49    
928.81     1253.956   35.206     1          26.085     43.688     230.85     2          343.926    459.351   
929.01     1219.214   32.231     1          26.323     42.438     228.674    2          343.771    458.108   
929.21     1157.94    32.435     1          26.787     43.005     228.629    2          343.551    457.865   
929.41     1158.204   31.704     1          26.786     42.638     228.55     2          343.057    457.331   
929.61     1156.902   34.817     1          26.793     44.202     231.622    2          342.529    458.34    
929.81     1182.923   36.666     1          26.587     44.92      232.759    2          342.061    458.441   
930.01     1195.769   37.307     1          26.494     45.148     232.362    2          342.168    458.349   
930.21     1194.886   35.115     1          26.5       44.058     228.573    2          342.855    457.136   
930.41     1236.111   35.074     1          26.201     43.738     227.22     2          343.324    456.821   
930.61     1292.067   35.633     1          25.83      43.647     227.687    2          343.291    456.752   
930.81     1349.838   36.846     1          25.446     43.869     228.758    2          343.345    451.908   
931.01     1414.261   37.135     1          25.032     43.599     219.618    2          343.435    441.654   
931.21     1433.171   36.26      1          24.917     43.047     213.99     2          343.483    431.809   
931.41     1428.477   36.151     1          24.946     43.022     201.836    2          343.383    427.005   
931.61     1415.411   34.033     1          25.025     42.041     190.992    2          342.887    426.967   
931.81     1399.212   35.18      1          25.124     42.714     176.174    2          342.772    426.781   
932.01     1373.273   34.12      1          25.292     42.352     178.451    2          342.751    431.694   
932.21     1379.027   35.065     1          25.257     42.79      183.785    2          343.265    434.453   
932.41     1408.926   33.616     1          25.078     41.886     196.027    2          343.201    440.887   
932.61     1468.724   33.814     1          24.704     41.611     206.422    2          343.148    446.302   
932.81     1459.314   32.477     1          24.762     41         220.095    2          342.559    453.25    
933.01     1464.247   30.827     1          24.736     40.149     205.734    2          342.65     451.088   
933.21     1579.283   30.838     1          24.13      39.549     185.235    2          342.083    440.271   
933.41     1687.365   31.092     1          23.528     39.074     165.055    2          341.94     429.759   
933.61     1800.335   31.127     1          22.943     38.589     166.004    2          341.96     424.962   
933.81     1986.403   28.935     1          22.171     38.292     165.158    2          341.917    424.496   
934.01     2239.404   31.079     1          21.117     38.309     164.544    2          341.988    424.26    
934.21     2413.26    32.53      1          20.391     38.226     163.547    2          341.872    423.646   
934.41     2383.858   34.252     1          20.5       37.626     163.264    2          341.974    423.606   
934.61     2349.335   32.827     1          20.623     37.036     163.271    2          341.981    423.616   
934.81     2335.247   32.387     1          20.677     36.871     163.74     2          341.946    423.828   
935.01     2487.336   32.68      1          20.154     36.494     163.945    2          341.967    424.183   
935.21     2749.406   31.749     1          19.329     35.203     164.323    2          342.581    424.986   
935.41     2979.958   32.023     1          18.573     34.585     163.611    2          342.671    424.708   
935.61     2990.692   31.505     1          18.541     34.293     163.107    2          342.763    424.317   
935.81     2685.114   30.875     1          19.531     34.969     162.422    2          342.748    423.959   
936.01     2317.314   29.311     1          20.849     35.505     161.539    2          343.367    424.136   
936.21     1975.869   28.368     1          22.173     36.357     162.246    2          343.773    424.896   
936.41     1822.653   29.203     1          22.833     37.434     163.531    2          343.724    425.489   
936.61     1738.193   30.558     1          23.182     38.402     168.21     2          343.103    427.208   
936.81     1537.301   33.762     1          23.062     38.671     189.238    2          343.268    437.887   
937.01     1597.773   37.342     1          22.783     38.63      211.053    2          345.52     451.047   
937.21     1659.009   37.805     1          22.541     38.679     229.048    2          348.119    462.643   
937.41     1849.168   38.691     1          22.715     40.596     227.648    2          350.054    463.878   
937.61     1702.345   35.337     1          23.35      42.795     224.561    2          350.023    462.058   
937.81     1292.131   36.067     1          23.768     44.522     215.251    2          348.713    451.416   
938.01     1252.122   35.601     1          23.976     44.411     201.16     2          346.169    441.782   
938.21     1290.976   36.081     1          23.86      42.844     196.977    2          344.615    437.526   
938.41     1588.494   31.467     1          24.028     39.762     193.702    2          343.795    439.631   
938.61     1585.578   27.088     1          24.045     37.588     190.772    2          344.184    438.598   
938.81     1619.854   27.65      1          23.869     37.694     178.239    2          343.118    432.122   
939.01     1734.417   33.234     1          23.274     39.891     170.805    2          343.086    428.489   
939.21     1852.266   36.78      1          22.696     41.086     169.116    2          342.678    427.236   
939.41     1907.641   36.344     1          22.433     40.606     166.711    2          342.573    425.928   
939.61     1949.563   34.323     1          22.243     39.404     166.411    2          342.238    425.444   
939.81     1919.992   32.512     1          22.377     38.633     166.575    2          342.256    425.526   
940.01     1882.71    31.883     1          22.551     38.493     167.847    2          342.919    426.492   
940.21     1847.304   31.811     1          22.712     38.617     168.015    2          343.291    426.948   
940.41     1803.526   33.136     1          22.923     39.491     166.454    2          343.93     426.824   
940.61     1757.93    33.543     1          23.151     39.922     165.476    2          343.874    426.612   
940.81     1658.895   33.749     1          23.653     40.528     164.449    2          344.024    426.249   
941.01     1679.085   33.418     1          23.554     40.263     166.166    2          343.804    426.887   
941.21     1782.098   35.093     1          23.062     40.609     168.272    2          343.243    427.379   
941.41     1936.866   36.556     1          22.312     40.59      169.244    2          343.184    427.806   
941.61     2024.773   36.84      1          21.915     40.335     170.001    2          342.649    427.649   
941.81     2106.68    34.569     1          21.576     38.861     167.856    2          342.533    426.461   
942.01     2201.275   33.541     1          21.198     37.969     167.932    2          341.807    425.773   
942.21     2281.988   32.781     1          20.877     37.267     165.269    2          341.954    424.589   
942.41     2386.425   31.838     1          20.495     36.414     165.837    2          342.1      425.018   
