~Version
 VERS              .         2.0                           : CWLS LOG ASCII STANDARD - VERSION 2.0
 WRAP              .         NO                            : ONE LINE PER DEPTH STEP
 DLM               .         SPACE                         : DELIMITING CHARACTER(SPACE TAB OR COMMA)
~Well Information
#_______________________________________________________________________________
#
#PARAMETER_NAME    .UNIT     VALUE                         : DESCRIPTION
#_______________________________________________________________________________
STRT               .M        8.21                          : First reference value
STOP               .M        2780.41                       : Last reference value
STEP               .M        0.2                           : Step increment
NULL               .         -9999                         : Missing value
COMP               .                                       : Company
WELL               .         616                           : Well name
FLD                .                                       : Field
LOC                .                                       : Location
CNTY               .                                       : County
STAT               .                                       : State
CTRY               .                                       : Country
SRVC               .                                       : Service Company
DATE               .                                       : Date
API                .                                       : API number
PROJECT_UPGRADE_TIME .         2021-03-18T21_24_50           : 
group              .         Good                          : 
~Parameter Information Block
#_______________________________________________________________________________
#
#PARAMETER_NAME    .UNIT     VALUE                         : DESCRIPTION
#_______________________________________________________________________________
SET                .         ULN_2                         : 
PROJECT_UPGRADE_TIME .         2021-03-18T21_24_50           : 
TLFamily_AK4       .                                       : 
TLFamily_ALFAK     .                                       : 
TLFamily_AMPL      .                                       : 
TLFamily_DEPTH     .         Measured Depth                : 
TLFamily_DK1       .                                       : 
TLFamily_DK2       .                                       : 
TLFamily_DTK       .         Compressional Slowness        : 
TLFamily_QCBL      .                                       : 
TLFamily_T1        .         Travel Time 1                 : 
TLFamily_T2        .         Travel Time 2                 : 
group              .         prim                          : 
~Curve Information
#_______________________________________________________________________________
#
#LOGNAME           .UNIT     LOG_ID                        : DESCRIPTION
#_______________________________________________________________________________
DEPTH              .M                                      : 0 Depth curve 
AK4                .                                       : 2 Амплитуда - Волна по колонне - Канал1 
ALFAK              .дБ/м                                   : 1 Затухание - Волна по колонне 
AMPL               .                                       : 8 Коэффициент усиления ВС 
DK1                .дБ                                     : 3 Кривая ослабления - Волна по колонне - Канал1 
DK2                .дБ                                     : 4 Кривая ослабления - Волна по колонне - Канал2 
DTK                .мкс/м                                  : 5 ДельтаТ - Волна по породе 
QCBL               .                                       : 9 Контакт цемент-колонна 
T1                 .мкс                                    : 6 Время пробега - Волна по породе - Канал1 
T2                 .мкс                                    : 7 Время пробега - Волна по породе - Канал2 
~Ascii
# ...
1482.81    1581.722   25.17      1          24.065     36.65      166.92     2          344.905    428.366   
1483.01    1532.727   27.228     1          24.332     37.946     167.93     2          344.99     428.955   
1483.21    1527.055   29.841     1          24.364     39.284     168.13     2          345.029    429.094   
1483.41    1520.524   31.063     1          24.401     39.933     169.448    2          344.944    429.669   
1483.61    1486.276   31.26      1          24.605     40.235     169.919    2          344.788    429.748   
1483.81    1475.487   31.848     1          24.667     40.591     169.457    2          345.127    429.857   
1484.01    1436.95    31.35      1          24.897     40.572     168.809    2          345.074    429.479   
1484.21    1443.487   31.402     1          24.857     40.558     167.958    2          345.053    429.033   
1484.41    1411.94    30.061     1          25.045     40.076     167.877    2          344.535    428.474   
1484.61    1403.948   30.058     1          25.096     40.125     169.752    2          344.13     429.007   
1484.81    1363.895   29.818     1          25.349     40.259     169.49     2          344.185    428.931   
1485.01    1377.328   30.279     1          25.268     40.407     170.262    2          344.216    429.347   
1485.21    1420.787   30.204     1          25.004     40.106     170.453    2          344.096    429.324   
1485.41    1472.911   30.072     1          24.678     39.714     170.11     2          344.223    429.278   
1485.61    1477.779   29.674     1          24.65      39.487     169.067    2          344.295    428.829   
1485.81    1532.802   29.457     1          24.348     39.077     167.994    2          344.789    428.787   
1486.01    1637.083   30.335     1          23.791     38.959     169.076    2          344.803    429.342   
1486.21    1674.981   29.984     1          23.574     38.566     168.037    2          345.325    429.344   
1486.41    1606.491   28.314     1          23.955     38.111     168.587    2          344.976    429.27    
1486.61    1511.673   26.807     1          24.457     37.86      166.536    2          345.514    428.783   
1486.81    1525.037   26.689     1          24.384     37.728     167.473    2          345.464    429.2     
1487.01    1574.733   27.902     1          24.104     38.055     167.818    2          345.322    429.232   
1487.21    1711.557   28.1       1          23.404     37.453     169.927    2          344.661    429.625   
1487.41    1803.379   28.023     1          22.948     36.96      168.704    2          344.114    428.467   
1487.61    1972.408   28.533     1          22.161     36.428     166.389    2          344.081    427.276   
1487.81    2320.523   29.234     1          20.905     35.522     165.435    2          343.991    426.709   
1488.01    2997.322   29.167     1          18.795     33.378     165.565    2          343.991    426.774   
1488.21    3812.675   26.417     1          16.562     29.771     166.496    2          344.061    427.31    
1488.41    4517.818   23.541     1          14.992     26.763     166.604    2          344.053    427.356   
1488.61    4884.614   22.257     1          14.275     25.404     167.429    2          344.111    427.826   
1488.81    4872.269   22.338     1          14.298     25.536     166.905    2          344.641    427.987   
1489.01    4705.141   21.329     1          14.618     26.667     166.513    2          346.868    428.085   
1489.21    4129.239   20.027     1          16.066     27.741     164.972    2          348.551    430.947   
1489.41    3316.791   18.707     1          18.306     29.253     168.309    2          349.417    433.59    
1489.61    2508.761   21.214     1          20.477     31.362     167.559    2          349.77     435.5     
1489.81    2104.37    23.159     1          21.592     33.164     168.307    2          350.559    434.713   
1490.01    2348.272   28.172     1          20.826     34.779     163.306    2          351.791    433.444   
1490.21    2799.786   32.415     1          19.409     35.484     162.408    2          351.729    432.934   
1490.41    3150.099   35.238     1          18.215     35.708     167.368    2          349.144    432.829   
1490.61    3420.712   33.684     1          17.381     34.223     173.327    2          346.469    433.133   
1490.81    3256.667   29.228     1          17.819     32.432     172.983    2          344.016    430.508   
1491.01    3205.964   25.204     1          17.966     30.568     167.185    2          344.483    428.077   
1491.21    2747.901   22.164     1          19.34      30.422     164.413    2          343.989    426.197   
1491.41    2493.293   19.881     1          20.19      30.13      165.61     2          344.512    427.317   
1491.61    2175.14    19.138     1          21.304     30.873     167.83     2          344.007    427.923   
1491.81    1994.907   20.223     1          22.097     32.209     165.896    2          344.495    427.443   
1492.01    1781.284   21.622     1          23.071     33.882     167.001    2          344.081    427.582   
1492.21    1662.942   23.53      1          23.627     35.393     166.349    2          344.232    427.407   
1492.41    1684.787   26.313     1          23.519     36.675     167.344    2          344.298    427.97    
1492.61    1768.655   27.595     1          23.096     36.894     167.736    2          344.088    427.957   
1492.81    1834.435   27.669     1          22.773     36.607     168.247    2          343.937    428.061   
1493.01    1905.392   26.46      1          22.446     35.676     168.773    2          343.752    428.139   
1493.21    1938.179   26.829     1          22.297     35.711     167.378    2          343.8      427.489   
1493.41    1926.363   28.103     1          22.353     36.404     166.422    2          343.741    426.953   
1493.61    1793.047   28.027     1          23.002     37.016     164.979    2          344.375    426.864   
1493.81    1611.03    26.611     1          23.952     37.257     164.942    2          344.939    427.411   
1494.01    1485.936   24.895     1          24.614     37.062     166.791    2          345.042    428.438   
1494.21    1436.456   24.812     1          24.896     37.303     166.885    2          344.599    428.042   
1494.41    1482.157   27.245     1          24.628     38.251     169.175    2          344.066    428.654   
1494.61    1449.161   28.34      1          24.832     39.002     169.084    2          344.093    428.635   
1494.81    1442.502   28.668     1          24.873     39.206     169.736    2          344.121    428.989   
1495.01    1452.025   27.627     1          24.818     38.632     168.734    2          344.166    428.534   
1495.21    1507.162   26.489     1          24.485     37.73      167.962    2          344.165    428.146   
1495.41    1551.749   25.387     1          24.226     36.919     168.3      2          344.153    428.304   
1495.61    1587.24    25.469     1          24.036     36.77      169.35     2          343.604    428.279   
1495.81    1653.353   26.087     1          23.681     36.725     170.482    2          343.044    428.286   
1496.01    1699.439   27.358     1          23.435     37.114     171.829    2          342.382    428.296   
1496.21    1703.348   27.142     1          23.415     36.986     170.647    2          342.952    428.275   
1496.41    1700.543   27.355     1          23.431     37.108     168.327    2          343.533    427.697   
1496.61    1627.033   26.747     1          23.834     37.208     166.79     2          344.144    427.54    
1496.81    1514.783   26.489     1          24.478     37.722     165.602    2          344.709    427.511   
1497.01    1427.601   26.254     1          24.956     38.083     166.61     2          345.256    428.561   
1497.21    1401.189   26.813     1          25.115     38.522     166.788    2          345.774    429.168   
