~Version
 VERS              .         2.0                           : CWLS LOG ASCII STANDARD - VERSION 2.0
 WRAP              .         NO                            : ONE LINE PER DEPTH STEP
 DLM               .         SPACE                         : DELIMITING CHARACTER(SPACE TAB OR COMMA)
~Well Information
#_______________________________________________________________________________
#
#PARAMETER_NAME    .UNIT     VALUE                         : DESCRIPTION
#_______________________________________________________________________________
STRT               .M        2668.6                        : First reference value
STOP               .M        2774.399788                   : Last reference value
STEP               .M        0.1999996                     : Step increment
NULL               .         -9999                         : Missing value
COMP               .                                       : Company
WELL               .         616                           : Well name
FLD                .                                       : Field
LOC                .                                       : Location
CNTY               .                                       : County
STAT               .                                       : State
CTRY               .                                       : Country
SRVC               .                                       : Service Company
DATE               .                                       : Date
API                .                                       : API number
PROJECT_UPGRADE_TIME .         2021-03-18T21_24_50           : 
group              .         Good                          : 
~Parameter Information Block
#_______________________________________________________________________________
#
#PARAMETER_NAME    .UNIT     VALUE                         : DESCRIPTION
#_______________________________________________________________________________
SET                .         D1803_D_2                     : 
NPR                .                                       : 
OTHER              .         Программное обеспечение станции MONITOR-386EX 25/12/99 15_08_10   BGF V52 22/08/01 16_56_30   3.1_SNGF___BGF_N_092049: 
OTHER_10           .         Тарировки_                    : 
OTHER_11           .         TM.GRD = 0.00403*TM$.UE + -1.07: 
OTHER_12           .         MN.ATM = (9.34907e-006*TM.GRD + 0.02171)*(MN$.UE + -7.93*TM.GRD + -1787): 
OTHER_13           .         GK.MKR/H = LM. / 42.4676      : 
OTHER_14           .         GK.FLT = 0.1*GK.MKR/H[-1] + (1-0.1)*GK.MKR/H[0]: 
OTHER_2            .         Kedr.exe версия 3.4.2.51      : 
OTHER_3            .         KedrData.dll версия 3.4.2.24  : 
OTHER_4            .         Драйвер версия 2.1.1.3        : 
OTHER_5            .         Мнемоники версия 3.3 S        : 
OTHER_6            .         Прибор_ КСА-Т4                : 
OTHER_7            .         Номер прибора_ 03             : 
OTHER_8            .         Режим_ КСА-Т4                 : 
OTHER_9            .         Форма_ КВА.                   : 
PR                 .                                       : 
PROJECT_UPGRADE_TIME .         2021-03-18T21_24_49           : 
PRTY               .         ПП-603-1                      : N партии
SRV                .                                       : 
SRVC               .         Карпов                        : Начальник партии
TLFamily_DEPT      .         Measured Depth                : 
TLFamily_LM        .         Casing Collar locator         : 
TLFamily_MN        .                                       : 
TLFamily_TM        .         Temperature                   : 
group              .         second                        : 
~Curve Information
#_______________________________________________________________________________
#
#LOGNAME           .UNIT     LOG_ID                        : DESCRIPTION
#_______________________________________________________________________________
DEPT               .M                                      : Depth curve 
LM                 .е.ацп                                  : Локатор муфт,е.ацп 
MN                 .атм                                    : Манометрия, атм 
TM                 .град.C                                 : Термограмма по стволу скважины,град.C 
~Ascii
# ...
2704.399928 482.986    339.921    49.979    
2704.599928 454.021    339.652    49.988    
2704.799928 497.046    341.359    50.001    
2704.999927 590.041    340.671    50.006    
2705.199927 673.959    340.992    50.018    
2705.399926 591.019    340.861    50.026    
2705.599926 629.993    340.863    50.026    
2705.799926 614.991    340.779    50.035    
2705.999925 596.183    340.525    50.045    
2706.199925 968.962    342.055    50.053    
2706.399924 891.89     341.851    50.067    
2706.599924 668.915    343.762    50.08     
2706.799924 495.023    342.1      50.089    
2706.999923 542.003    342.877    50.102    
2707.199923 548.988    343.69     50.111    
2707.399922 523.995    343.205    50.121    
2707.599922 513.024    343.785    50.131    
2707.799922 561.984    345.342    50.139    
2707.999921 529.989    345.129    50.147    
2708.199921 506.992    344.575    50.155    
2708.39992 490.014    343.251    50.166    
2708.59992 517.944    343.813    50.171    
2708.79992 402.968    343.424    50.18     
2708.999919 337.969    343.541    50.184    
2709.199919 274.967    343.533    50.188    
2709.399918 207.056    343.181    50.192    
2709.599918 320.971    342.335    50.196    
2709.799918 262.008    345.32     50.2      
2709.999917 279.006    343.529    50.204    
2710.199917 291.971    335.308    50.216    
2710.399916 232.989    337.469    50.204    
2710.599916 211.005    339.529    50.2      
2710.799916 221.031    333.489    50.208    
2710.999915 285.146    335.94     50.208    
2711.199915 581.898    334.584    50.204    
2711.399914 373.921    335.873    50.204    
2711.599914 214.201    332.713    50.208    
2711.799914 622.968    334.183    50.209    
2711.999913 557.827    332.92     50.204    
2712.199913 205.994    334.724    50.202    
2712.399912 194.026    332.119    50.202    
2712.599912 246.028    333.243    50.204    
2712.799912 301.977    332.247    50.208    
2712.999911 256.004    332.776    50.209    
2713.199911 265.06     331.404    50.212    
2713.39991 2420.288   332.458    50.212    
2713.59991 971.661    329.896    50.215    
2713.79991 282.971    331.737    50.21     
2713.999909 223.999    331.204    50.211    
2714.199909 222        331.963    50.212    
2714.399908 220.987    329.452    50.216    
2714.599908 194.012    331.29     50.216    
2714.799908 218.981    330.313    50.216    
2714.999907 181.027    331.289    50.212    
2715.199907 235.005    329.828    50.213    
2715.399906 244.983    330.934    50.212    
2715.599906 210.999    329.454    50.208    
2715.799906 209.001    330.44     50.208    
2715.999905 211        330.136    50.208    
2716.199905 211.026    330.794    50.205    
2716.399904 263.991    329.335    50.204    
2716.599904 245        330.381    50.208    
2716.799904 245.986    329.5      50.212    
2716.999903 218.011    329.893    50.212    
2717.199903 239.985    329.55     50.212    
2717.399902 210.02     330.313    50.216    
2717.599902 250.994    329.345    50.216    
2717.799902 237.999    329.62     50.208    
2717.999901 234.995    329.56     50.208    
2718.199901 224.997    329.469    50.201    
2718.3999  218.992    329.052    50.203    
2718.5999  203.025    329.56     50.208    
2718.7999  252.992    328.475    50.204    
2718.999899 235.998    329.16     50.2      
2719.199899 230.997    329.036    50.204    
2719.399898 225.015    328.736    50.204    
2719.599898 254.996    328.692    50.2      
2719.799898 246.997    329.272    50.204    
2719.999897 241.002    328.682    50.204    
2720.199897 245.018    328.874    50.204    
2720.399896 281.983    328.599    50.203    
2720.599896 248.022    329.097    50.204    
2720.799896 292.957    328.783    50.204    
2720.999895 205.021    328.987    50.2      
2721.199895 247.989    328.645    50.196    
2721.399894 225.028    329.192    50.204    
2721.599894 280.979    328.312    50.208    
2721.799894 238.034    329.007    50.212    
2721.999893 307.985    328.686    50.208    
2722.199893 276.984    328.054    50.204    
2722.399892 244.006    328.482    50.204    
2722.599892 256.997    328.651    50.208    
2722.799892 250.004    327.899    50.2      
2722.999891 257.999    328.68     50.201    
2723.199891 256.034    328.77     50.2      
2723.39989 326.025    327.76     50.2      
2723.59989 377.141    329.005    50.2      
2723.79989 662.904    328.229    50.2      
2723.999889 469.46     328.681    50.204    
2724.199889 1402.775   328.574    50.204    
2724.399888 945.783    329.135    50.202    
2724.599888 504.922    327.734    50.207    
2724.799888 347.012    329.139    50.204    
2724.999887 371.002    327.612    50.201    
2725.199887 375.98     329.145    50.2      
2725.399886 334.982    328.232    50.204    
2725.599886 298        329.358    50.204    
2725.799886 299.101    327.383    50.21     
2725.999885 503.93     328.994    50.208    
2726.199885 360.959    327.4      50.208    
2726.399884 277.011    328.43     50.212    
2726.599884 299.007    328.112    50.209    
2726.799884 313.026    329.198    50.204    
2726.999883 365.99     327.9      50.208    
2727.199883 345.045    329.046    50.205    
2727.399882 436.968    327.872    50.2      
2727.599882 371.992    328.58     50.195    
2727.799882 356.006    328.374    50.192    
2727.999881 368.993    329.103    50.196    
2728.199881 353.964    328.329    50.2      
2728.39988 281.041    329.156    50.2      
2728.59988 364.003    328.413    50.202    
2728.79988 371.027    328.951    50.208    
2728.999879 425.962    328.753    50.204    
2729.199879 348.012    329.294    50.204    
2729.399878 373.041    328.386    50.2      
2729.599878 457.027    329.178    50.204    
2729.799878 511.981    328.702    50.203    
2729.999877 472.989    328.364    50.202    
2730.199877 451.322    328.663    50.204    
2730.399876 1103.87    329.187    50.2      
2730.599876 839.853    328.738    50.19     
2730.799876 540.93     329.335    50.143    
2730.999875 397.96     328.679    50.006    
2731.199875 315.992    329.504    49.601    
2731.399874 300.029    328.815    49.093    
2731.599874 359.008    329.241    48.378    
2731.799874 375.006    329.171    47.817    
2731.999873 386.974    329.805    47.302    
2732.199873 333.969    329.581    46.981    
2732.399872 271.018    329.619    46.762    
2732.599872 306.997    329.35     46.581    
2732.799872 300.994    329.667    46.298    
2732.999871 289.008    329.397    46.046    
2733.199871 306.046    329.499    45.897    
2733.39987 399.979    329.403    46.039    
2733.59987 358.016    330.202    46.113    
2733.79987 390.981    329.963    46.106    
2733.999869 352.991    329.685    46.122    
2734.199869 334.975    330.885    46.057    
2734.399868 284.027    330.308    46.094    
2734.599868 338.011    330.298    46.133    
2734.799868 360.006    330.661    46.119    
2734.999867 371.98     331.429    46.083    
2735.199867 332.871    329.724    46.063    
2735.399866 2097.623   331.361    46.037    
2735.599866 1333.596   330.851    46        
2735.799866 514.905    331.744    45.974    
2735.999865 322.999    330.774    45.971    
2736.199865 320.989    331.988    45.985    
2736.399864 297.996    329.653    45.992    
2736.599864 289.999    331.624    45.976    
2736.799864 287.989    331.255    45.989    
2736.999863 264.977    332.525    45.979    
2737.199863 218.996    330.823    46.022    
2737.399862 211.018    332.243    46.024    
2737.599862 248.032    330.886    46.127    
2737.799862 312.021    332.068    46.276    
2737.999861 354.981    331.743    46.361    
2738.199861 316.017    332.701    46.407    
2738.39986 351.018    331.591    46.488    
2738.59986 387.008    332.552    46.544    
2738.79986 403.993    332.171    46.59     
2738.999859 388.972    332.509    46.612    
2739.199859 332.995    332.227    46.621    
2739.399858 322.023    333.08     46.611    
2739.599858 369.004    332.249    46.622    
2739.799858 376.988    332.484    46.648    
2739.999857 352.009    332.514    46.649    
