~Version
 VERS              .         2.0                           : CWLS LOG ASCII STANDARD - VERSION 2.0
 WRAP              .         NO                            : ONE LINE PER DEPTH STEP
 DLM               .         SPACE                         : DELIMITING CHARACTER(SPACE TAB OR COMMA)
~Well Information
#_______________________________________________________________________________
#
#PARAMETER_NAME    .UNIT     VALUE                         : DESCRIPTION
#_______________________________________________________________________________
STRT               .M        0.2                           : First reference value
STOP               .M        2774.2                        : Last reference value
STEP               .M        0.2                           : Step increment
NULL               .         -9999                         : Missing value
COMP               .                                       : Company
WELL               .         616                           : Well name
FLD                .                                       : Field
LOC                .                                       : Location
CNTY               .                                       : County
STAT               .                                       : State
CTRY               .                                       : Country
SRVC               .                                       : Service Company
DATE               .                                       : Date
API                .                                       : API number
PROJECT_UPGRADE_TIME .         2021-03-18T21_24_50           : 
group              .         Good                          : 
~Parameter Information Block
#_______________________________________________________________________________
#
#PARAMETER_NAME    .UNIT     VALUE                         : DESCRIPTION
#_______________________________________________________________________________
SET                .         D1799_D_2                     : 
NPR                .                                       : 
OTHER              .         Программное обеспечение станции MONITOR-386EX 25/12/99 15_08_10   BGF V52 22/08/01 16_56_30   3.1_SNGF___BGF_N_092049: 
OTHER_10           .         Тарировки_                    : 
OTHER_11           .         TM.GRD = 0.00403*TM$.UE + -1.07: 
OTHER_12           .         MN.ATM = (9.34907e-006*TM.GRD + 0.02171)*(MN$.UE + -7.93*TM.GRD + -1787): 
OTHER_13           .         GK.MKR/H = LM. / 42.4676      : 
OTHER_14           .         GK.FLT = 0.1*GK.MKR/H[-1] + (1-0.1)*GK.MKR/H[0]: 
OTHER_2            .         Kedr.exe версия 3.4.2.51      : 
OTHER_3            .         KedrData.dll версия 3.4.2.24  : 
OTHER_4            .         Драйвер версия 2.1.1.3        : 
OTHER_5            .         Мнемоники версия 3.3 S        : 
OTHER_6            .         Прибор_ КСА-Т4                : 
OTHER_7            .         Номер прибора_ 03             : 
OTHER_8            .         Режим_ КСА-Т4                 : 
OTHER_9            .         Форма_ КВА.                   : 
PR                 .                                       : 
PROJECT_UPGRADE_TIME .         2021-03-18T21_24_49           : 
PRTY               .         ПП-603-1                      : N партии
SRV                .                                       : 
SRVC               .         Карпов                        : Начальник партии
TLFamily_DEPT      .         Measured Depth                : 
TLFamily_LM        .         Casing Collar locator         : 
TLFamily_MN        .                                       : 
TLFamily_TM        .         Temperature                   : 
group              .         second                        : 
~Curve Information
#_______________________________________________________________________________
#
#LOGNAME           .UNIT     LOG_ID                        : DESCRIPTION
#_______________________________________________________________________________
DEPT               .M                                      : Depth curve 
LM                 .е.ацп                                  : Локатор муфт,е.ацп 
MN                 .атм                                    : Манометрия, атм 
TM                 .град.C                                 : Термограмма по стволу скважины,град.C 
~Ascii
# ...
2548.2     409.004    232.274    51.463    
2548.4     429.998    232.296    51.459    
2548.6     421.989    232.316    51.453    
2548.8     363        232.337    51.447    
2549       362.992    232.341    51.444    
2549.2     321.003    232.358    51.439    
2549.4     339.007    232.38     51.432    
2549.6     375.994    232.401    51.427    
2549.8     343.001    232.423    51.42     
2550       348.005    232.445    51.416    
2550.2     373.002    232.466    51.405    
2550.4     384.993    232.487    51.405    
2550.6     346.006    232.509    51.401    
2550.8     377.004    232.522    51.39     
2551       400.02     232.534    51.385    
2551.2     504.989    232.574    51.378    
2551.4     447.989    232.594    51.373    
2551.6     388.999    232.613    51.37     
2551.8     382.998    232.613    51.366    
2552       371.014    232.637    51.358    
2552.2     442.989    232.657    51.35     
2552.4     385        232.678    51.347    
2552.6     384.999    232.699    51.343    
2552.8     377.998    232.722    51.339    
2553       367.011    232.743    51.334    
2553.2     426.002    232.764    51.327    
2553.4     437.995    232.786    51.323    
2553.6     410.001    232.82     51.315    
2553.8     416.994    232.85     51.308    
2554       383.012    232.862    51.3      
2554.2     447.193    232.872    51.289    
2554.4     6714.535   232.894    51.277    
2554.6     4273.72    232.914    51.269    
2554.8     2804.919   232.936    51.262    
2555       2380.922   232.958    51.254    
2555.2     1972.936   232.977    51.246    
2555.4     1638.053   232.982    51.236    
2555.6     1914.942   233.023    51.227    
2555.8     1608       233.024    51.221    
2556       1607.959   233.062    51.216    
2556.2     1394.008   233.069    51.207    
2556.4     1433.997   233.103    51.197    
2556.6     1417.939   233.115    51.189    
2556.8     1099.006   233.129    51.182    
2557       1131.965   233.15     51.178    
2557.2     946.988    233.181    51.167    
2557.4     884.996    233.206    51.163    
2557.6     865.002    233.214    51.159    
2557.8     874.972    233.234    51.152    
2558       729.017    233.257    51.145    
2558.2     819.977    233.277    51.137    
2558.4     697.008    233.297    51.132    
2558.6     738        233.298    51.128    
2558.8     739.994    233.32     51.122    
2559       707.986    233.34     51.117    
2559.2     631.999    233.362    51.113    
2559.4     629        233.382    51.112    
2559.6     629.017    233.404    51.113    
2559.8     715.98     233.425    51.11     
2560       611.033    233.447    51.105    
2560.2     782.979    233.468    51.097    
2560.4     672.987    233.478    51.09     
2560.6     604.988    233.49     51.082    
2560.8     543.006    233.512    51.074    
2561       575.018    233.543    51.066    
2561.2     669.004    233.577    51.059    
2561.4     692.021    233.598    51.055    
2561.6     803.977    233.619    51.048    
2561.8     685.995    233.64     51.038    
2562       660.032    233.66     51.031    
2562.2     827.972    233.661    51.027    
2562.4     681.011    233.684    51.021    
2562.6     738.998    233.703    51.014    
2562.8     726        233.746    51.006    
2563       726.068    233.769    51        
2563.2     1080.969   233.791    50.994    
2563.4     918.963    233.797    50.983    
2563.6     727.052    233.812    50.976    
2563.8     997.974    233.833    50.968    
2564       859.998    233.855    50.961    
2564.2     848.554    233.877    50.957    
2564.4     3748.748   233.888    50.949    
2564.6     2430.849   233.905    50.942    
2564.8     1639.903   233.934    50.935    
2565       1133.946   233.941    50.923    
2565.2     851.975    233.962    50.921    
2565.4     722.975    233.984    50.915    
2565.6     590        234.005    50.908    
2565.8     588.989    234.025    50.9      
2566       533.001    234.066    50.893    
2566.2     540        234.07     50.885    
2566.4     539.992    234.089    50.878    
2566.6     496.994    234.111    50.87     
2566.8     467.999    234.133    50.862    
2567       465.003    234.155    50.855    
2567.2     483.002    234.175    50.848    
2567.4     494.001    234.197    50.844    
2567.6     499.995    234.207    50.836    
2567.8     475.001    234.228    50.829    
2568       478.001    234.252    50.828    
2568.2     484.997    234.261    50.828    
2568.4     468.001    234.282    50.825    
2568.6     472.004    234.309    50.824    
2568.8     490.989    234.341    50.824    
2569       432.006    234.345    50.819    
2569.2     463.005    234.365    50.814    
2569.4     488.006    234.388    50.808    
2569.6     517.994    234.409    50.8      
2569.8     489.003    234.431    50.794    
2570       503.989    234.451    50.79     
2570.2     447.008    234.473    50.786    
2570.4     490.995    234.496    50.779    
2570.6     464.998    234.518    50.772    
2570.8     455        234.54     50.762    
2571       454.998    234.546    50.754    
2571.2     445.998    234.576    50.747    
2571.4     436.001    234.605    50.743    
2571.6     441.003    234.627    50.735    
2571.8     456.008    234.637    50.727    
2572       498.996    234.65     50.715    
2572.2     479.009    234.672    50.711    
2572.4     526.988    234.693    50.708    
2572.6     462.994    234.714    50.7      
2572.8     430.999    234.729    50.692    
2573       426.019    234.743    50.684    
2573.2     526        234.774    50.677    
2573.4     523.99     234.78     50.672    
2573.6     470.999    234.802    50.665    
2573.8     465.006    234.82     50.657    
2574       494.004    234.829    50.649    
2574.2     516.992    234.868    50.639    
2574.4     477.004    234.888    50.632    
2574.6     497.532    234.891    50.628    
2574.8     3271.766   234.934    50.622    
2575       2050.86    234.934    50.615    
2575.2     1319.925   234.957    50.605    
2575.4     928.96     234.978    50.597    
2575.6     718.971    235        50.593    
2575.8     565.987    235.022    50.587    
2576       496.995    235.044    50.583    
2576.2     468.994    235.065    50.58     
2576.4     440        235.087    50.571    
2576.6     439.998    235.109    50.561    
2576.8     428.999    235.132    50.558    
2577       422.991    235.154    50.55     
2577.2     377.005    235.162    50.531    
2577.4     404.002    235.174    50.533    
2577.6     411.998    235.207    50.526    
2577.8     398.998    235.23     50.518    
2578       390.014    235.24     50.511    
2578.2     460.999    235.263    50.502    
2578.4     456.999    235.285    50.494    
2578.6     449.996    235.299    50.487    
2578.8     428.998    235.307    50.482    
2579       420.996    235.335    50.478    
2579.2     402.007    235.367    50.471    
2579.4     437.003    235.363    50.464    
2579.6     453.993    235.362    50.456    
2579.8     420.006    235.435    50.451    
2580       451.005    235.437    50.445    
2580.2     478.007    235.459    50.437    
2580.4     512.99     235.481    50.429    
2580.6     460.987    235.481    50.423    
2580.8     394        235.526    50.417    
2581       392.003    235.527    50.41     
2581.2     406.009    235.548    50.403    
2581.4     451.989    235.588    50.396    
2581.6     396.999    235.595    50.386    
2581.8     390.009    235.616    50.377    
2582       438.997    235.655    50.366    
2582.2     424        235.664    50.36     
2582.4     423.997    235.68     50.355    
2582.6     411        235.703    50.347    
2582.8     413        235.725    50.339    
2583       413        235.747    50.331    
2583.2     412.991    235.769    50.324    
2583.4     364.004    235.79     50.32     
2583.6     384.002    235.811    50.312    
2583.8     394.004    235.833    50.309    
2584       413.023    235.845    50.301    
2584.2     533.994    235.856    50.296    
2584.4     503.995    235.877    50.293    
