~Version
 VERS              .         2.0                           : CWLS LOG ASCII STANDARD - VERSION 2.0
 WRAP              .         NO                            : ONE LINE PER DEPTH STEP
 DLM               .         SPACE                         : DELIMITING CHARACTER(SPACE TAB OR COMMA)
~Well Information
#_______________________________________________________________________________
#
#PARAMETER_NAME    .UNIT     VALUE                         : DESCRIPTION
#_______________________________________________________________________________
STRT               .M        44                            : First reference value
STOP               .M        2769.2                        : Last reference value
STEP               .M        0.2                           : Step increment
NULL               .         -9999                         : Missing value
COMP               .                                       : Company
WELL               .         616                           : Well name
FLD                .                                       : Field
LOC                .                                       : Location
CNTY               .                                       : County
STAT               .                                       : State
CTRY               .                                       : Country
SRVC               .                                       : Service Company
DATE               .                                       : Date
API                .                                       : API number
PROJECT_UPGRADE_TIME .         2021-03-18T21_24_50           : 
group              .         Good                          : 
~Parameter Information Block
#_______________________________________________________________________________
#
#PARAMETER_NAME    .UNIT     VALUE                         : DESCRIPTION
#_______________________________________________________________________________
SET                .         D1160_D                       : 
OTHER              .         Программное обеспечение станции MONITOR-386EX 25/12/99 15_08_10   BGF V52 22/08/01 16_56_30   3.2_BGF_N_3070031: 
OTHER_10           .         Тарировки_                    : 
OTHER_11           .         TM.GRD = 0.00403*TM$.UE + -1.19: 
OTHER_12           .         MN.ATM = (7.1e-006*TM.GRD + 0.02017)*(MN$.UE + -3.03*TM.GRD + -1833): 
OTHER_13           .         Id error                      : 
OTHER_2            .         Kedr.exe версия 3.4.2.51      : 
OTHER_3            .         KedrData.dll версия 3.4.2.24  : 
OTHER_4            .         Драйвер версия 2.1.1.8        : 
OTHER_5            .         Мнемоники версия 3.3 S        : 
OTHER_6            .         Прибор_ КСА-М1                : 
OTHER_7            .         Номер прибора_ 265            : 
OTHER_8            .         Режим_ КСА-М1                 : 
OTHER_9            .         Форма_ ТЕРМОМЕТР              : 
PROJECT_UPGRADE_TIME .         2021-03-18T21_24_49           : 
TLFamily_DEPT      .         Measured Depth                : 
TLFamily_GK        .         Gamma Ray                     : 
TLFamily_GK$       .                                       : 
TLFamily_LM        .         Casing Collar locator         : 
TLFamily_METKA     .                                       : 
TLFamily_MN        .                                       : 
TLFamily_MN$       .                                       : 
TLFamily_RCOR      .                                       : 
TLFamily_SPID      .         Spontaneous Potential         : 
TLFamily_STD       .                                       : 
TLFamily_TENS      .         Cable Tension                 : 
TLFamily_TIME      .         Time                          : 
TLFamily_TM        .         Temperature                   : 
TLFamily_TM$       .         Temperature                   : 
TLFamily_VGD       .         Gas Volume                    : 
group              .         prim                          : 
~Curve Information
#_______________________________________________________________________________
#
#LOGNAME           .UNIT     LOG_ID                        : DESCRIPTION
#_______________________________________________________________________________
DEPT               .M                                      : 1 Глубина, м -    0.0 см 
GK                 .MKR/H                                  : 15 Гамма-активность, мкр./ч -  110.0 см 
GK$                .UE                                     : 12 Гамма-активность, усл.ед. -  110.0 см 
LM                 .                                       : 10 Локатор муфт,  -   20.0 см 
METKA              .                                       : 3 Метки,  -    0.0 см 
MN                 .ATM                                    : 14 Давление, атм. -  160.0 см 
MN$                .UE                                     : 8 Давление, усл.ед. -  160.0 см 
RCOR               .CM/KM                                  : 5 Коррекция по ролику, см/км -    0.0 см 
SPID               .M/H                                    : 2 Скорость, м/час -    0.0 см 
STD                .                                       : 11 Приток,  -  170.0 см 
TENS               .T                                      : 6 Натяжение кабеля, т -    0.0 см 
TIME               .S                                      : 4 Время, сек -    0.0 см 
TM                 .GRD                                    : 13 Температура, °C -  180.0 см 
TM$                .UE                                     : 7 Температура, усл.ед. -  180.0 см 
VGD                .                                       : 9 Влагомер,  -  170.0 см 
~Ascii
# ...
2219.6     9.31       389        376        0          204.275    11928      -1400      1844       26193      0          14559.14   73.06      18424      6484      
2219.8     9.24       389        208        0          204.296    11929      -1400      1839       26196      0          14559.56   73.068     18426      6483      
2220       9.2        389        101        2          204.315    11930      -1400      1838       26198      0          14559.98   73.076     18428      6483      
2220.2     9.16       389        35         0          204.334    11931      -1400      1840       26201      0          14560.38   73.083     18430      6483      
2220.4     9.14       389        1          0          204.352    11932      -1400      1839       26205      0          14560.76   73.087     18431      6483      
2220.6     9.12       388        1          0          204.372    11933      -1400      1834       26207      0          14561.16   73.094     18433      6482      
2220.8     9.03       378        1          0          204.392    11934      -1400      1832       26209      0          14561.56   73.101     18435      6483      
2221       8.97       378        1          0          204.411    11935      -1400      1835       26212      0          14561.93   73.109     18437      6483      
2221.2     8.92       378        1          0          204.429    11936      -1400      1837       26213      0          14562.32   73.114     18438      6483      
2221.4     8.9        378        1          0          204.45     11937      -1400      1839       26218      0          14562.73   73.12      18439      6482      
2221.6     8.88       378        1          0          204.471    11938      -1400      1841       26222      0          14563.11   73.127     18441      6482      
2221.8     8.87       378        1          0          204.491    11939      -1400      1843       26226      0          14563.49   73.136     18443      6482      
2222       9.02       398        1          0          204.509    11939      -1400      1838       26227      0          14563.89   73.143     18445      6483      
2222.2     9.15       404        1          0          204.529    11940      -1400      1834       26230      0          14564.28   73.149     18446      6483      
2222.4     9.25       404        1          0          204.549    11941      -1400      1835       26233      0          14564.65   73.154     18448      6483      
2222.6     9.32       404        1          0          204.563    11942      -1400      1837       26235      0          14565.04   73.162     18450      6483      
2222.8     9.36       404        1          0          204.566    11942      -1400      1839       26238      0          14565.42   73.169     18451      6482      
2223       9.39       404        1          0          204.59     11943      -1400      1841       26242      0          14565.83   73.176     18453      6482      
2223.2     9.42       405        1          0          204.625    11945      -1400      1843       26247      0          14566.24   73.181     18454      6483      
2223.4     9.45       407        1          0          204.626    11945      -1400      1842       26250      0          14566.62   73.188     18456      6483      
2223.6     9.47       407        1          0          204.644    11946      -1400      1839       26251      0          14566.99   73.195     18458      6483      
2223.8     9.49       407        1          0          204.664    11947      -1400      1841       26253      0          14567.37   73.199     18459      6484      
2224       9.5        407        1          0          204.682    11948      -1400      1843       26255      0          14567.77   73.21      18462      6483      
2224.2     9.51       407        1          0          204.702    11949      -1400      1845       26256      0          14568.16   73.215     18463      6484      
2224.4     9.51       407        1          0          204.733    11950      -1400      1846       26261      0          14568.54   73.221     18464      6483      
2224.6     9.41       394        1          0          204.761    11952      -1400      1847       26264      0          14568.92   73.229     18466      6482      
2224.8     9.35       393        1          0          204.782    11953      -1400      1849       26267      0          14569.35   73.236     18468      6483      
2225       9.3        393        1          0          204.791    11953      -1400      1843       26272      0          14569.73   73.244     18470      6482      
2225.2     9.26       393        1          0          204.806    11954      -1400      1844       26273      0          14570.1    73.252     18472      6482      
2225.4     9.24       393        1          0          204.833    11955      -1400      1841       26274      0          14570.49   73.258     18473      6483      
2225.6     9.23       393        1          0          204.842    11955      -1400      1836       26276      0          14570.89   73.262     18475      6481      
2225.8     9.4        416        1          0          204.877    11957      -1400      1839       26279      0          14571.27   73.27      18476      6481      
2226       9.7        441        1          0          204.895    11958      -1400      1844       26282      0          14571.66   73.277     18478      6482      
2226.2     9.9        441        1          0          204.895    11958      -1400      1842       26286      0          14572.04   73.285     18480      6483      
2226.4     10.03      441        1          0          204.937    11960      -1400      1837       26290      0          14572.44   73.288     18481      6483      
2226.6     10.12      441        1          0          204.937    11960      -1400      1835       26293      0          14572.84   73.296     18483      6483      
2226.8     10.19      441        1          0          204.969    11962      -1400      1836       26296      0          14573.21   73.304     18485      6483      
2227       10.23      442        1          0          204.993    11963      -1400      1834       26297      0          14573.61   73.311     18487      6483      
2227.2     10.34      452        1          0          204.999    11963      -1400      1842       26299      0          14574      73.318     18488      6483      
2227.4     10.41      452        1          0          205.011    11964      -1400      1849       26302      0          14574.38   73.326     18490      6483      
2227.6     10.47      452        1          0          205.041    11965      -1400      1850       26306      0          14574.78   73.334     18492      6482      
2227.8     10.5       452        1          0          205.071    11966      -1400      1844       26309      0          14575.16   73.339     18494      6483      
2228       10.52      452        1          0          205.082    11967      -1400      1845       26313      0          14575.58   73.344     18495      6483      
2228.2     10.54      452        1          0          205.096    11968      -1400      1847       26315      0          14575.96   73.35      18496      6483      
2228.4     10.42      435        1          0          205.123    11969      -1400      1843       26317      0          14576.33   73.357     18498      6482      
2228.6     10.26      424        1          0          205.127    11969      -1400      1846       26319      0          14576.72   73.366     18500      6483      
2228.8     10.15      424        1          0          205.147    11970      -1400      1846       26321      0          14577.11   73.371     18501      6483      
2229       10.07      424        1          0          205.166    11971      -1400      1840       26325      0          14577.5    73.378     18503      6484      
2229.2     10.02      424        1          0          205.186    11972      -1400      1839       26329      0          14577.89   73.381     18504      6484      
