~Version
 VERS              .         2.0                           : CWLS LOG ASCII STANDARD - VERSION 2.0
 WRAP              .         NO                            : ONE LINE PER DEPTH STEP
 DLM               .         SPACE                         : DELIMITING CHARACTER(SPACE TAB OR COMMA)
~Well Information
#_______________________________________________________________________________
#
#PARAMETER_NAME    .UNIT     VALUE                         : DESCRIPTION
#_______________________________________________________________________________
STRT               .M        2659.2                        : First reference value
STOP               .M        2769.000055                   : Last reference value
STEP               .M        0.2000001                     : Step increment
NULL               .         -9999                         : Missing value
COMP               .                                       : Company
WELL               .         616                           : Well name
FLD                .                                       : Field
LOC                .                                       : Location
CNTY               .                                       : County
STAT               .                                       : State
CTRY               .                                       : Country
SRVC               .                                       : Service Company
DATE               .                                       : Date
API                .                                       : API number
PROJECT_UPGRADE_TIME .         2021-03-18T21_24_50           : 
group              .         Good                          : 
~Parameter Information Block
#_______________________________________________________________________________
#
#PARAMETER_NAME    .UNIT     VALUE                         : DESCRIPTION
#_______________________________________________________________________________
SET                .         D1165_D                       : 
OTHER              .         Программное обеспечение станции MONITOR-386EX 25/12/99 15_08_10   BGF V52 22/08/01 16_56_30   3.2_BGF_N_3070031: 
OTHER_10           .         Тарировки_                    : 
OTHER_11           .         TM.GRD = 0.00403*TM$.UE + -1.19: 
OTHER_12           .         MN.ATM = (7.1e-006*TM.GRD + 0.02017)*(MN$.UE + -3.03*TM.GRD + -1833): 
OTHER_13           .         Id error                      : 
OTHER_2            .         Kedr.exe версия 3.4.2.51      : 
OTHER_3            .         KedrData.dll версия 3.4.2.24  : 
OTHER_4            .         Драйвер версия 2.1.1.8        : 
OTHER_5            .         Мнемоники версия 3.3 S        : 
OTHER_6            .         Прибор_ КСА-М1                : 
OTHER_7            .         Номер прибора_ 265            : 
OTHER_8            .         Режим_ КСА-М1                 : 
OTHER_9            .         Форма_ ТЕРМОМЕТР              : 
PROJECT_UPGRADE_TIME .         2021-03-18T21_24_49           : 
TLFamily_DEPT      .         Measured Depth                : 
TLFamily_GK        .         Gamma Ray                     : 
TLFamily_GK$       .                                       : 
TLFamily_LM        .         Casing Collar locator         : 
TLFamily_METKA     .                                       : 
TLFamily_MN        .                                       : 
TLFamily_MN$       .                                       : 
TLFamily_RCOR      .                                       : 
TLFamily_SPID      .         Spontaneous Potential         : 
TLFamily_STD       .                                       : 
TLFamily_TENS      .         Cable Tension                 : 
TLFamily_TIME      .         Time                          : 
TLFamily_TM        .         Temperature                   : 
TLFamily_TM$       .         Temperature                   : 
TLFamily_VGD       .         Gas Volume                    : 
group              .         prim                          : 
~Curve Information
#_______________________________________________________________________________
#
#LOGNAME           .UNIT     LOG_ID                        : DESCRIPTION
#_______________________________________________________________________________
DEPT               .M                                      : 1 Глубина, м -    0.0 см 
GK                 .MKR/H                                  : 15 Гамма-активность, мкр./ч -  110.0 см 
GK$                .UE                                     : 12 Гамма-активность, усл.ед. -  110.0 см 
LM                 .                                       : 10 Локатор муфт,  -   20.0 см 
METKA              .                                       : 3 Метки,  -    0.0 см 
MN                 .ATM                                    : 14 Давление, атм. -  160.0 см 
MN$                .UE                                     : 8 Давление, усл.ед. -  160.0 см 
RCOR               .CM/KM                                  : 5 Коррекция по ролику, см/км -    0.0 см 
SPID               .M/H                                    : 2 Скорость, м/час -    0.0 см 
STD                .                                       : 11 Приток,  -  170.0 см 
TENS               .T                                      : 6 Натяжение кабеля, т -    0.0 см 
TIME               .S                                      : 4 Время, сек -    0.0 см 
TM                 .GRD                                    : 13 Температура, °C -  180.0 см 
TM$                .UE                                     : 7 Температура, усл.ед. -  180.0 см 
VGD                .                                       : 9 Влагомер,  -  170.0 см 
~Ascii
# ...
2727.800034 5.46       233        1          0          355.58     19198      -1400      631        32374      0          21388.11   88.256     22195      6541      
2728.000034 5.62       247        1          0          356.294    19233      -1400      633        32374      0          21389.21   88.298     22205      6542      
2728.200034 5.73       247        1          0          358.572    19342      -1400      638        32373      0          21390.34   88.337     22215      6543      
2728.400035 5.7        239        1          0          355.673    19202      -1400      635        32373      0          21391.52   88.401     22231      6541      
2728.600035 5.63       239        1          0          356.572    19245      -1400      636        32375      0          21392.62   88.467     22247      6541      
2728.800035 5.74       254        1          0          357.698    19299      -1400      637        32373      0          21393.72   88.547     22267      6542      
2729.000035 5.87       254        1          0          355.927    19214      -1400      638        32373      0          21394.82   88.639     22290      6543      
2729.200035 5.96       259        1          0          356.187    19226      -1400      633        32374      0          21395.98   88.733     22314      6542      
2729.400035 6.17       269        1          0          356.831    19256      -1400      635        32374      0          21397.14   88.861     22345      6542      
2729.600035 6.25       269        1          0          357.539    19290      -1400      636        32374      0          21398.22   88.989     22377      6542      
2729.800035 6.32       272        1          0          356.093    19220      -1400      637        32374      0          21399.41   89.122     22410      6541      
2730.000035 6.35       272        1          2          356.754    19252      -1400      638        32375      0          21400.6    89.25      22442      6541      
2730.200036 6.25       264        1          0          358.65     19343      -1400      638        32374      0          21401.72   89.376     22473      6540      
2730.400036 6.2        264        1          0          356.132    19221      -1400      639        32374      0          21402.88   89.487     22500      6541      
2730.600036 6.43       292        1          0          356.706    19249      -1400      637        32373      0          21404.01   89.578     22523      6540      
2730.800036 6.69       292        1          0          357.559    19289      -1400      645        32373      0          21405.13   89.658     22543      6540      
2731.000036 6.96       314        1          0          355.849    19207      -1400      644        32373      0          21406.24   89.73      22561      6541      
2731.200036 7.82       351        1          0          356.66     19246      -1400      642        32373      0          21407.39   89.787     22575      6540      
2731.400036 8          342        1          0          356.486    19237      -1400      637        32373      0          21408.49   89.829     22585      6542      
2731.600036 7.92       337        1          0          357.242    19274      -1400      638        32374      0          21409.61   89.87      22595      6541      
2731.800036 7.9        337        1          0          356.51     19238      -1400      639        32374      0          21410.76   89.914     22606      6541      
2732.000036 7.38       302        1          0          357.001    19262      -1400      639        32373      0          21411.87   89.945     22614      6542      
2732.200036 7.17       302        1          0          358.889    19353      -1400      639        32374      0          21412.97   89.965     22619      6541      
2732.400037 6.96       289        1          0          356.136    19220      -1400      639        32374      0          21414.12   89.987     22625      6542      
2732.600037 6.83       289        1          0          357.292    19276      -1400      639        32373      0          21415.28   90.005     22629      6542      
2732.800037 6.71       282        1          0          357.956    19308      -1400      635        32374      0          21416.42   90.014     22631      6542      
2733.000037 6.63       282        1          0          356.494    19237      -1400      642        32374      0          21417.48   90.021     22633      6543      
2733.200037 6.82       308        1          0          356.446    19235      -1400      641        32373      0          21418.6    90.024     22634      6542      
2733.400037 7.33       324        1          0          356.726    19249      -1400      635        32374      0          21419.77   90.025     22634      6543      
2733.600037 7.49       324        1          0          358.553    19336      -1400      636        32374      0          21420.91   90.021     22633      6543      
2733.800037 8.07       360        1          0          356.888    19256      -1400      637        32373      0          21422.01   90.024     22634      6543      
2734.000037 8.3        360        1          0          357.433    19282      -1400      649        32373      0          21423.16   90.021     22633      6543      
2734.200037 8.08       340        1          0          359.001    19358      -1400      642        32374      0          21424.27   90.017     22632      6543      
2734.400038 8          340        1          0          356.852    19255      -1400      642        32373      0          21425.37   90.013     22631      6544      
2734.600038 7.99       342        1          0          357.091    19266      -1400      641        32374      0          21426.49   90.013     22631      6544      
2734.800038 8          342        1          0          357.694    19295      -1400      630        32374      0          21427.63   90.012     22631      6545      
2735.000038 8.11       356        1          0          357.012    19262      -1400      637        32373      0          21428.73   90.009     22630      6545      
2735.200038 8.38       364        1          0          356.884    19256      -1400      638        32374      0          21429.88   90.008     22630      6543      
2735.400038 8.47       365        1          0          356.804    19252      -1400      633        32374      0          21431.04   90.009     22630      6544      
2735.600038 8.51       365        1          0          359.564    19385      -1400      629        32374      0          21432.18   90.007     22630      6546      
2735.800038 8.53       365        1          0          356.83     19254      -1400      631        32374      0          21433.26   90.009     22630      6546      
2736.000038 8.03       330        1          0          357.921    19306      -1400      633        32374      0          21434.38   90.009     22630      6545      
2736.200038 7.83       330        1          0          358.534    19335      -1400      624        32374      0          21435.56   90.009     22630      6545      
2736.400039 7.44       299        1          0          356.42     19234      -1400      633        32373      0          21436.67   90.009     22630      6545      
2736.600039 7.14       299        1          0          357.434    19283      -1400      635        32374      0          21437.78   90.013     22631      6546      
2736.800039 7.14       307        1318       0          357.51     19286      -1400      632        32372      0          21438.92   90.013     22631      6545      
2737.000039 7.16       307        374        0          357.836    19302      -1400      643        32373      0          21440.04   90.01      22630      6548      
2737.200039 7.31       324        1          0          356.864    19255      -1400      643        32373      0          21441.14   90.016     22632      6546      
2737.400039 7.56       329        1          0          357.885    19304      -1400      642        32374      0          21442.24   90.015     22631      6547      
