~Version
 VERS              .         2.0                           : CWLS LOG ASCII STANDARD - VERSION 2.0
 WRAP              .         NO                            : ONE LINE PER DEPTH STEP
 DLM               .         SPACE                         : DELIMITING CHARACTER(SPACE TAB OR COMMA)
~Well Information
#_______________________________________________________________________________
#
#PARAMETER_NAME    .UNIT     VALUE                         : DESCRIPTION
#_______________________________________________________________________________
STRT               .M        44.8                          : First reference value
STOP               .M        2755.2                        : Last reference value
STEP               .M        0.2                           : Step increment
NULL               .         -9999                         : Missing value
COMP               .                                       : Company
WELL               .         616                           : Well name
FLD                .                                       : Field
LOC                .                                       : Location
CNTY               .                                       : County
STAT               .                                       : State
CTRY               .                                       : Country
SRVC               .                                       : Service Company
DATE               .                                       : Date
API                .                                       : API number
PROJECT_UPGRADE_TIME .         2021-03-18T21_24_50           : 
group              .         Good                          : 
~Parameter Information Block
#_______________________________________________________________________________
#
#PARAMETER_NAME    .UNIT     VALUE                         : DESCRIPTION
#_______________________________________________________________________________
SET                .         D4390_D_2                     : 
COMM               .                                       : 
OTHER              .         Запись производится в присутствии: 
OTHER_10           .         Максимальная температура      : 
OTHER_100          .         GK.FLT = 0.1*GR.UR/H[-1] + (1-0.1)*GR.UR/H[0]: 
OTHER_11           .         Тип промывочной жидкости      : 
OTHER_12           .         Сопротивление ПЖ (Ом*м) при 20°C: 
OTHER_13           .         Плотность ПЖ(г/см3)           : 
OTHER_14           .         Вязкость ПЖ(с)                : 
OTHER_15           .         Водоотдача ПЖ(см3/30мин)      : 
OTHER_16           .         Уровень ПЖ                    : 
OTHER_17           .         Нефть ПЖ (%)                  : 
OTHER_18           .         Барит ПЖ (%)                  : 
OTHER_19           .         Гематит ПЖ (%)                : 
OTHER_2            .         Заказчик ННСН  ЦДНГ-1         : 
OTHER_20           .         КМЦ ПЖ (%)                    : 
OTHER_21           .         Разгазирование ПЖ (да,нет)    : 
OTHER_22           .         Подъемник                     : 
OTHER_23           .         Лаборатория                   : 
OTHER_24           .         Тип кабеля                    : 
OTHER_25           .         Длина кабеля (м)              : 
OTHER_26           .         Цена последней метки          : 
OTHER_27           .         Цена контрольной метки        : 
OTHER_28           .         Диаметр долота (мм)           : 
OTHER_29           .         Глубина бурения (м)           : 
OTHER_3            .         Площадь                       : 
OTHER_30           .         Искусственный забой (м)       : 
OTHER_31           .         Диаметр колонны (мм)          : 
OTHER_32           .         Толщина колонны (мм)          : 
OTHER_33           .         Башмак колонны (м)            : 
OTHER_34           .         Диаметр НКТ (мм)              : 
OTHER_35           .         Толщина НКТ (мм)              : 
OTHER_36           .         Воронка НКТ (м)               : 
OTHER_37           .         Дата цементожа                : 
OTHER_38           .         Тип, количество(т) и плотность цемента: 
OTHER_39           .         Интервалы перфорации (м)      : 
OTHER_4            .         Категория                     : 
OTHER_40           .         Направление, диаметр (мм)     : 
OTHER_41           .         Направление, глубина (м)      : 
OTHER_42           .         Кондуктор, диаметр (мм)       : 
OTHER_43           .         Кондуктор, глубина (м)        : 
OTHER_44           .         Техническая колонна, диаметр (мм): 
OTHER_45           .         Техническая колонна, глубина (м): 
OTHER_46           .         Эксплуатационная колонна, диаметр (мм): 
OTHER_47           .         Эксплуатационная колонна, глубина (м): 
OTHER_48           .         Программа Кедр-02 версия 3.4  : 
OTHER_49           .         Операционная система Windows NT 5.1 build 2600 Service Pack 2: 
OTHER_5            .         Назначение исследований       : 
OTHER_50           .         Программное обеспечение станции MONITOR-386EX 25/12/99 15_08_10   BGF V54 20/09/05 15_32_17   3.3__BGF_9030071: 
OTHER_51           .         Kedr.exe версия 3.4.2.74      : 
OTHER_52           .         KedrData.dll версия 3.4.2.29  : 
OTHER_53           .         Мнемоники версия 3.18 S       : 
OTHER_54           .         Драйвер версия 2.1.1.4        : 
OTHER_55           .         LasInf.dll 4.3.0.35           : 
OTHER_56           .         Прибор_ КСА-Т4                : 
OTHER_57           .         Номер прибора_ 160            : 
OTHER_58           .         Режим_ КСА-Т4                 : 
OTHER_59           .         Форма_ С.А.Б.                 : 
OTHER_6            .         Альтитуда стола ротора        : 
OTHER_60           .         Тарировки_                    : 
OTHER_61           .         <_techsia_sc_> Дата тарировки температуры 25.05.2010: 
OTHER_62           .         Ручной ввод коэффициентов     : 
OTHER_63           .         TM.DEGC = 0.00402*RTM.E.ACP + -0.994: 
OTHER_64           .         <_techsia_sc_> Дата тарировки давления 25.05.2010: 
OTHER_65           .         Ручной ввод коэффициентов     : 
OTHER_66           .         MN.ATM = (2.27521e-006*TM.DEGC + 0.02078)*(RMN.E.ACP + 6.2*TM.DEGC + -1688): 
OTHER_67           .         <_techsia_sc_> Дата тарировки ГК 25.05.2010: 
OTHER_68           .         Ручной ввод коэффициентов     : 
OTHER_69           .         GR.UR/H = RGR.IMP/MIN / 45.5144: 
OTHER_7            .         Вид исследований 3  6         : 
OTHER_70           .         GK.FLT = 0.1*GR.UR/H[-1] + (1-0.1)*GR.UR/H[0]: 
OTHER_71           .         <_techsia_sc_> Дата тарировки температуры 25.05.2010: 
OTHER_72           .         Ручной ввод коэффициентов     : 
OTHER_73           .         TM.DEGC = 0.00402*RTM.E.ACP + -0.994: 
OTHER_74           .         <_techsia_sc_> Дата тарировки давления 25.05.2010: 
OTHER_75           .         Ручной ввод коэффициентов     : 
OTHER_76           .         MN.ATM = (2.27521e-006*TM.DEGC + 0.02078)*(RMN.E.ACP + 6.2*TM.DEGC + -1688): 
OTHER_77           .         <_techsia_sc_> Дата тарировки ГК 25.05.2010: 
OTHER_78           .         Ручной ввод коэффициентов     : 
OTHER_79           .         GR.UR/H = RGR.IMP/MIN / 45.5144: 
OTHER_8            .         Начало бурения интервала каротажа: 
OTHER_80           .         GK.FLT = 0.1*GR.UR/H[-1] + (1-0.1)*GR.UR/H[0]: 
OTHER_81           .         <_techsia_sc_> Дата тарировки температуры 25.05.2010: 
OTHER_82           .         Ручной ввод коэффициентов     : 
OTHER_83           .         TM.DEGC = 0.00402*RTM.E.ACP + -0.994: 
OTHER_84           .         <_techsia_sc_> Дата тарировки давления 25.05.2010: 
OTHER_85           .         Ручной ввод коэффициентов     : 
OTHER_86           .         MN.ATM = (2.27521e-006*TM.DEGC + 0.02078)*(RMN.E.ACP + 6.2*TM.DEGC + -1688): 
OTHER_87           .         <_techsia_sc_> Дата тарировки ГК 25.05.2010: 
OTHER_88           .         Ручной ввод коэффициентов     : 
OTHER_89           .         GR.UR/H = RGR.IMP/MIN / 45.5144: 
OTHER_9            .         Окончание бурения интервала каротажа: 
OTHER_90           .         GK.FLT = 0.1*GR.UR/H[-1] + (1-0.1)*GR.UR/H[0]: 
OTHER_91           .         <_techsia_sc_> Дата тарировки температуры 25.05.2010: 
OTHER_92           .         Ручной ввод коэффициентов     : 
OTHER_93           .         TM.DEGC = 0.00402*RTM.E.ACP + -0.994: 
OTHER_94           .         <_techsia_sc_> Дата тарировки давления 25.05.2010: 
OTHER_95           .         Ручной ввод коэффициентов     : 
OTHER_96           .         MN.ATM = (2.27521e-006*TM.DEGC + 0.02078)*(RMN.E.ACP + 6.2*TM.DEGC + -1688): 
OTHER_97           .         <_techsia_sc_> Дата тарировки ГК 25.05.2010: 
OTHER_98           .         Ручной ввод коэффициентов     : 
OTHER_99           .         GR.UR/H = RGR.IMP/MIN / 45.5144: 
PROJECT_UPGRADE_TIME .         2021-03-18T21_24_50           : 
PRTY               .         ПП-601-1                      : N партии
SRVC               .         Барковский                    : Начальник партии
TLFamily_DEPT      .         Measured Depth                : 
TLFamily_LM        .         Casing Collar locator         : 
TLFamily_METKA     .                                       : 
TLFamily_MN        .                                       : 
TLFamily_TM        .         Temperature                   : 
group              .         second                        : 
~Curve Information
#_______________________________________________________________________________
#
#LOGNAME           .UNIT     LOG_ID                        : DESCRIPTION
#_______________________________________________________________________________
DEPT               .M                                      : Depth curve 
LM                 .е.ацп                                  : Локатор муфт,е.ацп 
METKA              .е.ацп                                  : Магнитные метки,е.ацп 
MN                 .атм                                    : 12 Давление, атм. -  160.0 см 
TM                 .град.C                                 : Термограмма по стволу скважины,град.C 
~Ascii
44.8       -9999      -9999      -9999      -9999     
45         -9999      0          -9999      -9999     
45.2       235        0          -9999      -9999     
45.4       223        0          -9999      -9999     
45.6       209        0          -9999      -9999     
45.8       212        0          -9999      -9999     
46         257        0          -9999      -9999     
46.2       284        0          -9999      -9999     
46.4       240        0          -9999      -9999     
46.6       242        0          -9999      -9999     
46.8       210        0          8.905      19.297    
47         199        0          8.922      19.299    
47.2       239        0          8.917      19.299    
47.4       224        0          8.987      19.299    
47.6       169        0          8.968      19.299    
47.8       172        0          9.018      19.303    
48         135        0          9.013      19.303    
48.2       144        0          9.05       19.303    
48.4       378.999    0          9.039      19.303    
48.6       2694.992   0          9.111      19.303    
48.8       1221.005   0          9.073      19.303    
49         912.001    0          9.103      19.303    
49.2       692.001    0          9.132      19.303    
49.4       360.001    0          9.134      19.303    
49.6       355        0          9.14       19.303    
49.8       404        0          9.199      19.303    
50         307        0          9.187      19.303    
50.2       376        0          9.204      19.303    
50.4       355        0          9.259      19.299    
50.6       273        0          9.239      19.299    
50.8       321        0          9.28       19.299    
51         364        0          9.258      19.297    
51.2       279        0          9.28       19.295    
51.4       274        0          9.327      19.295    
51.6       216        0          9.267      19.295    
51.8       234        0          9.375      19.292    
52         227        0          9.362      19.291    
52.2       279        0          9.419      19.291    
52.4       271        0          9.342      19.291    
52.6       247        0          9.452      19.291    
52.8       244        0          9.449      19.291    
53         210        0          9.486      19.291    
53.2       238        0          9.474      19.287    
53.4       242        0          9.492      19.287    
53.6       242        0          9.517      19.287    
53.8       244        0          9.525      19.283    
54         269        0          9.574      19.283    
54.2       247        0          9.579      19.283    
54.4       232        0          9.606      19.28     
54.6       208        0          9.623      19.281    
54.8       220        0          9.612      19.279    
55         268        2          9.631      19.275    
55.2       289        0          9.652      19.275    
55.4       244        0          9.689      19.271    
55.6       302        0          9.694      19.271    
55.8       295        0          9.704      19.268    
56         305        0          9.747      19.267    
56.2       291        0          9.736      19.267    
56.4       325        0          9.775      19.264    
56.6       307        0          9.775      19.263    
56.8       317        0          9.775      19.263    
57         345        0          9.83       19.26     
57.2       309        0          9.83       19.259    
57.4       298        0          9.876      19.258    
57.6       341        0          9.859      19.255    
57.8       269        0          9.92       19.255    
58         272        0          9.899      19.254    
58.2       251        0          9.968      19.251    
58.4       2971.992   0          9.898      19.251    
58.6       2261.002   0          10.023     19.247    
58.8       1028.003   0          9.988      19.247    
59         716.001    0          10.044     19.247    
59.2       579        0          10.023     19.247    
59.4       372.001    0          10.043     19.244    
59.6       299        0          10.059     19.243    
59.8       329        0          10.085     19.243    
60         307        0          10.093     19.243    
60.2       335        0          10.106     19.243    
60.4       293        0          10.129     19.243    
60.6       214        0          10.168     19.243    
60.8       223        0          10.184     19.243    
61         251        0          10.21      19.243    
61.2       257        0          10.21      19.243    
61.4       347        0          10.179     19.243    
61.6       347        0          10.293     19.243    
61.8       347        0          10.251     19.24     
62         347        0          10.251     19.239    
62.2       347        0          10.31      19.24     
62.4       347        0          10.272     19.243    
62.6       347        0          10.341     19.243    
62.8       347        0          10.356     19.244    
63         347        0          10.372     19.245    
63.2       335        0          10.387     19.246    
63.4       314        0          10.403     19.247    
63.6       265        0          10.418     19.247    
63.8       245        0          10.433     19.248    
64         256        0          10.449     19.249    
64.2       270        0          10.461     19.25     
64.4       216        0          10.486     19.254    
64.6       203        0          10.503     19.255    
64.8       317        0          10.508     19.255    
65         302        2          10.546     19.255    
65.2       254        0          10.566     19.255    
65.4       279        0          10.579     19.253    
65.6       247        0          10.614     19.251    
65.8       309        0          10.628     19.252    
66         232        0          10.638     19.255    
66.2       227        0          10.66      19.255    
66.4       244        0          10.669     19.251    
66.6       259        0          10.704     19.251    
66.8       239        0          10.715     19.251    
67         319        0          10.752     19.251    
67.2       309        0          10.766     19.251    
67.4       267        0          10.766     19.247    
67.6       338        0          10.814     19.247    
67.8       307        0          10.807     19.247    
68         272        0          10.835     19.243    
68.2       331        0          10.814     19.243    
68.4       367        0          10.861     19.24     
68.6       4194.992   0          10.889     19.239    
68.8       2930.003   0          10.875     19.235    
69         1442.003   0          10.937     19.232    
69.2       1084.001   0          10.951     19.231    
69.4       890        0          10.958     19.227    
69.6       686        0          10.957     19.224    
69.8       540        0          10.998     19.223    
70         721        0          10.998     19.217    
70.2       700        0          11.033     19.215    
70.4       574        0          11.058     19.21     
70.6       563        0          11.038     19.206    
70.8       441        0          11.1       19.204    
71         444        0          11.114     19.198    
71.2       391        0          11.119     19.196    
71.4       295        0          11.133     19.19     
71.6       377        0          11.16      19.186    
71.8       360        0          11.098     19.182    
72         398        0          11.193     19.18     
72.2       347        0          11.195     19.178    
72.4       389        0          11.242     19.173    
72.6       373        0          11.25      19.17     
72.8       382        0          11.262     19.166    
73         553        0          11.303     19.161    
73.2       615        0          11.288     19.156    
73.4       805        0          11.331     19.15     
73.6       975        0          11.322     19.149    
73.8       766        0          11.346     19.143    
