~Version
 VERS              .         2.0                           : CWLS LOG ASCII STANDARD - VERSION 2.0
 WRAP              .         NO                            : ONE LINE PER DEPTH STEP
 DLM               .         SPACE                         : DELIMITING CHARACTER(SPACE TAB OR COMMA)
~Well Information
#_______________________________________________________________________________
#
#PARAMETER_NAME    .UNIT     VALUE                         : DESCRIPTION
#_______________________________________________________________________________
STRT               .M        10.2                          : First reference value
STOP               .M        2753.6                        : Last reference value
STEP               .M        0.2                           : Step increment
NULL               .         -9999                         : Missing value
COMP               .                                       : Company
WELL               .         616                           : Well name
FLD                .                                       : Field
LOC                .                                       : Location
CNTY               .                                       : County
STAT               .                                       : State
CTRY               .                                       : Country
SRVC               .                                       : Service Company
DATE               .                                       : Date
API                .                                       : API number
PROJECT_UPGRADE_TIME .         2021-03-18T21_24_50           : 
group              .         Good                          : 
~Parameter Information Block
#_______________________________________________________________________________
#
#PARAMETER_NAME    .UNIT     VALUE                         : DESCRIPTION
#_______________________________________________________________________________
SET                .         D7028_D                       : 
OTHER              .         Kedr.exe версия 2.1.2.32      : 
OTHER_10           .         TM.GRD = 0.00404*TM$.UE + 0.07: 
OTHER_11           .         MN.ATM = (6.33279e-006*TM.GRD + 0.02401)*(MN$.UE + 2.72*TM.GRD + -2018): 
OTHER_12           .         GK.MKR/H = GK$.UE / 43.5489 + 0: 
OTHER_13           .         RES.SM = 0.00476*CRES.UE - 1.51709: 
OTHER_14           .         PL.GSM3 = 0 + 0 * (PL.UE / 1) +  0 * (PL.UE / 1)^2: 
OTHER_15           .         Постоянная времени ГГП = 6 сек: 
OTHER_16           .         Постоянная времени ГК = 6 сек : 
OTHER_2            .         KedrData.dll версия 3.2.2.14  : 
OTHER_3            .         LasInf.dll версия 3.2.0.13    : 
OTHER_4            .         Драйвер версия 1.2.0.5        : 
OTHER_5            .         Прибор_ КСА-M1                : 
OTHER_6            .         Номер прибора_ 155+р204       : 
OTHER_7            .         Режим_ КСА-М1 + ГГП + Резистивиметр: 
OTHER_8            .         Форма_ 223\2                  : 
OTHER_9            .         Тарировки_                    : 
PROJECT_UPGRADE_TIME .         2021-03-18T21_24_50           : 
TLFamily_CRES      .                                       : 
TLFamily_DEPT      .         Measured Depth                : 
TLFamily_GK        .         Gamma Ray                     : 
TLFamily_GK$       .                                       : 
TLFamily_LM        .         Casing Collar locator         : 
TLFamily_METKA     .                                       : 
TLFamily_MN        .                                       : 
TLFamily_MN$       .                                       : 
TLFamily_PL        .                                       : 
TLFamily_PL_2      .                                       : 
TLFamily_RCOR      .                                       : 
TLFamily_RES       .         Mud Resistivity               : 
TLFamily_SPID      .         Spontaneous Potential         : 
TLFamily_STD       .                                       : 
TLFamily_TIME      .         Time                          : 
TLFamily_TM        .         Temperature                   : 
TLFamily_TM$       .         Temperature                   : 
TLFamily_VGD       .         Gas Volume                    : 
group              .         prim                          : 
~Curve Information
#_______________________________________________________________________________
#
#LOGNAME           .UNIT     LOG_ID                        : DESCRIPTION
#_______________________________________________________________________________
DEPT               .M                                      : 1 Глубина, м -    0.0 см 
CRES               .UE                                     : 9 Проводимость, усл.ед. -  222.0 см 
GK                 .MKR/H                                  : 16 Гамма-активность, мкр./ч -  106.0 см 
GK$                .UE                                     : 13 Гамма-активность, усл.ед. -  106.0 см 
LM                 .                                       : 11 Локатор муфт,  -   16.0 см 
METKA              .                                       : 3 Метки,  -    0.0 см 
MN                 .ATM                                    : 15 Давление, атм. -  160.0 см 
MN$                .UE                                     : 7 Давление, усл.ед. -  160.0 см 
PL                 .UE                                     : 10 Плотность, усл.ед. -  270.0 см 
PL_2               .GSM3                                   : 18 Плотность, г./см3 -  270.0 см 
RCOR               .CM/KM                                  : 5 Коррекция по ролику, см/км -    0.0 см 
RES                .SM                                     : 17 Проводимость,  -  222.0 см 
SPID               .M/H                                    : 2 Скорость, м/час -    0.0 см 
STD                .                                       : 12 Приток,  -  170.0 см 
TIME               .S                                      : 4 Время, сек -    0.0 см 
TM                 .GRD                                    : 14 Температура, °C -  180.0 см 
TM$                .UE                                     : 6 Температура, усл.ед. -  180.0 см 
VGD                .                                       : 8 Влагомер,  -  170.0 см 
~Ascii
# ...
559.6      890        4.46       196        1840       0          52.729     4134       14         0          0          2.7214     -1790      4760       23083.08   24.303     5998       6497      
559.8      889        4.46       193        1827       1          52.729     4134       14         0          0          2.7162     -1790      4761       23082.68   24.311     6000       6493      
560        891        4.46       193        2080       0          52.765     4135       14         0          0          2.7241     -1811      4763       23082.23   24.314     6001       6489      
560.2      892        4.47       193        2068       0          52.779     4136       14         0          0          2.7268     -1812      4763       23081.7    24.323     6003       6494      
560.4      891        4.48       193        1657       0          52.822     4138       15         0          0          2.7231     -1790      4765       23081.31   24.33      6005       6489      
560.6      891        4.49       193        2019       0          52.828     4138       14         0          0          2.7223     -1844      4766       23080.92   24.337     6007       6494      
560.8      889        4.51       194        1906       0          52.851     4139       14         0          0          2.7138     -1801      4766       23080.52   24.342     6008       6511      
561        891        4.52       195        1774       0          52.877     4140       14         0          0          2.7248     -1790      4765       23080.12   24.35      6010       6504      
561.2      892        4.53       195        1775       0          52.878     4140       13         0          0          2.7288     -1790      4768       23079.72   24.354     6011       6498      
561.4      892        4.54       195        1561       0          52.902     4141       13         0          0          2.7288     -1790      4771       23079.32   24.363     6013       6512      
561.6      893        4.56       195        1375       0          52.91      4141       13         0          0          2.7331     -1790      4773       23078.92   24.363     6013       6506      
561.8      892        4.58       195        1547       0          52.944     4143       13         0          0          2.7293     -1801      4773       23078.52   24.369     6015       6480      
562        890        4.6        199        1670       0          52.952     4143       14         0          0          2.7198     -1860      4774       23078.12   24.38      6017       6488      
562.2      892        4.61       202        1969       0          52.971     4144       14         0          0          2.7288     -1841      4776       23077.73   24.388     6019       6518      
562.4      891        4.6        202        1839       0          52.997     4145       14         0          0          2.7261     -1790      4778       23077.31   24.391     6020       6529      
562.6      893        4.6        202        2103       0          52.98      4144       14         0          0          2.7326     -1790      4778       23076.91   24.394     6021       6512      
562.8      895        4.58       202        1755       0          53.024     4146       14         0          0          2.7415     -1790      4780       23076.51   24.398     6022       6501      
563        894        4.57       202        1983       0          53.052     4147       14         0          0          2.7361     -1790      4782       23076.11   24.407     6024       6494      
563.2      893        4.55       202        1758       0          53.073     4148       14         0          0          2.7336     -1834      4782       23075.71   24.415     6026       6504      
563.4      893        4.53       199        1733       0          53.056     4147       14         0          0          2.7336     -1860      4783       23075.32   24.42      6027       6506      
563.6      892        4.53       199        1674       0          53.082     4148       14         0          0          2.7291     -1860      4784       23074.93   24.424     6028       6510      
563.8      893        4.51       199        1995       0          53.108     4149       14         0          0          2.7336     -1807      4786       23074.54   24.43      6030       6519      
564        894        4.5        199        1948       0          53.135     4150       14         0          0          2.7381     -1898      4787       23074.13   24.44      6032       6504      
564.2      893        4.48       199        1651       0          53.151     4151       13         0          0          2.7341     -1869      4788       23073.75   24.446     6034       6509      
564.4      894        4.46       198        1744       0          53.163     4152       13         0          0          2.7376     -1860      4789       23073.35   24.451     6035       6501      
564.6      893        4.44       195        1559       0          53.176     4152       14         0          0          2.7348     -1794      4791       23072.97   24.457     6037       6506      
564.8      894        4.44       195        1433       0          53.207     4153       13         0          0          2.7383     -1790      4793       23072.59   24.464     6038       6509      
565        894        4.43       195        1712       0          53.225     4154       14         0          0          2.7402     -1790      4793       23072.19   24.469     6039       6503      
565.2      895        4.41       195        1843       0          53.225     4154       13         0          0          2.7409     -1860      4794       23071.8    24.472     6040       6495      
565.4      894        4.4        195        2471       0          53.244     4155       14         0          0          2.7383     -1849      4796       23071.38   24.477     6041       6520      
565.6      894        4.38       195        2836       0          53.311     4158       13         0          0          2.7383     -1805      4797       23070.98   24.483     6043       6505      
565.8      894        4.35       189        4226       0          53.324     4158       14         0          0          2.7383     -1860      4797       23070.58   24.49      6045       6489      
566        894        4.36       186        6624       0          53.324     4158       14         0          0          2.7383     -1834      4797       23070.18   24.499     6047       6495      
566.2      893        4.38       186        2329       0          53.324     4158       13         0          0          2.7315     -1790      4799       23069.79   24.5       6047       6490      
566.4      893        4.41       186        2055       0          53.371     4160       14         0          0          2.7324     -1818      4800       23069.41   24.5       6047       6482      
566.6      891        4.44       186        1825       0          53.349     4159       13         0          0          2.7217     -1860      4801       23069.01   24.511     6050       6478      
566.8      891        4.48       186        1738       0          53.375     4160       14         0          0          2.7234     -1823      4803       23068.61   24.516     6051       6481      
567        892        4.54       187        1700       0          53.403     4161       13         0          0          2.7281     -1790      4805       23068.21   24.521     6052       6478      
567.2      893        4.59       199        1642       0          53.429     4162       14         0          0          2.7331     -1790      4806       23067.81   24.53      6054       6483      
567.4      892        4.6        199        1314       0          53.448     4163       13         0          0          2.7291     -1790      4807       23067.41   24.542     6057       6483      
567.6      894        4.61       199        1624       0          53.457     4163       14         0          0          2.7383     -1790      4808       23067      24.547     6059       6479      
