~Version
 VERS              .         2.0                           : CWLS LOG ASCII STANDARD - VERSION 2.0
 WRAP              .         NO                            : ONE LINE PER DEPTH STEP
 DLM               .         SPACE                         : DELIMITING CHARACTER(SPACE TAB OR COMMA)
~Well Information
#_______________________________________________________________________________
#
#PARAMETER_NAME    .UNIT     VALUE                         : DESCRIPTION
#_______________________________________________________________________________
STRT               .M        2664                          : First reference value
STOP               .M        2769.2                        : Last reference value
STEP               .M        0.1999999                     : Step increment
NULL               .         -9999                         : Missing value
COMP               .                                       : Company
WELL               .         616                           : Well name
FLD                .                                       : Field
LOC                .                                       : Location
CNTY               .                                       : County
STAT               .                                       : State
CTRY               .                                       : Country
SRVC               .                                       : Service Company
DATE               .                                       : Date
API                .                                       : API number
PROJECT_UPGRADE_TIME .         2021-03-18T21_24_50           : 
group              .         Good                          : 
~Parameter Information Block
#_______________________________________________________________________________
#
#PARAMETER_NAME    .UNIT     VALUE                         : DESCRIPTION
#_______________________________________________________________________________
SET                .         D1161_D                       : 
OTHER              .         Программное обеспечение станции MONITOR-386EX 25/12/99 15_08_10   BGF V52 22/08/01 16_56_30   3.2_BGF_N_3070031: 
OTHER_10           .         Тарировки_                    : 
OTHER_11           .         TM.GRD = 0.00403*TM$.UE + -1.19: 
OTHER_12           .         MN.ATM = (7.1e-006*TM.GRD + 0.02017)*(MN$.UE + -3.03*TM.GRD + -1833): 
OTHER_13           .         Id error                      : 
OTHER_2            .         Kedr.exe версия 3.4.2.51      : 
OTHER_3            .         KedrData.dll версия 3.4.2.24  : 
OTHER_4            .         Драйвер версия 2.1.1.8        : 
OTHER_5            .         Мнемоники версия 3.3 S        : 
OTHER_6            .         Прибор_ КСА-М1                : 
OTHER_7            .         Номер прибора_ 265            : 
OTHER_8            .         Режим_ КСА-М1                 : 
OTHER_9            .         Форма_ ТЕРМОМЕТР              : 
PROJECT_UPGRADE_TIME .         2021-03-18T21_24_49           : 
TLFamily_DEPT      .         Measured Depth                : 
TLFamily_GK        .         Gamma Ray                     : 
TLFamily_GK$       .                                       : 
TLFamily_LM        .         Casing Collar locator         : 
TLFamily_METKA     .                                       : 
TLFamily_MN        .                                       : 
TLFamily_MN$       .                                       : 
TLFamily_RCOR      .                                       : 
TLFamily_SPID      .         Spontaneous Potential         : 
TLFamily_STD       .                                       : 
TLFamily_TENS      .         Cable Tension                 : 
TLFamily_TIME      .         Time                          : 
TLFamily_TM        .         Temperature                   : 
TLFamily_TM$       .         Temperature                   : 
TLFamily_VGD       .         Gas Volume                    : 
group              .         prim                          : 
~Curve Information
#_______________________________________________________________________________
#
#LOGNAME           .UNIT     LOG_ID                        : DESCRIPTION
#_______________________________________________________________________________
DEPT               .M                                      : 1 Глубина, м -    0.0 см 
GK                 .MKR/H                                  : 15 Гамма-активность, мкр./ч -  110.0 см 
GK$                .UE                                     : 12 Гамма-активность, усл.ед. -  110.0 см 
LM                 .                                       : 10 Локатор муфт,  -   20.0 см 
METKA              .                                       : 3 Метки,  -    0.0 см 
MN                 .ATM                                    : 14 Давление, атм. -  160.0 см 
MN$                .UE                                     : 8 Давление, усл.ед. -  160.0 см 
RCOR               .CM/KM                                  : 5 Коррекция по ролику, см/км -    0.0 см 
SPID               .M/H                                    : 2 Скорость, м/час -    0.0 см 
STD                .                                       : 11 Приток,  -  170.0 см 
TENS               .T                                      : 6 Натяжение кабеля, т -    0.0 см 
TIME               .S                                      : 4 Время, сек -    0.0 см 
TM                 .GRD                                    : 13 Температура, °C -  180.0 см 
TM$                .UE                                     : 7 Температура, усл.ед. -  180.0 см 
VGD                .                                       : 9 Влагомер,  -  170.0 см 
~Ascii
# ...
2673.8     8.89       377        1          0          247.975    14025      -1400      -313       32266      0          17237.88   87.51      22010      6514      
2674       9.15       384        1          0          247.975    14025      -1400      -308       32269      0          17235.58   87.514     22011      6514      
2674.2     8.94       397        1          0          247.996    14026      -1400      -307       32276      0          17233.21   87.517     22012      6514      
2674.4     8.4        375        1          0          248.022    14027      -1400      -307       32278      0          17230.85   87.522     22013      6514      
2674.6     8.3        350        1          0          248.058    14029      -1400      -308       32279      0          17228.59   87.526     22014      6514      
2674.8     8.38       360        1          0          248.074    14030      -1400      -305       32280      0          17226.22   87.534     22016      6514      
2675       8.28       357        1          0          248.08     14030      -1400      -311       32280      0          17223.74   87.539     22017      6513      
2675.2     8.22       347        1          0          248.1      14031      -1400      -308       32290      0          17221.48   87.543     22018      6513      
2675.4     8.6        362        1          0          248.121    14032      -1400      -307       32292      0          17219.22   87.547     22019      6513      
2675.6     8.85       378        1          0          248.142    14033      -1400      -301       32295      0          17216.85   87.551     22020      6513      
2675.8     8.84       379        1          0          248.163    14034      -1400      -310       32293      0          17214.38   87.555     22021      6514      
2676       8.74       374        1          0          248.184    14035      -1400      -306       32292      0          17212.13   87.561     22023      6514      
2676.2     8.7        372        1          0          248.205    14036      -1400      -300       32299      0          17209.86   87.567     22024      6513      
2676.4     8.73       369        1          0          248.226    14037      -1400      -313       32303      0          17207.39   87.575     22026      6513      
2676.6     9.29       393        1          0          248.267    14039      -1400      -307       32307      0          17205.13   87.575     22026      6512      
2676.8     10.01      430        1          0          248.288    14040      -1400      -307       32305      0          17202.76   87.581     22028      6512      
2677       9.59       416        1          0          248.288    14040      -1400      -300       32304      0          17200.5    87.583     22028      6512      
2677.2     8.79       400        1          0          248.309    14041      -1400      -309       32306      0          17198.02   87.587     22029      6512      
2677.4     8.25       365        1          0          248.351    14043      -1400      -310       32308      0          17195.69   87.595     22031      6512      
2677.6     8.12       343        1          0          248.372    14044      -1400      -302       32310      0          17193.39   87.596     22031      6512      
2677.8     8.6        345        1          0          248.372    14044      -1400      -313       32311      0          17191.02   87.603     22033      6511      
2678       9.24       384        1          0          248.414    14046      -1400      -308       32317      0          17188.66   87.611     22035      6512      
2678.2     9.63       409        1          0          248.43     14047      -1400      -310       32324      0          17186.39   87.613     22036      6513      
2678.4     9.7        417        1          0          248.435    14047      -1400      -303       32329      0          17184.13   87.623     22038      6512      
2678.6     9.64       408        1          0          248.456    14048      -1400      -309       32331      0          17181.66   87.627     22039      6512      
2678.8     10.09      425        1          0          248.482    14049      -1400      -309       32333      0          17179.29   87.633     22041      6511      
2679       10.45      452        1          0          248.497    14050      -1400      -301       32334      0          17177.03   87.636     22041      6511      
2679.2     9.9        430        1          0          248.518    14051      -1400      -305       32334      0          17174.73   87.639     22042      6511      
2679.4     9.08       387        1          0          248.539    14052      -1400      -311       32335      0          17172.29   87.643     22043      6510      
2679.6     9.26       393        1          0          248.56     14053      -1400      -304       32329      0          17170.03   87.645     22043      6511      
2679.8     9.78       420        1          0          248.586    14054      -1400      -301       32333      0          17167.66   87.651     22045      6511      
2680       9.48       407        1          2          248.602    14055      -1400      -311       32336      0          17165.19   87.655     22046      6510      
2680.2     9.16       393        1          0          248.623    14056      -1400      -304       32338      0          17162.71   87.661     22048      6511      
2680.4     9.32       393        1          0          248.644    14057      -1400      -302       32339      0          17160.45   87.667     22049      6510      
2680.6     9.42       401        1016       0          248.665    14058      -1400      -304       32335      0          17157.97   87.67      22050      6511      
2680.8     9.17       407        1236       0          248.685    14059      -1400      -310       32332      0          17155.71   87.672     22050      6510      
2681       9.02       369        1          0          248.706    14060      -1400      -308       32333      0          17153.35   87.68      22052      6510      
2681.2     9.97       395        1          0          248.707    14060      -1400      -310       32340      0          17151.09   87.688     22054      6510      
2681.4     10.42      449        1          0          248.733    14061      -1400      -314       32341      0          17148.61   87.692     22055      6510      
2681.6     10.02      445        1          0          248.759    14063      -1400      -309       32341      0          17146.35   87.695     22056      6510      
2681.8     9.14       395        1          0          248.79     14064      -1400      -310       32342      0          17144.02   87.698     22056      6510      
2682       8.9        379        1          0          248.8      14065      -1400      -310       32347      0          17141.61   87.701     22057      6510      
2682.2     9.01       383        1          0          248.816    14065      -1400      -311       32354      0          17139.35   87.706     22059      6510      
2682.4     9.3        390        1          0          248.842    14067      -1400      -311       32359      0          17136.98   87.712     22060      6509      
2682.6     9.9        427        1          0          248.853    14067      -1400      -304       32359      0          17134.72   87.716     22061      6509      
2682.8     9.47       406        1          0          248.894    14069      -1400      -309       32363      0          17132.24   87.72      22062      6508      
2683       9.3        395        1          0          248.895    14069      -1400      -303       32364      0          17129.98   87.728     22064      6508      
2683.2     9.64       412        1          0          248.936    14071      -1400      -298       32367      0          17127.62   87.732     22065      6508      
2683.4     9.64       412        1          0          248.936    14071      -1400      -311       32371      0          17125.25   87.737     22066      6508      
