~Version
 VERS              .         2.0                           : CWLS LOG ASCII STANDARD - VERSION 2.0
 WRAP              .         NO                            : ONE LINE PER DEPTH STEP
 DLM               .         SPACE                         : DELIMITING CHARACTER(SPACE TAB OR COMMA)
~Well Information
#_______________________________________________________________________________
#
#PARAMETER_NAME    .UNIT     VALUE                         : DESCRIPTION
#_______________________________________________________________________________
STRT               .M        2647.6                        : First reference value
STOP               .M        2755.199839                   : Last reference value
STEP               .M        0.1999997                     : Step increment
NULL               .         -9999                         : Missing value
COMP               .                                       : Company
WELL               .         616                           : Well name
FLD                .                                       : Field
LOC                .                                       : Location
CNTY               .                                       : County
STAT               .                                       : State
CTRY               .                                       : Country
SRVC               .                                       : Service Company
DATE               .                                       : Date
API                .                                       : API number
PROJECT_UPGRADE_TIME .         2021-03-18T21_24_50           : 
group              .         Good                          : 
~Parameter Information Block
#_______________________________________________________________________________
#
#PARAMETER_NAME    .UNIT     VALUE                         : DESCRIPTION
#_______________________________________________________________________________
SET                .         D7024_D                       : 
OTHER              .         Kedr.exe версия 2.1.2.32      : 
OTHER_10           .         TM.GRD = 0.00404*TM$.UE + 0.07: 
OTHER_11           .         MN.ATM = (6.33279e-006*TM.GRD + 0.02401)*(MN$.UE + 2.72*TM.GRD + -2018): 
OTHER_12           .         GK.MKR/H = GK$.UE / 43.5489 + 0: 
OTHER_13           .         RES.SM = 0.00476*CRES.UE - 1.51709: 
OTHER_14           .         PL.GSM3 = 0 + 0 * (PL.UE / 1) +  0 * (PL.UE / 1)^2: 
OTHER_15           .         Постоянная времени ГГП = 6 сек: 
OTHER_16           .         Постоянная времени ГК = 6 сек : 
OTHER_2            .         KedrData.dll версия 3.2.2.14  : 
OTHER_3            .         LasInf.dll версия 3.2.0.13    : 
OTHER_4            .         Драйвер версия 1.2.0.5        : 
OTHER_5            .         Прибор_ КСА-M1                : 
OTHER_6            .         Номер прибора_ 155+р204       : 
OTHER_7            .         Режим_ КСА-М1 + ГГП + Резистивиметр: 
OTHER_8            .         Форма_ 223\2                  : 
OTHER_9            .         Тарировки_                    : 
PROJECT_UPGRADE_TIME .         2021-03-18T21_24_50           : 
TLFamily_CRES      .                                       : 
TLFamily_DEPT      .         Measured Depth                : 
TLFamily_GK        .         Gamma Ray                     : 
TLFamily_GK$       .                                       : 
TLFamily_LM        .         Casing Collar locator         : 
TLFamily_METKA     .                                       : 
TLFamily_MN        .                                       : 
TLFamily_MN$       .                                       : 
TLFamily_PL        .                                       : 
TLFamily_PL_2      .                                       : 
TLFamily_RCOR      .                                       : 
TLFamily_RES       .         Mud Resistivity               : 
TLFamily_SPID      .         Spontaneous Potential         : 
TLFamily_STD       .                                       : 
TLFamily_TIME      .         Time                          : 
TLFamily_TM        .         Temperature                   : 
TLFamily_TM$       .         Temperature                   : 
TLFamily_VGD       .         Gas Volume                    : 
group              .         prim                          : 
~Curve Information
#_______________________________________________________________________________
#
#LOGNAME           .UNIT     LOG_ID                        : DESCRIPTION
#_______________________________________________________________________________
DEPT               .M                                      : 1 Глубина, м -    0.0 см 
CRES               .UE                                     : 9 Проводимость, усл.ед. -  222.0 см 
GK                 .MKR/H                                  : 16 Гамма-активность, мкр./ч -  106.0 см 
GK$                .UE                                     : 13 Гамма-активность, усл.ед. -  106.0 см 
LM                 .                                       : 11 Локатор муфт,  -   16.0 см 
METKA              .                                       : 3 Метки,  -    0.0 см 
MN                 .ATM                                    : 15 Давление, атм. -  160.0 см 
MN$                .UE                                     : 7 Давление, усл.ед. -  160.0 см 
PL                 .UE                                     : 10 Плотность, усл.ед. -  270.0 см 
PL_2               .GSM3                                   : 18 Плотность, г./см3 -  270.0 см 
RCOR               .CM/KM                                  : 5 Коррекция по ролику, см/км -    0.0 см 
RES                .SM                                     : 17 Проводимость,  -  222.0 см 
SPID               .M/H                                    : 2 Скорость, м/час -    0.0 см 
STD                .                                       : 12 Приток,  -  170.0 см 
TIME               .S                                      : 4 Время, сек -    0.0 см 
TM                 .GRD                                    : 14 Температура, °C -  180.0 см 
TM$                .UE                                     : 6 Температура, усл.ед. -  180.0 см 
VGD                .                                       : 8 Влагомер,  -  170.0 см 
~Ascii
# ...
2721.399889 1200       7.47       338        143        0          376.194    17321      14         0          0          4.1925     580        10546      16315.38   53.833     13308      6703      
2721.599889 1195       7.62       338        127        0          375.897    17310      14         0          0          4.169      580        10522      16316.71   53.753     13288      6705      
2721.799889 1192       7.55       321        103        0          376.996    17357      14         0          0          4.1568     533        10476      16318.01   53.609     13252      6701      
2721.999888 1191       7.46       321        124        0          376.821    17351      14         0          0          4.1521     545        10443      16319.28   53.253     13164      6703      
2722.199888 1195       7.47       327        118        0          375.427    17296      14         0          0          4.1711     580        10407      16320.61   53.055     13115      6704      
2722.399888 1194       7.49       327        101        0          375.5      17300      14         0          0          4.1648     580        10372      16321.88   52.792     13050      6705      
2722.599888 1192       8.01       373        130        0          375.204    17289      14         0          0          4.1552     522        10337      16323.15   52.621     13008      6706      
2722.799887 1190       8.31       380        179        0          374.469    17260      14         0          0          4.1489     510        10297      16324.5    52.474     12971      6706      
2722.999887 1189       8.65       393        200        0          374.998    17282      14         0          0          4.1425     580        10263      16325.77   52.349     12940      6706      
2723.199887 1188       8.84       393        139        0          374.668    17270      14         0          0          4.1378     580        10231      16327.04   52.205     12905      6707      
2723.399886 1189       9.47       444        102        0          376.145    17331      14         0          0          4.141      580        10207      16328.38   52.08      12874      6707      
2723.599886 1188       9.85       448        109        0          376.399    17342      14         0          0          4.1378     550        10187      16329.68   51.992     12852      6708      
2723.799886 1187       10.19      459        414        0          378.452    17427      14         0          0          4.1307     580        10167      16330.98   51.913     12832      6716      
2723.999885 1187       10.36      459        183        0          378.251    17419      14         0          0          4.133      522        10154      16332.27   51.841     12815      6719      
2724.199885 1185       10.45      459        86         0          379.338    17464      14         0          0          4.1259     570        10137      16333.59   51.762     12795      6721      
2724.399885 1188       10.75      512        246        0          377.642    17395      14         0          0          4.1378     557        10119      16334.87   51.67      12772      6720      
2724.599884 1187       11.25      512        146        0          378.694    17439      14         0          0          4.1314     580        10104      16336.17   51.598     12754      6720      
2724.799884 1186       11.47      508        115        0          377.921    17407      14         0          0          4.1289     522        10092      16337.48   51.541     12740      6720      
2724.999884 1187       11.56      508        91         0          378.169    17418      14         0          0          4.1322     580        10078      16338.76   51.494     12729      6719      
2725.199884 1186       11.37      451        115        0          376.939    17368      14         0          0          4.1299     557        10066      16340.1    51.434     12714      6718      
2725.399883 1184       10.86      451        4024       0          376.476    17349      14         0          0          4.1187     580        10053      16341.39   51.367     12697      6717      
2725.599883 1183       10.09      373        4743       0          375.689    17317      14         0          0          4.1155     580        10042      16342.72   51.323     12686      6724      
2725.799883 1183       9.35       373        717        0          375.832    17324      14         0          0          4.1119     510        10028      16343.99   51.222     12661      6725      
2725.999882 1167       8.63       330        205        0          375.858    17326      14         0          0          4.0394     510        10013      16345.33   51.118     12636      6725      
2726.199882 1171       8.11       330        106        0          377.839    17408      14         0          0          4.0569     580        9997       16346.6    51.008     12608      6723      
2726.399882 1168       8.23       370        87         0          375.153    17298      14         0          0          4.0407     533        9984       16347.88   50.918     12586      6723      
2726.599881 1163       8.36       370        78         0          376.703    17362      14         0          0          4.0187     580        9969       16349.16   50.853     12570      6724      
2726.799881 1176       8.49       378        80         0          376.51     17355      14         0          0          4.0786     510        9954       16350.42   50.74      12542      6724      
2726.999881 1179       8.58       378        79         0          377.37     17391      14         0          0          4.0973     580        9934       16351.76   50.639     12517      6724      
2727.199881 1180       8.69       384        78         0          378.893    17454      14         0          0          4.0997     545        9915       16353.03   50.564     12498      6726      
2727.39988 1178       8.75       384        84         0          379.387    17475      14         0          0          4.0902     561        9897       16354.39   50.476     12477      6725      
2727.59988 1177       9.18       421        81         0          378.537    17440      14         0          0          4.0871     568        9883       16355.72   50.433     12466      6723      
2727.79988 1176       9.42       422        95         0          378.3      17430      14         0          0          4.0807     580        9871       16357.02   50.411     12461      6723      
2727.999879 1176       9.6        427        81         0          377.986    17418      14         0          0          4.0793     557        9858       16358.32   50.37      12450      6725      
2728.199879 1175       9.72       431        71         0          378.057    17421      14         0          0          4.0759     580        9846       16359.65   50.31      12436      6725      
2728.399879 1172       9.86       435        95         0          377.868    17414      14         0          0          4.0616     580        9834       16360.92   50.238     12418      6723      
2728.599878 1171       9.89       427        127        0          377.259    17390      14         0          0          4.0584     550        9826       16362.24   50.134     12392      6723      
2728.799878 1170       9.38       386        91         0          377.006    17380      14         0          0          4.0521     580        9810       16363.55   50.037     12368      6726      
2728.999878 1168       9.24       413        98         0          376.05     17342      14         0          0          4.044      580        9783       16364.81   49.907     12336      6729      
2729.199878 1167       9.51       426        93         0          376.051    17343      14         0          0          4.0378     510        9754       16366.15   49.803     12310      6728      
2729.399877 1166       10.18      535        87         0          376.774    17374      14         0          0          4.0323     580        9727       16367.42   49.682     12280      6728      
