~Version
 VERS              .         2.0                           : CWLS LOG ASCII STANDARD - VERSION 2.0
 WRAP              .         NO                            : ONE LINE PER DEPTH STEP
 DLM               .         SPACE                         : DELIMITING CHARACTER(SPACE TAB OR COMMA)
~Well Information
#_______________________________________________________________________________
#
#PARAMETER_NAME    .UNIT     VALUE                         : DESCRIPTION
#_______________________________________________________________________________
STRT               .M        2707.1                        : First reference value
STOP               .M        2752.29995                    : Last reference value
STEP               .M        0.09999989                    : Step increment
NULL               .         -9999                         : Missing value
COMP               .                                       : Company
WELL               .         616                           : Well name
FLD                .                                       : Field
LOC                .                                       : Location
CNTY               .                                       : County
STAT               .                                       : State
CTRY               .                                       : Country
SRVC               .                                       : Service Company
DATE               .                                       : Date
API                .                                       : API number
PROJECT_UPGRADE_TIME .         2021-03-18T21_24_50           : 
group              .         Good                          : 
~Parameter Information Block
#_______________________________________________________________________________
#
#PARAMETER_NAME    .UNIT     VALUE                         : DESCRIPTION
#_______________________________________________________________________________
SET                .         D7031_D_2                     : 
NPR                .         155                           : Номер прибора
OTHER              .         Kedr.exe версия 2.1.2.32      : 
OTHER_10           .         RGD. = 0.647457 * RGD. + 2.35279: 
OTHER_2            .         KedrData.dll версия 3.2.2.14  : 
OTHER_3            .         LasInf.dll версия 3.2.0.13    : 
OTHER_4            .         Драйвер версия 1.2.0.6        : 
OTHER_5            .         Прибор_ Расходомер            : 
OTHER_6            .         Номер прибора_ 963            : 
OTHER_7            .         Режим_ Расходомер             : 
OTHER_8            .         Форма_ Саня                   : 
OTHER_9            .         Тарировки_                    : 
PR                 .         КСА-Т7 М1                     : Тип прибора
PROJECT_UPGRADE_TIME .         2021-03-18T21_24_50           : 
PRTY               .         ПП-223_2                      : Номер партии
SRV                .         ЦКРС                          : Заказчик
SRVC               .         Лузин  А.Б.                   : Начальник партии
TLFamily_DEPT      .         Measured Depth                : 
TLFamily_RGD       .                                       : 
TLFamily_SPID      .         Spontaneous Potential         : 
group              .         second                        : 
~Curve Information
#_______________________________________________________________________________
#
#LOGNAME           .UNIT     LOG_ID                        : DESCRIPTION
#_______________________________________________________________________________
DEPT               .M                                      : Depth curve 
RGD                .м3/сут                                 : Механическая расходометрия, м3/сут 
SPID               .м/ч                                    : Скорость записи,м/час 
~Ascii
# ...
2730.699974 23.369     -130.059  
2730.799974 12.473     -190      
2730.899974 15.164     -190.069  
2730.999974 18.959     -259.931  
2731.099974 27.733     -190      
2731.199973 10.661     -190      
2731.299973 21.463     -189.971  
2731.399973 14.446     -160.029  
2731.499973 10         -189.941  
2731.599973 20.066     -130.059  
2731.699973 15.902     -190      
2731.799973 17.615     -190      
2731.899973 12.726     -190      
2731.999973 18.683     -190      
2732.099972 22.007     -190      
2732.199972 18.624     -190      
2732.299972 12.544     -190      
2732.399972 16.375     -190      
2732.499972 21.765     -189.941  
2732.599972 16.246     -130.059  
2732.699972 12.153     -190      
2732.799972 14.87      -190      
2732.899972 14.875     -189.941  
2732.999972 9.689      -130.059  
2733.099971 19.348     -190      
2733.199971 17.649     -190      
2733.299971 26.997     -190      
2733.399971 14.15      -190      
2733.499971 14.443     -190      
2733.599971 17.169     -190      
2733.699971 15.934     -189.941  
2733.799971 19.846     -130.059  
2733.899971 26.166     -190      
2733.99997 21.922     -189.941  
2734.09997 23.794     -130.059  
2734.19997 27.633     -190      
2734.29997 10.282     -189.971  
2734.39997 12.09      -160.029  
2734.49997 11.813     -190      
2734.59997 14.744     -190      
2734.69997 19.298     -190      
2734.79997 26.954     -189.941  
2734.899969 31.09      -130.059  
2734.999969 20.49      -190      
2735.099969 20.107     -190      
2735.199969 17.21      -190      
2735.299969 17.648     -190      
2735.399969 15.506     -190      
2735.499969 11.483     -189.941  
2735.599969 14.943     -130.059  
2735.699969 17.765     -190      
2735.799968 12.495     -190      
2735.899968 17.215     -190      
2735.999968 12.001     -190      
2736.099968 13.507     -190      
2736.199968 20.993     -190      
2736.299968 23.647     -189.941  
2736.399968 20.369     -130.059  
2736.499968 19.317     -189.941  
2736.599968 15.923     -130.059  
2736.699967 19.246     -190      
2736.799967 14.737     -189.971  
2736.899967 21.437     -160.029  
2736.999967 18.796     -189.971  
2737.099967 14.336     -159.971  
2737.199967 30.14      -130.059  
2737.299967 20.038     -189.971  
2737.399967 18.328     -160.029  
2737.499967 16.729     -190      
2737.599966 26.14      -190      
2737.699966 25.724     -190      
2737.799966 30.008     -190      
2737.899966 17.776     -190.069  
2737.999966 13.326     -259.931  
2738.099966 19.178     -190      
2738.199966 17.629     -190      
2738.299966 16.455     -190      
2738.399966 21.858     -190      
2738.499965 19.886     -190      
2738.599965 16.063     -190      
2738.699965 19.556     -190      
2738.799965 15.909     -190      
2738.899965 14.486     -190      
2738.999965 20.836     -189.971  
2739.099965 17.182     -160.029  
2739.199965 19.663     -189.999  
2739.299965 12.714     -189.001  
2739.399964 16.764     -190      
2739.499964 20.547     -190      
2739.599964 17.089     -190      
2739.699964 16.355     -190      
2739.799964 21.558     -190      
2739.899964 19.677     -190      
2739.999964 26.337     -190      
2740.099964 23.792     -190      
2740.199964 25.699     -190      
2740.299963 24.191     -190      
2740.399963 15.307     -190      
2740.499963 22.849     -190      
2740.599963 31.881     -190      
2740.699963 12.064     -190      
2740.799963 16.302     -190      
2740.899963 18.425     -189.941  
2740.999963 13.256     -130.059  
2741.099963 19.035     -189.941  
2741.199962 14.433     -130.059  
2741.299962 17.289     -190      
2741.399962 26.274     -189.941  
2741.499962 20.149     -130.059  
2741.599962 18.989     -190      
2741.699962 18.449     -189.941  
2741.799962 17.038     -130.059  
2741.899962 14.605     -190      
2741.999962 20.129     -190      
2742.099962 18.785     -190      
2742.199961 24.253     -189.942  
2742.299961 16.876     -131.058  
2742.399961 22.826     -189.941  
2742.499961 18.718     -130.059  
2742.599961 16.554     -190      
2742.699961 20.263     -190      
2742.799961 23.332     -190      
2742.899961 15.178     -190      
2742.999961 23.491     -190      
2743.09996 24.544     -189.941  
2743.19996 18.402     -130      
2743.29996 30.902     -130.059  
2743.39996 32.542     -190      
2743.49996 24.494     -189.941  
2743.59996 28.843     -130.059  
2743.69996 21.361     -189.942  
2743.79996 22.092     -131.058  
2743.89996 24.607     -189.941  
2743.999959 22.04      -130.059  
2744.099959 32.383     -190      
2744.199959 24.803     -189.941  
2744.299959 18.182     -130.059  
2744.399959 29.952     -190      
2744.499959 41.89      -189.941  
2744.599959 21.066     -130.059  
2744.699959 27.274     -189.942  
2744.799959 21.669     -131.058  
2744.899958 20.908     -190      
2744.999958 18.779     -189.941  
2745.099958 18.074     -130.059  
2745.199958 22.329     -190      
2745.299958 21.041     -190      
2745.399958 21.851     -190      
2745.499958 22.761     -190      
2745.599958 23.307     -190      
2745.699958 30.75      -189.941  
2745.799957 20.62      -130.059  
2745.899957 20.854     -190      
2745.999957 25.082     -190      
2746.099957 27.069     -190      
2746.199957 26.155     -190      
2746.299957 21.424     -189.941  
2746.399957 25.107     -130.059  
2746.499957 32.701     -190      
2746.599957 23.313     -190      
2746.699956 26.039     -190      
2746.799956 24.792     -190      
2746.899956 27.166     -190      
2746.999956 22.904     -190      
2747.099956 27.332     -190      
2747.199956 29.51      -189.999  
2747.299956 19.583     -189.001  
2747.399956 23.033     -189.941  
2747.499956 26.558     -130.059  
2747.599955 24.966     -190      
2747.699955 41.669     -189.999  
2747.799955 30.199     -189.001  
2747.899955 29.053     -190      
2747.999955 31.697     -190      
2748.099955 29.019     -189.941  
2748.199955 28.045     -130.059  
2748.299955 32.692     -189.941  
2748.399955 24.636     -130.059  
2748.499954 30.856     -190      
2748.599954 27.037     -189.941  
2748.699954 23.708     -130      
2748.799954 31.343     -130.059  
2748.899954 24.055     -190      
2748.999954 29.243     -190      
2749.099954 31.84      -190      
2749.199954 21.217     -189.999  
2749.299954 28.246     -189.001  
2749.399953 34.326     -190      
2749.499953 30.546     -190      
2749.599953 36.835     -190      
2749.699953 31.369     -189.999  
2749.799953 40.639     -189.001  
2749.899953 39.667     -190      
2749.999953 36.825     -190      
2750.099953 42.328     -189.941  
2750.199953 40.447     -130.059  
2750.299952 36.973     -189.941  
2750.399952 50.62      -130.059  
2750.499952 30.095     -190      
2750.599952 35.643     -190      
2750.699952 38.873     -189.97   
2750.799952 31.575     -159.03   
2750.899952 36.424     -190      
2750.999952 40.677     -190      
2751.099952 38.016     -190      
2751.199951 34.114     -190      
2751.299951 38.658     -190      
2751.399951 36.597     -190      
2751.499951 43.576     -189.971  
2751.599951 40.017     -159.971  
2751.699951 36.853     -130      
2751.799951 39.458     -130.059  
2751.899951 36.989     -9999     
2751.999951 36.007     -9999     
2752.09995 22.838     -9999     
2752.19995 10.343     -9999     
2752.29995 2.861      -9999     
