~Version
 VERS              .         2.0                           : CWLS LOG ASCII STANDARD - VERSION 2.0
 WRAP              .         NO                            : ONE LINE PER DEPTH STEP
 DLM               .         SPACE                         : DELIMITING CHARACTER(SPACE TAB OR COMMA)
~Well Information
#_______________________________________________________________________________
#
#PARAMETER_NAME    .UNIT     VALUE                         : DESCRIPTION
#_______________________________________________________________________________
STRT               .M        2647.6                        : First reference value
STOP               .M        2757.2                        : Last reference value
STEP               .M        0.1999997                     : Step increment
NULL               .         -9999                         : Missing value
COMP               .                                       : Company
WELL               .         616                           : Well name
FLD                .                                       : Field
LOC                .                                       : Location
CNTY               .                                       : County
STAT               .                                       : State
CTRY               .                                       : Country
SRVC               .                                       : Service Company
DATE               .                                       : Date
API                .                                       : API number
PROJECT_UPGRADE_TIME .         2021-03-18T21_24_50           : 
group              .         Good                          : 
~Parameter Information Block
#_______________________________________________________________________________
#
#PARAMETER_NAME    .UNIT     VALUE                         : DESCRIPTION
#_______________________________________________________________________________
SET                .         D7017_D                       : 
OTHER              .         Kedr.exe версия 2.1.2.32      : 
OTHER_10           .         TM.GRD = 0.00404*TM$.UE + 0.07: 
OTHER_11           .         MN.ATM = (6.33279e-006*TM.GRD + 0.02401)*(MN$.UE + 2.72*TM.GRD + -2018): 
OTHER_12           .         GK.MKR/H = GK$.UE / 43.5489 + 0: 
OTHER_13           .         RES.SM = 0.00476*CRES.UE - 1.51709: 
OTHER_14           .         PL.GSM3 = 0 + 0 * (PL.UE / 1) +  0 * (PL.UE / 1)^2: 
OTHER_15           .         Постоянная времени ГГП = 6 сек: 
OTHER_16           .         Постоянная времени ГК = 6 сек : 
OTHER_2            .         KedrData.dll версия 3.2.2.14  : 
OTHER_3            .         LasInf.dll версия 3.2.0.13    : 
OTHER_4            .         Драйвер версия 1.2.0.5        : 
OTHER_5            .         Прибор_ КСА-M1                : 
OTHER_6            .         Номер прибора_ 155+р204       : 
OTHER_7            .         Режим_ КСА-М1 + ГГП + Резистивиметр: 
OTHER_8            .         Форма_ 223\2                  : 
OTHER_9            .         Тарировки_                    : 
PROJECT_UPGRADE_TIME .         2021-03-18T21_24_50           : 
TLFamily_CRES      .                                       : 
TLFamily_DEPT      .         Measured Depth                : 
TLFamily_GK        .         Gamma Ray                     : 
TLFamily_GK$       .                                       : 
TLFamily_LM        .         Casing Collar locator         : 
TLFamily_METKA     .                                       : 
TLFamily_MN        .                                       : 
TLFamily_MN$       .                                       : 
TLFamily_PL        .                                       : 
TLFamily_PL_2      .                                       : 
TLFamily_RCOR      .                                       : 
TLFamily_RES       .         Mud Resistivity               : 
TLFamily_SPID      .         Spontaneous Potential         : 
TLFamily_STD       .                                       : 
TLFamily_TIME      .         Time                          : 
TLFamily_TM        .         Temperature                   : 
TLFamily_TM$       .         Temperature                   : 
TLFamily_VGD       .         Gas Volume                    : 
group              .         prim                          : 
~Curve Information
#_______________________________________________________________________________
#
#LOGNAME           .UNIT     LOG_ID                        : DESCRIPTION
#_______________________________________________________________________________
DEPT               .M                                      : 1 Глубина, м -    0.0 см 
CRES               .UE                                     : 9 Проводимость, усл.ед. -  222.0 см 
GK                 .MKR/H                                  : 16 Гамма-активность, мкр./ч -  106.0 см 
GK$                .UE                                     : 13 Гамма-активность, усл.ед. -  106.0 см 
LM                 .                                       : 11 Локатор муфт,  -   16.0 см 
METKA              .                                       : 3 Метки,  -    0.0 см 
MN                 .ATM                                    : 15 Давление, атм. -  160.0 см 
MN$                .UE                                     : 7 Давление, усл.ед. -  160.0 см 
PL                 .UE                                     : 10 Плотность, усл.ед. -  270.0 см 
PL_2               .GSM3                                   : 18 Плотность, г./см3 -  270.0 см 
RCOR               .CM/KM                                  : 5 Коррекция по ролику, см/км -    0.0 см 
RES                .SM                                     : 17 Проводимость,  -  222.0 см 
SPID               .M/H                                    : 2 Скорость, м/час -    0.0 см 
STD                .                                       : 12 Приток,  -  170.0 см 
TIME               .S                                      : 4 Время, сек -    0.0 см 
TM                 .GRD                                    : 14 Температура, °C -  180.0 см 
TM$                .UE                                     : 6 Температура, усл.ед. -  180.0 см 
VGD                .                                       : 8 Влагомер,  -  170.0 см 
~Ascii
# ...
2672.2     1232       9.56       414        110        0          245.699    11993      14         0          0          4.3472     -260       9403       8833.29    47.968     11856      6627      
2672.4     1231       9.45       412        107        0          245.722    11994      13         0          0          4.3425     -260       9401       8830.5     47.94      11849      6624      
2672.6     1232       9.62       420        113        0          245.744    11995      14         0          0          4.3472     -300       9397       8827.74    47.932     11847      6628      
2672.8     1228       9.45       427        150        0          245.746    11995      13         0          0          4.3281     -290       9395       8824.89    47.92      11844      6634      
2673       1226       8.72       389        114        0          245.769    11996      15         0          0          4.3171     -260       9392       8822.06    47.928     11846      6624      
2673.2     1223       8.51       365        99         0          245.787    11997      15         0          0          4.3044     -260       9386       8819.34    47.92      11844      6631      
2673.4     1226       8.89       368        151        0          245.818    11998      15         0          0          4.3187     -260       9381       8816.51    47.871     11832      6625      
2673.6     1226       9.75       385        1908       0          245.84     11999      14         0          0          4.3201     -260       9375       8813.72    47.862     11830      6636      
2673.8     1219       10.58      444        3014       0          245.862    12000      14         0          0          4.2838     -260       9373       8810.94    47.843     11825      6636      
2674       1224       10.42      462        118        0          245.877    12001      14         0          0          4.3107     -260       9371       8808.18    47.827     11821      6623      
2674.2     1223       9.84       433        115        0          245.898    12002      14         0          0          4.3044     -260       9366       8805.39    47.813     11818      6623      
2674.4     1218       9.6        419        107        0          245.909    12002      14         0          0          4.2806     -260       9362       8802.5     47.795     11813      6625      
2674.6     1217       9.6        413        108        0          245.936    12004      14         0          0          4.2774     -260       9362       8799.71    47.784     11811      6622      
2674.8     1219       9.81       424        376        0          245.952    12005      14         0          0          4.2853     -260       9358       8796.93    47.772     11807      6623      
2675       1215       9.87       431        3082       0          245.962    12005      14         0          0          4.2679     -260       9352       8794.03    47.74      11799      6624      
2675.2     1217       9.68       434        3065       0          245.985    12006      13         0          0          4.2758     -320       9349       8791.36    47.723     11795      6623      
2675.4     1213       9.34       418        3758       0          246.007    12007      13         0          0          4.2584     -260       9345       8788.44    47.711     11792      6623      
2675.6     1215       9.16       398        3562       0          245.988    12006      13         0          0          4.2662     -260       9341       8785.64    47.696     11789      6625      
2675.8     1213       9.23       399        101        0          246.026    12008      15         0          0          4.2567     -260       9339       8782.88    47.671     11782      6624      
2676       1211       9.43       402        115        0          246.049    12009      13         0          0          4.2473     -260       9334       8780.09    47.656     11779      6622      
2676.2     1212       9.93       417        133        0          246.095    12011      14         0          0          4.252      -260       9329       8777.31    47.645     11776      6623      
2676.4     1206       10.28      458        129        0          246.118    12012      14         0          0          4.2235     -260       9329       8774.54    47.621     11770      6624      
2676.6     1206       9.82       440        148        0          246.141    12013      14         0          0          4.2237     -232       9327       8771.62    47.617     11769      6623      
2676.8     1210       9.83       412        155        0          246.115    12012      13         0          0          4.2409     -280       9323       8768.86    47.607     11767      6623      
2677       1208       10.28      430        105        0          246.169    12014      14         0          0          4.233      -233       9320       8766.08    47.593     11763      6623      
2677.2     1208       10.28      448        135        0          246.182    12015      14         0          0          4.2306     -260       9318       8763.31    47.566     11756      6624      
2677.4     1210       10.8       462        138        0          246.204    12016      14         0          0          4.2425     -260       9314       8760.53    47.547     11752      6624      
2677.6     1205       11.16      495        137        0          246.244    12018      14         0          0          4.2164     -320       9313       8757.63    47.531     11748      6624      
2677.8     1202       10.73      470        118        0          246.234    12017      13         0          0          4.2045     -320       9307       8754.85    47.524     11746      6627      
2678       1208       10.76      457        112        0          246.264    12019      14         0          0          4.2314     -260       9307       8752.08    47.506     11742      6623      
2678.2     1204       11.06      478        142        0          246.279    12019      14         0          0          4.2156     -260       9304       8749.17    47.493     11738      6625      
2678.4     1198       10.98      492        221        0          246.31     12021      13         0          0          4.187      -260       9302       8746.4     47.483     11736      6624      
2678.6     1202       10.81      469        139        0          246.324    12021      14         0          0          4.2029     -260       9298       8743.62    47.471     11733      6624      
2678.8     1204       10.83      471        126        0          246.339    12022      13         0          0          4.2138     -260       9295       8740.79    47.455     11729      6623      
2679       1207       10.97      478        105        0          246.353    12023      14         0          0          4.2282     -225       9292       8738       47.444     11726      6623      
2679.2     1199       10.72      469        96         0          246.383    12024      14         0          0          4.1902     -260       9286       8735.17    47.423     11721      6624      
2679.4     1195       10.8       451        112        0          246.405    12025      13         0          0          4.1711     -213       9286       8732.39    47.407     11717      6624      
2679.6     1200       11.48      505        87         0          246.451    12027      14         0          0          4.1952     -320       9283       8729.49    47.391     11713      6625      
2679.8     1203       11.1       505        105        0          246.448    12027      14         0          0          4.2092     -260       9280       8726.71    47.37      11708      6623      
2680       1201       10.29      481        3454       1          246.472    12028      13         0          0          4.2013     -260       9277       8723.94    47.35      11703      6623      
2680.2     1201       9.42       433        2924       0          246.486    12029      14         0          0          4.1997     -260       9276       8719.56    47.347     11702      6624      
