~Version
 VERS              .         2.0                           : CWLS LOG ASCII STANDARD - VERSION 2.0
 WRAP              .         NO                            : ONE LINE PER DEPTH STEP
 DLM               .         SPACE                         : DELIMITING CHARACTER(SPACE TAB OR COMMA)
~Well Information
#_______________________________________________________________________________
#
#PARAMETER_NAME    .UNIT     VALUE                         : DESCRIPTION
#_______________________________________________________________________________
STRT               .M        44                            : First reference value
STOP               .M        2769.2                        : Last reference value
STEP               .M        0.2                           : Step increment
NULL               .         -9999                         : Missing value
COMP               .                                       : Company
WELL               .         616                           : Well name
FLD                .                                       : Field
LOC                .                                       : Location
CNTY               .                                       : County
STAT               .                                       : State
CTRY               .                                       : Country
SRVC               .                                       : Service Company
DATE               .                                       : Date
API                .                                       : API number
PROJECT_UPGRADE_TIME .         2021-03-18T21_24_50           : 
group              .         Good                          : 
~Parameter Information Block
#_______________________________________________________________________________
#
#PARAMETER_NAME    .UNIT     VALUE                         : DESCRIPTION
#_______________________________________________________________________________
SET                .         D1160_D                       : 
OTHER              .         Программное обеспечение станции MONITOR-386EX 25/12/99 15_08_10   BGF V52 22/08/01 16_56_30   3.2_BGF_N_3070031: 
OTHER_10           .         Тарировки_                    : 
OTHER_11           .         TM.GRD = 0.00403*TM$.UE + -1.19: 
OTHER_12           .         MN.ATM = (7.1e-006*TM.GRD + 0.02017)*(MN$.UE + -3.03*TM.GRD + -1833): 
OTHER_13           .         Id error                      : 
OTHER_2            .         Kedr.exe версия 3.4.2.51      : 
OTHER_3            .         KedrData.dll версия 3.4.2.24  : 
OTHER_4            .         Драйвер версия 2.1.1.8        : 
OTHER_5            .         Мнемоники версия 3.3 S        : 
OTHER_6            .         Прибор_ КСА-М1                : 
OTHER_7            .         Номер прибора_ 265            : 
OTHER_8            .         Режим_ КСА-М1                 : 
OTHER_9            .         Форма_ ТЕРМОМЕТР              : 
PROJECT_UPGRADE_TIME .         2021-03-18T21_24_49           : 
TLFamily_DEPT      .         Measured Depth                : 
TLFamily_GK        .         Gamma Ray                     : 
TLFamily_GK$       .                                       : 
TLFamily_LM        .         Casing Collar locator         : 
TLFamily_METKA     .                                       : 
TLFamily_MN        .                                       : 
TLFamily_MN$       .                                       : 
TLFamily_RCOR      .                                       : 
TLFamily_SPID      .         Spontaneous Potential         : 
TLFamily_STD       .                                       : 
TLFamily_TENS      .         Cable Tension                 : 
TLFamily_TIME      .         Time                          : 
TLFamily_TM        .         Temperature                   : 
TLFamily_TM$       .         Temperature                   : 
TLFamily_VGD       .         Gas Volume                    : 
group              .         prim                          : 
~Curve Information
#_______________________________________________________________________________
#
#LOGNAME           .UNIT     LOG_ID                        : DESCRIPTION
#_______________________________________________________________________________
DEPT               .M                                      : 1 Глубина, м -    0.0 см 
GK                 .MKR/H                                  : 15 Гамма-активность, мкр./ч -  110.0 см 
GK$                .UE                                     : 12 Гамма-активность, усл.ед. -  110.0 см 
LM                 .                                       : 10 Локатор муфт,  -   20.0 см 
METKA              .                                       : 3 Метки,  -    0.0 см 
MN                 .ATM                                    : 14 Давление, атм. -  160.0 см 
MN$                .UE                                     : 8 Давление, усл.ед. -  160.0 см 
RCOR               .CM/KM                                  : 5 Коррекция по ролику, см/км -    0.0 см 
SPID               .M/H                                    : 2 Скорость, м/час -    0.0 см 
STD                .                                       : 11 Приток,  -  170.0 см 
TENS               .T                                      : 6 Натяжение кабеля, т -    0.0 см 
TIME               .S                                      : 4 Время, сек -    0.0 см 
TM                 .GRD                                    : 13 Температура, °C -  180.0 см 
TM$                .UE                                     : 7 Температура, усл.ед. -  180.0 см 
VGD                .                                       : 9 Влагомер,  -  170.0 см 
~Ascii
44.0       -9999      -9999      -9999      0          -9999      -9999      -9999      -9999      -9999      -9999      -9999      -9999      -9999      -9999     
44.2       -9999      -9999      22         0          -9999      -9999      -1400      1801       -9999      0          10468.98   -9999      -9999      -9999     
44.4       -9999      -9999      20         0          -9999      -9999      -1400      1746       -9999      0          10469.41   -9999      -9999      -9999     
44.6       -9999      -9999      12         0          -9999      -9999      -1400      1721       -9999      0          10469.81   -9999      -9999      -9999     
44.8       -9999      -9999      10         0          -9999      -9999      -1400      1726       -9999      0          10470.25   -9999      -9999      -9999     
45         -9999      -9999      22         0          -9999      -9999      -1400      1717       -9999      0          10470.77   -9999      -9999      -9999     
45.2       3.4        140        20         0          -9999      -9999      -1400      1661       -9999      0          10471.29   -9999      -9999      -9999     
45.4       3.34       140        13         0          -9999      -9999      -1400      1631       -9999      0          10471.73   -9999      -9999      -9999     
45.6       3.32       140        14         0          -9999      -9999      -1400      1639       -9999      0          10472.09   -9999      -9999      -9999     
45.8       3.3        140        31         0          -0.469     1844       -1400      1673       1252       0          10472.45   -9999      -9999      4362      
46         3.65       179        32         0          -0.438     1846       -1400      1713       1239       0          10472.84   11.32      3104       4367      
46.2       3.9        179        32         0          -0.454     1845       -1400      1710       1228       0          10473.32   11.338     3109       4421      
46.4       4.03       179        23         0          -0.431     1846       -1400      1693       1215       0          10473.78   11.352     3112       4529      
46.6       4.08       179        20         0          -0.415     1847       -1400      1683       1202       0          10474.16   11.364     3115       4615      
46.8       4.12       179        23         0          -0.367     1849       -1400      1701       1187       0          10474.52   11.38      3119       4657      
47         4.15       180        25         0          -0.335     1851       -1400      1721       1182       0          10474.91   11.386     3121       4593      
47.2       4.22       185        120        0          -0.336     1851       -1400      1728       1178       0          10475.35   11.4       3124       4629      
47.4       4.27       185        133        0          -0.31      1852       -1400      1719       1171       0          10475.83   11.416     3128       4724      
47.6       4.29       185        86         0          -0.267     1854       -1400      1696       1162       0          10476.27   11.425     3130       4783      
47.8       4.3        185        55         0          -0.256     1855       -1400      1705       1157       0          10476.64   11.434     3132       4778      
48         4.31       185        81         0          -0.231     1856       -1400      1719       1154       0          10477      11.449     3136       4716      
48.2       4.32       185        364        0          -0.211     1857       -1400      1743       1152       0          10477.4    11.463     3140       4698      
48.4       4.21       174        3209       0          -0.198     1858       -1400      1733       1148       0          10477.87   11.472     3142       4788      
48.6       4.15       174        2144       0          -0.181     1859       -1400      1715       1143       0          10478.31   11.483     3145       4960      
48.8       4.12       174        949        0          -0.145     1861       -1400      1712       1141       0          10478.71   11.492     3147       5014      
49         4.11       174        637        0          -0.16      1860       -1400      1714       1134       0          10479.09   11.502     3149       5027      
49.2       4.09       174        431        0          -0.115     1862       -1400      1734       1128       0          10479.45   11.513     3152       5032      
49.4       4.08       174        294        0          -0.095     1863       -1400      1754       1124       0          10479.87   11.517     3153       5027      
49.6       3.91       156        198        0          -0.075     1864       -1400      1751       1122       0          10480.34   11.521     3154       5083      
49.8       3.82       156        133        0          -0.053     1865       -1400      1733       1122       0          10480.78   11.525     3155       5118      
50         3.76       156        63         0          -0.027     1867       -1400      1723       1120       0          10481.16   11.529     3156       5118      
50.2       3.72       156        50         0          -0.019     1867       -1400      1737       1114       0          10481.52   11.531     3157       5089      
50.4       3.69       156        51         0          0.017      1869       -1400      1765       1109       0          10481.94   11.533     3157       5060      
50.6       3.68       156        53         0          0.021      1869       -1400      1764       1104       0          10482.4    11.533     3157       5055      
50.8       3.5        136        39         0          0.041      1870       -1400      1736       1101       0          10482.86   11.533     3157       5085      
51         3.38       136        32         0          0.08       1872       -1400      1720       1097       0          10483.27   11.533     3157       5105      
51.2       3.31       136        22         0          0.078      1872       -1400      1728       1090       0          10483.65   11.533     3157       5085      
51.4       3.27       136        20         0          0.115      1874       -1400      1747       1080       0          10484.01   11.533     3157       5069      
51.6       3.23       136        19         0          0.123      1874       -1400      1766       1072       0          10484.42   11.533     3157       5058      
51.8       3.21       136        24         0          0.136      1875       -1400      1745       1064       0          10484.86   11.533     3157       5057      
52         3.36       157        23         0          0.143      1875       -1400      1714       1056       0          10485.31   11.533     3157       5043      
52.2       3.49       158        17         0          0.166      1876       -1400      1708       1046       0          10485.7    11.533     3157       5103      
52.4       3.56       158        12         0          0.21       1878       -1400      1710       1036       0          10486.05   11.533     3157       5135      
52.6       3.61       158        17         0          0.223      1879       -1400      1738       1029       0          10486.46   11.541     3159       5126      
52.8       3.64       158        17         0          0.234      1880       -1400      1737       1030       0          10486.95   11.543     3160       5127      
53         3.66       158        18         0          0.254      1881       -1400      1706       1020       0          10487.42   11.547     3161       5208      
53.2       3.79       172        9          0          0.276      1882       -1400      1712       1008       0          10487.78   11.551     3162       5259      
53.4       3.92       179        9          0          0.3        1883       -1400      1720       996        0          10488.13   11.558     3163       5290      
53.6       4.02       179        11         0          0.325      1884       -1400      1750       982        0          10488.48   11.564     3165       5328      
