~Version
 VERS              .         2.0                           : CWLS LOG ASCII STANDARD - VERSION 2.0
 WRAP              .         NO                            : ONE LINE PER DEPTH STEP
 DLM               .         SPACE                         : DELIMITING CHARACTER(SPACE TAB OR COMMA)
~Well Information
#_______________________________________________________________________________
#
#PARAMETER_NAME    .UNIT     VALUE                         : DESCRIPTION
#_______________________________________________________________________________
STRT               .M        2658.8                        : First reference value
STOP               .M        2765.199894                   : Last reference value
STEP               .M        0.1999998                     : Step increment
NULL               .         -9999                         : Missing value
COMP               .                                       : Company
WELL               .         616                           : Well name
FLD                .                                       : Field
LOC                .                                       : Location
CNTY               .                                       : County
STAT               .                                       : State
CTRY               .                                       : Country
SRVC               .                                       : Service Company
DATE               .                                       : Date
API                .                                       : API number
PROJECT_UPGRADE_TIME .         2021-03-18T21_24_50           : 
group              .         Good                          : 
~Parameter Information Block
#_______________________________________________________________________________
#
#PARAMETER_NAME    .UNIT     VALUE                         : DESCRIPTION
#_______________________________________________________________________________
SET                .         D7023_D_2                     : 
NPR                .         155                           : Номер прибора
OTHER              .         Kedr.exe версия 2.1.2.32      : 
OTHER_10           .         TM.GRD = 0.00404*TM$.UE + 0.07: 
OTHER_11           .         MN.ATM = (6.33279e-006*TM.GRD + 0.02401)*(MN$.UE + 2.72*TM.GRD + -2018): 
OTHER_12           .         GK.MKR/H = GK$.UE / 43.5489 + 0: 
OTHER_13           .         RES.SM = 0.00476*CRES.UE - 1.51709: 
OTHER_14           .         PL.GSM3 = 0 + 0 * (PL.UE / 1) +  0 * (PL.UE / 1)^2: 
OTHER_15           .         Постоянная времени ГГП = 6 сек: 
OTHER_16           .         Постоянная времени ГК = 6 сек : 
OTHER_2            .         KedrData.dll версия 3.2.2.14  : 
OTHER_3            .         LasInf.dll версия 3.2.0.13    : 
OTHER_4            .         Драйвер версия 1.2.0.5        : 
OTHER_5            .         Прибор_ КСА-M1                : 
OTHER_6            .         Номер прибора_ 155+р204       : 
OTHER_7            .         Режим_ КСА-М1 + ГГП + Резистивиметр: 
OTHER_8            .         Форма_ 223\2                  : 
OTHER_9            .         Тарировки_                    : 
PR                 .         КСА-Т7 М1                     : Тип прибора
PROJECT_UPGRADE_TIME .         2021-03-18T21_24_50           : 
PRTY               .         ПП-223_2                      : Номер партии
SRV                .         ЦКРС                          : Заказчик
SRVC               .         Лузин  А.Б.                   : Начальник партии
TLFamily_DEPT      .         Measured Depth                : 
TLFamily_LM        .         Casing Collar locator         : 
TLFamily_MN        .                                       : 
TLFamily_SPID      .         Spontaneous Potential         : 
TLFamily_TM        .         Temperature                   : 
group              .         second                        : 
~Curve Information
#_______________________________________________________________________________
#
#LOGNAME           .UNIT     LOG_ID                        : DESCRIPTION
#_______________________________________________________________________________
DEPT               .M                                      : Depth curve 
LM                 .е.ацп                                  : Локация муфт 
MN                 .атм                                    : Манометрия, атм 
SPID               .м/ч                                    : Скорость записи,м/час 
TM                 .град.С                                 : Термометрия,град.С 
~Ascii
# ...
2716.399942 37.006     362.94     580        52.9      
2716.599942 59.998     364.35     580        52.88     
2716.799942 51.004     364.6      579.983    52.86     
2716.999942 66.997     366.45     510.014    52.85     
2717.199942 55.004     365.42     568.003    52.84     
2717.399941 72.996     365.9      580        52.84     
2717.599941 58.002     365.67     580        52.83     
2717.799941 66.999     366.81     579.983    52.83     
2717.999941 64         365.86     510.017    52.81     
2718.199941 63         365.77     579.995    52.79     
2718.39994 64.002     364.66     559.988    52.77     
2718.59994 74         363.64     510.017    52.76     
2718.79994 73.001     364.19     579.991    52.75     
2718.99994 75.999     363.6      544.997    52.74     
2719.19994 73.001     363.59     533.012    52.74     
2719.399939 78.007     362.79     580        52.72     
2719.599939 107.994    363.54     579.99     52.71     
2719.799939 85.002     364.31     540.01     52.69     
2719.999939 94.995     363.96     579.997    52.67     
2720.199939 72.999     365.16     568.003    52.66     
2720.399938 67.002     363.52     579.983    52.64     
2720.599938 76.997     365.12     510.017    52.62     
2720.799938 65.004     365.74     580        52.61     
2720.999938 83.008     366.89     580        52.58     
2721.199938 115.002    366.83     579.988    52.57     
2721.399937 122.995    366.18     532.99     52.57     
2721.599937 101.997    366.53     493.022    52.56     
2721.799937 90.993     365.43     579.986    52.55     
2721.999937 62.01      366.09     522.006    52.54     
2722.199937 101.023    365.47     545.009    52.53     
2722.399936 191.99     366.41     579.983    52.52     
2722.599936 150.012    366.84     510.003    52.5      
2722.799936 198.988    367.45     524.014    52.47     
2722.999936 149.987    366.55     579.995    52.44     
2723.199936 97.028     366.04     559.988    52.43     
2723.399935 208.057    365.95     510.017    52.42     
2723.599935 436.053    365.79     579.991    52.42     
2723.799935 648.031    365.21     545.009    52.41     
2723.999935 771.235    364.67     579.983    52.42     
2724.199935 1714.838   363.86     510.017    52.4      
2724.399934 1065.806   364.22     580        52.4      
2724.599934 288.017    365.16     579.986    52.38     
2724.799934 357.974    363.74     522.014    52.37     
2724.999934 254.009    363        580        52.35     
2725.199934 291.965    364.4      580        52.33     
2725.399933 152.985    365.21     579.988    52.33     
2725.599933 91.994     366.51     533.012    52.32     
2725.799933 68.006     366.92     580        52.31     
2725.999933 92.99      367.69     580        52.3      
2726.199933 53.002     366.77     579.994    52.3      
2726.399932 63.006     367.55     556.991    52.29     
2726.599932 88.996     367.43     520        52.29     
2726.799932 71.998     367.51     522.009    52.29     
2726.999932 65.005     366.46     557.006    52.27     
2727.199932 86.994     366.02     579.983    52.26     
2727.399931 63         365.44     510.014    52.25     
2727.599931 63         364.92     568.003    52.24     
2727.799931 62.998     365.26     580        52.22     
2727.999931 55.998     364.48     580        52.22     
2728.199931 47.999     364.38     579.983    52.21     
2728.39993 43.026     364.64     510        52.19     
2728.59993 148.026    365.29     510.017    52.18     
2728.79993 254.068    365.96     579.997    52.17     
2728.99993 524.976    366.04     568.003    52.15     
2729.19993 427.98     367.71     579.988    52.13     
2729.399929 346.026    365.86     533.006    52.09     
2729.599929 450.971    367.7      556.991    52.08     
2729.799929 335.024    368.58     522.014    52.07     
2729.999929 432.002    367.88     580        52.04     
2730.199929 440.134    367.64     580        52.01     
2730.399928 978.909    367.21     580        51.96     
2730.599928 614.894    367.49     579.991    51.94     
2730.799928 191.984    367.33     545.009    51.92     
2730.999928 127.013    367.04     580        51.81     
2731.199928 178.987    365.7      580        51.68     
2731.399927 124.99     365.49     579.993    51.41     
2731.599927 84.999     365.22     550.004    51.23     
2731.799927 82.002     368.33     567.989    50.9      
2731.999927 89.008     368.09     522.014    50.49     
2732.199927 120.997    367.6      579.994    50.25     
2732.399926 110.013    367.2      557.003    50.06     
2732.599926 164.002    366.73     568.988    49.87     
2732.799926 171.998    366.75     520.015    49.75     
2732.999926 164.986    366.25     579.991    49.61     
2733.199926 108.996    365.93     544.991    49.52     
2733.399925 93.002     365.28     510        49.45     
2733.599925 103.015    365.32     510.017    49.4      
2733.799925 163.99     365.39     579.983    49.28     
2733.999925 121.993    367.29     510.017    49.17     
2734.199925 93.042     364.92     580        49.1      
2734.399924 262.969    366.01     579.983    49.03     
2734.599924 137.99     366.09     510.012    49.02     
2734.799924 96.998     366.48     556.988    48.97     
2734.999924 90.009     368.06     510.014    48.94     
2735.199924 126.359    368        568.003    48.9      
2735.399923 5562.825   368.24     580        48.84     
2735.599923 4862.973   367.64     579.998    48.79     
2735.799923 751.869    368.33     570        48.74     
2735.999923 228.973    367.64     570.002    48.72     
2736.199923 121.99     367.12     579.994    48.68     
2736.399922 82         366.38     557.003    48.65     
2736.599922 81.001     365.82     570        48.61     
2736.799922 85.997     366.03     570.002    48.58     
2736.999922 72.002     366.82     580        48.54     
2737.199922 79.008     365.39     579.983    48.51     
2737.399921 109.995    364.89     510.015    48.48     
2737.599921 91.002     365.92     570.003    48.48     
2737.799921 96.997     366.14     579.982    48.48     
2737.999921 84.001     367.99     510.003    48.47     
2738.199921 88.003     368.24     522.015    48.51     
2738.39992 101.003    369.66     580        48.5      
2738.59992 111.996    368.36     579.994    48.44     
2738.79992 95.002     369.1      556.988    48.4      
2738.99992 103.996    368.67     510.003    48.34     
2739.19992 88.005     368.89     522.008    48.28     
2739.399919 106.995    367.93     552.007    48.22     
2739.599919 86.999     367.34     579.985    48.17     
2739.799919 82.994     367.12     520.012    48.13     
2739.999919 60.012     367.13     568.003    48.09     
2740.199919 109.002    366.28     580        48.06     
2740.399918 114.999    365.56     579.992    48.03     
2740.599918 112.001    365.99     550.008    48        
2740.799918 114.002    365.94     579.997    47.98     
2740.999918 120.005    367.56     568        47.98     
2741.199918 139.996    367.99     568.003    47.98     
2741.399917 122.997    369.85     579.99     47.98     
2741.599917 110.997    368.73     540.01     47.98     
2741.799917 99.999     366.33     580        47.99     
2741.999917 95.997     366.61     579.994    48.01     
2742.199917 83.001     367.51     556.994    48.02     
2742.399916 84.998     367.71     533.012    48.04     
2742.599916 79.004     369.55     580        48.07     
2742.799916 94         367.04     580        48.1      
2742.999916 94.001     368.86     579.982    48.14     
2743.199916 97.002     368.78     510.018    48.18     
2743.399915 104.995    369.58     579.982    48.24     
2743.599915 85.997     370.52     510.014    48.3      
2743.799915 75.002     369.66     566.004    48.38     
2743.999915 83.001     369.42     579.995    48.44     
2744.199915 85.002     369.13     559.987    48.5      
2744.399914 93.995     369.14     510.018    48.53     
2744.599914 76.001     368.61     579.992    48.57     
2744.799914 79.002     368.19     549.996    48.64     
2744.999914 86.999     367.49     533.012    48.74     
