~Version
 VERS              .         2.0                           : CWLS LOG ASCII STANDARD - VERSION 2.0
 WRAP              .         NO                            : ONE LINE PER DEPTH STEP
 DLM               .         SPACE                         : DELIMITING CHARACTER(SPACE TAB OR COMMA)
~Well Information
#_______________________________________________________________________________
#
#PARAMETER_NAME    .UNIT     VALUE                         : DESCRIPTION
#_______________________________________________________________________________
STRT               .M        0.2                           : First reference value
STOP               .M        2774.2                        : Last reference value
STEP               .M        0.2                           : Step increment
NULL               .         -9999                         : Missing value
COMP               .                                       : Company
WELL               .         616                           : Well name
FLD                .                                       : Field
LOC                .                                       : Location
CNTY               .                                       : County
STAT               .                                       : State
CTRY               .                                       : Country
SRVC               .                                       : Service Company
DATE               .                                       : Date
API                .                                       : API number
PROJECT_UPGRADE_TIME .         2021-03-18T21_24_50           : 
group              .         Good                          : 
~Parameter Information Block
#_______________________________________________________________________________
#
#PARAMETER_NAME    .UNIT     VALUE                         : DESCRIPTION
#_______________________________________________________________________________
SET                .         D1799_D_2                     : 
NPR                .                                       : 
OTHER              .         Программное обеспечение станции MONITOR-386EX 25/12/99 15_08_10   BGF V52 22/08/01 16_56_30   3.1_SNGF___BGF_N_092049: 
OTHER_10           .         Тарировки_                    : 
OTHER_11           .         TM.GRD = 0.00403*TM$.UE + -1.07: 
OTHER_12           .         MN.ATM = (9.34907e-006*TM.GRD + 0.02171)*(MN$.UE + -7.93*TM.GRD + -1787): 
OTHER_13           .         GK.MKR/H = LM. / 42.4676      : 
OTHER_14           .         GK.FLT = 0.1*GK.MKR/H[-1] + (1-0.1)*GK.MKR/H[0]: 
OTHER_2            .         Kedr.exe версия 3.4.2.51      : 
OTHER_3            .         KedrData.dll версия 3.4.2.24  : 
OTHER_4            .         Драйвер версия 2.1.1.3        : 
OTHER_5            .         Мнемоники версия 3.3 S        : 
OTHER_6            .         Прибор_ КСА-Т4                : 
OTHER_7            .         Номер прибора_ 03             : 
OTHER_8            .         Режим_ КСА-Т4                 : 
OTHER_9            .         Форма_ КВА.                   : 
PR                 .                                       : 
PROJECT_UPGRADE_TIME .         2021-03-18T21_24_49           : 
PRTY               .         ПП-603-1                      : N партии
SRV                .                                       : 
SRVC               .         Карпов                        : Начальник партии
TLFamily_DEPT      .         Measured Depth                : 
TLFamily_LM        .         Casing Collar locator         : 
TLFamily_MN        .                                       : 
TLFamily_TM        .         Temperature                   : 
group              .         second                        : 
~Curve Information
#_______________________________________________________________________________
#
#LOGNAME           .UNIT     LOG_ID                        : DESCRIPTION
#_______________________________________________________________________________
DEPT               .M                                      : Depth curve 
LM                 .е.ацп                                  : Локатор муфт,е.ацп 
MN                 .атм                                    : Манометрия, атм 
TM                 .град.C                                 : Термограмма по стволу скважины,град.C 
~Ascii
# ...
910.2      580.999    83.009     36.917    
910.4      560.004    83.031     36.921    
910.6      613.005    83.042     36.925    
910.8      681.208    83.051     36.929    
911        3741.174   83.071     36.933    
911.2      6306.845   83.09      36.936    
911.4      4020.904   83.105     36.943    
911.6      2605.944   83.111     36.948    
911.8      1775.963   83.132     36.952    
912        1230.979   83.153     36.956    
912.2      924.987    83.173     36.96     
912.4      737.995    83.192     36.964    
912.6      658.998    83.213     36.967    
912.8      631.999    83.234     36.974    
913        623.995    83.255     36.979    
913.2      550.002    83.254     36.985    
913.4      575.001    83.291     36.991    
913.6      583.002    83.297     36.995    
913.8      615.998    83.315     36.999    
914        580        83.335     37.003    
914.2      580.001    83.339     37.006    
914.4      588.999    83.353     37.011    
914.6      574.998    83.373     37.018    
914.8      539.006    83.407     37.022    
915        634.003    83.425     37.026    
915.2      676.998    83.437     37.03     
915.4      645        83.456     37.038    
915.6      638.998    83.476     37.042    
915.8      604.004    83.497     37.045    
916        665.998    83.51      37.05     
916.2      641.002    83.517     37.053    
916.4      671.997    83.538     37.057    
916.6      634.998    83.559     37.065    
916.8      608.999    83.573     37.069    
917        589.006    83.578     37.073    
917.2      682.995    83.598     37.077    
917.4      612.999    83.619     37.081    
917.6      603.995    83.639     37.085    
917.8      534        83.661     37.088    
918        539        83.681     37.095    
918.2      537.001    83.701     37.1      
918.4      545.002    83.7       37.104    
918.6      575.017    83.719     37.11     
918.8      816.992    83.74      37.114    
919        700.994    83.742     37.117    
919.2      611.996    83.761     37.124    
919.4      556.998    83.799     37.126    
919.6      528        83.807     37.129    
919.8      533.999    83.823     37.136    
920        519.001    83.845     37.139    
920.2      532.004    83.867     37.144    
920.4      593.999    83.871     37.148    
920.6      578.998    83.906     37.152    
920.8      542.998    83.913     37.157    
921        513        83.928     37.164    
921.2      513.004    83.962     37.168    
921.4      570        83.977     37.175    
921.6      565        83.977     37.179    
921.8      558.003    83.988     37.183    
922        608.01     84.009     37.187    
922.2      748.431    84.03      37.191    
922.4      7026.823   84.051     37.195    
922.6      4447.892   84.072     37.203    
922.8      2872.933   84.093     37.203    
923        1893.96    84.113     37.206    
923.2      1309.976   84.133     37.21     
923.4      954.991    84.148     37.217    
923.6      822.99     84.16      37.222    
923.8      679.996    84.195     37.226    
924        616.996    84.212     37.232    
924.2      564.002    84.213     37.24     
924.4      589        84.233     37.246    
924.6      588.999    84.254     37.249    
924.8      569.999    84.275     37.251    
925        556.003    84.295     37.253    
925.2      604.998    84.297     37.257    
925.4      575.998    84.296     37.261    
925.6      551.013    84.331     37.266    
925.8      736.005    84.357     37.271    
926        802        84.376     37.274    
926.2      801.994    84.382     37.28     
926.4      714.996    84.395     37.284    
926.6      653.998    84.416     37.288    
926.8      623.01     84.437     37.292    
927        767.998    84.458     37.3      
927.2      744.996    84.479     37.304    
927.4      689.999    84.488     37.308    
927.6      675.001    84.496     37.311    
927.8      691.008    84.517     37.315    
928        803.995    84.539     37.319    
928.2      732.995    84.56      37.323    
928.4      664.999    84.58      37.327    
928.6      645        84.595     37.334    
928.8      641        84.599     37.339    
929        642.998    84.618     37.343    
929.2      619.001    84.64      37.347    
929.4      627.998    84.658     37.353    
929.6      602.999    84.66      37.358    
929.8      590.002    84.702     37.362    
930        624.998    84.722     37.368    
930.2      588.998    84.725     37.375    
930.4      563.998    84.744     37.379    
930.6      540.998    84.765     37.38     
930.8      515.001    84.765     37.382    
931        530.003    84.806     37.386    
931.2      569        84.829     37.39     
931.4      565.999    84.849     37.394    
931.6      554        84.871     37.398    
931.8      556.012    84.872     37.402    
932        722        84.887     37.405    
932.2      721.998    84.909     37.409    
932.4      696.995    84.93      37.413    
932.6      618.013    84.952     37.417    
932.8      812.036    84.972     37.422    
933        1325.287   84.979     37.429    
933.2      5447.077   84.99      37.433    
933.4      6554.837   85.01      37.437    
933.6      4217.9     85.031     37.445    
933.8      2773.935   85.042     37.449    
934        1844.964   85.059     37.452    
934.2      1320.979   85.085     37.456    
934.4      1013.988   85.093     37.46     
934.6      838.006    85.112     37.464    
934.8      920.994    85.127     37.471    
935        837.005    85.136     37.476    
935.2      912.992    85.172     37.48     
935.4      792.996    85.192     37.483    
935.6      741.999    85.193     37.49     
935.8      720.991    85.213     37.495    
936        597        85.234     37.499    
936.2      603.998    85.254     37.501    
936.4      578.002    85.274     37.503    
936.6      603.032    85.277     37.507    
936.8      1066.987   85.295     37.511    
937        887        85.315     37.516    
937.2      887.001    85.336     37.522    
937.4      896.996    85.355     37.527    
937.6      836.008    85.362     37.533    
937.8      945.99     85.375     37.534    
938        798.007    85.396     37.538    
938.2      898.02     85.417     37.542    
938.4      1182.004   85.437     37.546    
938.6      1243.982   85.457     37.554    
938.8      989.005    85.477     37.557    
939        1053.988   85.498     37.561    
939.2      880.999    85.511     37.565    
939.4      868.992    85.518     37.572    
939.6      747.994    85.538     37.574    
939.8      668.994    85.553     37.58     
940        585.001    85.562     37.585    
940.2      594.018    85.602     37.586    
940.4      849        85.623     37.589    
940.6      855.99     85.64      37.593    
940.8      715.997    85.642     37.597    
941        673.997    85.661     37.603    
941.2      626.998    85.682     37.606    
941.4      599.001    85.683     37.61     
941.6      609.997    85.725     37.616    
941.8      574.002    85.724     37.62     
942        609.003    85.745     37.624    
942.2      650.014    85.765     37.63     
942.4      855.991    85.766     37.636    
942.6      732.996    85.783     37.64     
942.8      681.009    85.804     37.643    
943        808        85.825     37.647    
943.2      807.992    85.847     37.65     
943.4      694.997    85.868     37.652    
943.6      657.995    85.888     37.659    
943.8      593.002    85.908     37.663    
944        616.01     85.928     37.667    
944.2      761.431    85.938     37.67     
944.4      6881.825   85.948     37.674    
944.6      4390.892   85.969     37.678    
944.8      2854.93    85.989     37.682    
945        1856.969   86.01      37.686    
945.2      1413.976   86.023     37.69     
945.4      1073.983   86.03      37.694    
945.6      834.995    86.055     37.698    
945.8      760.999    86.088     37.701    
946        739.994    86.09      37.708    
946.2      659.998    86.11      37.713    
946.4      629.998    86.131     37.717    
