~Version
 VERS              .         2.0                           : CWLS LOG ASCII STANDARD - VERSION 2.0
 WRAP              .         NO                            : ONE LINE PER DEPTH STEP
 DLM               .         SPACE                         : DELIMITING CHARACTER(SPACE TAB OR COMMA)
~Well Information
#_______________________________________________________________________________
#
#PARAMETER_NAME    .UNIT     VALUE                         : DESCRIPTION
#_______________________________________________________________________________
STRT               .M        2647.6                        : First reference value
STOP               .M        2755.199839                   : Last reference value
STEP               .M        0.1999997                     : Step increment
NULL               .         -9999                         : Missing value
COMP               .                                       : Company
WELL               .         616                           : Well name
FLD                .                                       : Field
LOC                .                                       : Location
CNTY               .                                       : County
STAT               .                                       : State
CTRY               .                                       : Country
SRVC               .                                       : Service Company
DATE               .                                       : Date
API                .                                       : API number
PROJECT_UPGRADE_TIME .         2021-03-18T21_24_50           : 
group              .         Good                          : 
~Parameter Information Block
#_______________________________________________________________________________
#
#PARAMETER_NAME    .UNIT     VALUE                         : DESCRIPTION
#_______________________________________________________________________________
SET                .         D7024_D                       : 
OTHER              .         Kedr.exe версия 2.1.2.32      : 
OTHER_10           .         TM.GRD = 0.00404*TM$.UE + 0.07: 
OTHER_11           .         MN.ATM = (6.33279e-006*TM.GRD + 0.02401)*(MN$.UE + 2.72*TM.GRD + -2018): 
OTHER_12           .         GK.MKR/H = GK$.UE / 43.5489 + 0: 
OTHER_13           .         RES.SM = 0.00476*CRES.UE - 1.51709: 
OTHER_14           .         PL.GSM3 = 0 + 0 * (PL.UE / 1) +  0 * (PL.UE / 1)^2: 
OTHER_15           .         Постоянная времени ГГП = 6 сек: 
OTHER_16           .         Постоянная времени ГК = 6 сек : 
OTHER_2            .         KedrData.dll версия 3.2.2.14  : 
OTHER_3            .         LasInf.dll версия 3.2.0.13    : 
OTHER_4            .         Драйвер версия 1.2.0.5        : 
OTHER_5            .         Прибор_ КСА-M1                : 
OTHER_6            .         Номер прибора_ 155+р204       : 
OTHER_7            .         Режим_ КСА-М1 + ГГП + Резистивиметр: 
OTHER_8            .         Форма_ 223\2                  : 
OTHER_9            .         Тарировки_                    : 
PROJECT_UPGRADE_TIME .         2021-03-18T21_24_50           : 
TLFamily_CRES      .                                       : 
TLFamily_DEPT      .         Measured Depth                : 
TLFamily_GK        .         Gamma Ray                     : 
TLFamily_GK$       .                                       : 
TLFamily_LM        .         Casing Collar locator         : 
TLFamily_METKA     .                                       : 
TLFamily_MN        .                                       : 
TLFamily_MN$       .                                       : 
TLFamily_PL        .                                       : 
TLFamily_PL_2      .                                       : 
TLFamily_RCOR      .                                       : 
TLFamily_RES       .         Mud Resistivity               : 
TLFamily_SPID      .         Spontaneous Potential         : 
TLFamily_STD       .                                       : 
TLFamily_TIME      .         Time                          : 
TLFamily_TM        .         Temperature                   : 
TLFamily_TM$       .         Temperature                   : 
TLFamily_VGD       .         Gas Volume                    : 
group              .         prim                          : 
~Curve Information
#_______________________________________________________________________________
#
#LOGNAME           .UNIT     LOG_ID                        : DESCRIPTION
#_______________________________________________________________________________
DEPT               .M                                      : 1 Глубина, м -    0.0 см 
CRES               .UE                                     : 9 Проводимость, усл.ед. -  222.0 см 
GK                 .MKR/H                                  : 16 Гамма-активность, мкр./ч -  106.0 см 
GK$                .UE                                     : 13 Гамма-активность, усл.ед. -  106.0 см 
LM                 .                                       : 11 Локатор муфт,  -   16.0 см 
METKA              .                                       : 3 Метки,  -    0.0 см 
MN                 .ATM                                    : 15 Давление, атм. -  160.0 см 
MN$                .UE                                     : 7 Давление, усл.ед. -  160.0 см 
PL                 .UE                                     : 10 Плотность, усл.ед. -  270.0 см 
PL_2               .GSM3                                   : 18 Плотность, г./см3 -  270.0 см 
RCOR               .CM/KM                                  : 5 Коррекция по ролику, см/км -    0.0 см 
RES                .SM                                     : 17 Проводимость,  -  222.0 см 
SPID               .M/H                                    : 2 Скорость, м/час -    0.0 см 
STD                .                                       : 12 Приток,  -  170.0 см 
TIME               .S                                      : 4 Время, сек -    0.0 см 
TM                 .GRD                                    : 14 Температура, °C -  180.0 см 
TM$                .UE                                     : 6 Температура, усл.ед. -  180.0 см 
VGD                .                                       : 8 Влагомер,  -  170.0 см 
~Ascii
# ...
2688.599939 1241       8.51       378        59         0          369.534    17032      14         0          0          4.3901     580        10983      16099.76   56.044     13855      6694      
2688.799938 1242       8.65       383        51         0          370.898    17088      14         0          0          4.3964     580        10980      16101.1    56.032     13852      6698      
2688.999938 1244       8.69       376        76         0          371.652    17119      14         0          0          4.4053     580        10980      16102.36   56.028     13851      6699      
2689.199938 1242       8.56       367        42         0          373.152    17181      14         0          0          4.3964     560        10980      16103.65   56.025     13850      6699      
2689.399937 1244       8.43       350        46         0          372.613    17159      14         0          0          4.4043     510        10980      16104.97   56.023     13850      6700      
2689.599937 1242       8.2        347        30         0          373.096    17179      14         0          0          4.3965     568        10979      16106.24   56.02      13849      6699      
2689.799937 1245       8.22       372        20         0          372.455    17152      14         0          0          4.4091     580        10981      16107.54   56.016     13848      6699      
2689.999936 1245       8.38       372        23         0          372.799    17166      14         0          0          4.4091     580        10983      16108.81   56.012     13847      6697      
2690.199936 1246       8.94       439        110        1          372.586    17158      14         0          0          4.4139     580        10984      16110.71   56.008     13846      6699      
2690.399936 1246       9.5        439        117        0          372.099    17138      14         0          0          4.4139     545        10981      16112      56         13844      6700      
2690.599935 1246       9.84       452        89         0          371.28     17104      14         0          0          4.4139     521        10978      16113.33   55.99      13842      6699      
2690.799935 1245       10.11      452        82         0          371.02     17094      14         0          0          4.4091     510        10974      16114.6    55.982     13839      6700      
2690.999935 1245       10.03      421        75         0          370.25     17062      14         0          0          4.4091     557        10969      16115.94   55.978     13839      6698      
2691.199935 1243       9.83       427        70         0          371.053    17095      14         0          0          4.4004     580        10967      16117.23   55.976     13838      6699      
2691.399934 1241       9.96       440        114        0          370.766    17083      14         0          0          4.388      568        10967      16118.56   55.971     13837      6696      
2691.599934 1239       10.11      457        135        0          371.85     17128      14         0          0          4.3805     472        10967      16119.9    55.97      13837      6700      
2691.799934 1239       10.33      460        139        0          373.031    17176      14         0          0          4.379      550        10967      16121.2    55.959     13834      6695      
2691.999933 1239       10.43      457        143        0          372.407    17151      14         0          0          4.3805     580        10967      16122.5    55.948     13831      6695      
2692.199933 1239       10.46      457        4108       0          371.499    17114      14         0          0          4.3826     510        10968      16123.79   55.943     13830      6697      
2692.399933 1241       10.31      419        5360       0          371.127    17098      14         0          0          4.3901     580        10970      16125.06   55.939     13829      6698      
2692.599932 1241       9.87       411        1298       0          371.027    17094      14         0          0          4.3901     580        10968      16126.39   55.935     13828      6697      
2692.799932 1241       9.7        418        329        0          370.675    17080      14         0          0          4.3924     580        10968      16127.7    55.926     13826      6699      
2692.999932 1242       9.65       418        106        0          369.795    17044      14         0          0          4.3948     568        10965      16129.02   55.909     13821      6698      
2693.199932 1242       9.91       458        72         0          370.988    17093      14         0          0          4.3948     580        10962      16130.29   55.895     13818      6696      
2693.399931 1241       10.21      458        73         0          371.418    17111      14         0          0          4.3917     580        10960      16131.6    55.886     13816      6699      
2693.599931 1241       10.23      443        74         0          373.252    17186      14         0          0          4.3877     545        10957      16132.89   55.879     13814      6699      
2693.799931 1243       10.2       443        86         0          373.019    17176      14         0          0          4.3988     522        10957      16134.22   55.872     13812      6699      
2693.99993 1241       9.99       416        184        0          374.636    17243      14         0          0          4.3901     580        10955      16135.49   55.866     13811      6699      
2694.19993 1241       9.78       416        144        0          373.274    17187      14         0          0          4.3885     530        10951      16136.83   55.858     13809      6699      
2694.39993 1240       9.63       412        69         0          373.68     17204      14         0          0          4.3853     580        10949      16138.09   55.856     13808      6699      
2694.599929 1242       9.55       412        43         0          373.189    17184      14         0          0          4.3932     533        10946      16139.38   55.844     13805      6699      
2694.799929 1237       10.02      463        48         0          373.653    17203      14         0          0          4.3711     580        10943      16140.65   55.83      13802      6698      
2694.999929 1240       10.32      463        55         0          372.605    17160      14         0          0          4.3853     522        10938      16141.99   55.818     13799      6699      
2695.199929 1238       10.5       465        56         0          372.407    17152      14         0          0          4.3782     580        10935      16143.27   55.809     13797      6699      
2695.399928 1241       10.5       445        56         0          371.121    17099      14         0          0          4.3885     580        10936      16144.54   55.802     13795      6701      
2695.599928 1238       10.12      424        69         0          370.783    17085      14         0          0          4.3758     569        10935      16145.88   55.798     13794      6698      
2695.799928 1238       9.94       424        96         0          371.273    17105      14         0          0          4.3758     580        10932      16147.21   55.786     13791      6698      
2695.999927 1239       10.19      456        38         0          372.65     17162      14         0          0          4.3805     557        10928      16148.48   55.778     13789      6700      
2696.199927 1239       10.37      465        25         0          371.832    17128      14         0          0          4.3805     580        10928      16149.75   55.774     13788      6701      
2696.399927 1243       10.64      476        34         0          372.765    17167      14         0          0          4.3996     530        10929      16151.05   55.769     13787      6697      
2696.599927 1241       10.73      464        28         0          372.391    17151      14         0          0          4.3901     510        10929      16152.38   55.765     13786      6700      
