~Version
 VERS              .         2.0                           : CWLS LOG ASCII STANDARD - VERSION 2.0
 WRAP              .         NO                            : ONE LINE PER DEPTH STEP
 DLM               .         SPACE                         : DELIMITING CHARACTER(SPACE TAB OR COMMA)
~Well Information
#_______________________________________________________________________________
#
#PARAMETER_NAME    .UNIT     VALUE                         : DESCRIPTION
#_______________________________________________________________________________
STRT               .M        12                            : First reference value
STOP               .M        2758.6                        : Last reference value
STEP               .M        0.2                           : Step increment
NULL               .         -9999                         : Missing value
COMP               .                                       : Company
WELL               .         616                           : Well name
FLD                .                                       : Field
LOC                .                                       : Location
CNTY               .                                       : County
STAT               .                                       : State
CTRY               .                                       : Country
SRVC               .                                       : Service Company
DATE               .                                       : Date
API                .                                       : API number
PROJECT_UPGRADE_TIME .         2021-03-18T21_24_50           : 
group              .         Good                          : 
~Parameter Information Block
#_______________________________________________________________________________
#
#PARAMETER_NAME    .UNIT     VALUE                         : DESCRIPTION
#_______________________________________________________________________________
SET                .         616ULN                        : 
PROJECT_UPGRADE_TIME .         2021-03-18T21_24_49           : 
TLFamily_AK4       .                                       : 
TLFamily_ALFAK     .                                       : 
TLFamily_AMPL      .                                       : 
TLFamily_DEPTH     .         Measured Depth                : 
TLFamily_DK1       .                                       : 
TLFamily_DK2       .                                       : 
TLFamily_DTK       .         Compressional Slowness        : 
TLFamily_QCBL      .                                       : 
TLFamily_T1        .         Travel Time 1                 : 
TLFamily_T2        .         Travel Time 2                 : 
group              .         prim                          : 
~Curve Information
#_______________________________________________________________________________
#
#LOGNAME           .UNIT     LOG_ID                        : DESCRIPTION
#_______________________________________________________________________________
DEPTH              .M                                      : 0 Depth curve 
AK4                .                                       : 2 Амплитуда - Волна по колонне - Канал1 
ALFAK              .дБ/м                                   : 1 Затухание - Волна по колонне 
AMPL               .                                       : 8 Коэффициент усиления ВС 
DK1                .дБ                                     : 3 Кривая ослабления - Волна по колонне - Канал1 
DK2                .дБ                                     : 4 Кривая ослабления - Волна по колонне - Канал2 
DTK                .мкс/м                                  : 5 ДельтаТ - Волна по породе 
QCBL               .                                       : 9 Контакт цемент-колонна 
T1                 .мкс                                    : 6 Время пробега - Волна по породе - Канал1 
T2                 .мкс                                    : 7 Время пробега - Волна по породе - Канал2 
~Ascii
# ...
2012.2     271.873    31.411     1          32.859     40.136     311.756    3          292.705    448.504   
2012.4     288.459    31.374     1          32.315     40.361     313.293    3          292.148    448.742   
2012.6     301.787    31.465     1          31.88      40.56      314.998    3          291.631    449.105   
2012.8     312.822    31.618     1          31.524     40.915     316.231    3          291.315    449.432   
2013       317.893    31.785     1          31.38      41.169     316.945    3          291.244    449.719   
2013.2     318.312    31.964     1          31.377     41.384     317.171    3          291.178    449.766   
2013.4     314.364    32.108     1          31.496     41.474     317.439    3          291.168    449.889   
2013.6     308.871    32.157     1          31.659     41.515     317.984    3          291.164    450.158   
2013.8     302.827    31.435     1          31.827     41.33      317.872    3          291.246    450.183   
2014       296.198    30.483     1          32.009     40.841     317.034    3          291.288    449.825   
2014.2     291.258    29.678     1          32.141     40.539     315.419    3          291.284    449.031   
2014.4     290.329    29.004     1          32.163     40.546     314.386    3          291.245    448.493   
2014.6     286.188    28.399     1          32.331     40.735     313.231    3          291.199    447.869   
2014.8     275.415    27.999     1          32.705     40.651     311.507    3          292.403    446.309   
2015       260.777    27.543     1          33.032     40.571     308.076    3          294.883    444.226   
2015.2     251.857    26.647     1          33.319     40.152     304.571    3          298.014    441.7     
2015.4     241.937    26.036     1          33.669     39.81      301.402    3          301.418    439.799   
2015.6     240.078    26.287     1          33.724     39.615     297.599    3          305.058    438.587   
2015.8     240.687    27.367     1          33.697     39.842     293.403    3          307.246    439.367   
2016       250.347    28.635     1          33.521     40.438     289.517    3          308.073    441.08    
2016.2     253.434    30.191     1          33.411     41.239     287.144    3          308.397    444.105   
2016.4     259.94     31.419     1          33.166     42.093     284.108    3          308.511    446.402   
2016.6     269.846    31.891     1          32.845     42.6       281.273    3          308.501    447.926   
2016.8     285.752    32.052     1          32.344     43.054     279.132    3          308.568    448.135   
2017       296.106    32.389     1          32.051     43.539     279.237    3          308.705    448.325   
2017.2     303.169    32.618     1          31.843     44.01      281.393    3          308.636    449.335   
2017.4     301.836    32.445     1          31.908     44.182     286.242    3          308.678    451.8     
2017.6     295.69     31.867     1          32.1       44.606     293.298    3          308.896    455.547   
2017.8     282.941    31.198     1          32.485     45.29      300.126    3          309.465    459.545   
2018       276.295    30.686     1          32.663     45.554     304.944    3          310.167    462.671   
2018.2     290.483    30.377     1          32.673     45.621     305.036    3          310.966    463.531   
2018.4     317.093    30.05      1          32.298     45.321     301.4      3          311.393    462.141   
2018.6     343.579    29.51      1          31.931     44.85      296.054    3          311.127    459.201   
2018.8     358.673    28.671     1          31.47      44.484     293.214    3          310.165    456.804   
2019       367.905    27.623     1          31.212     44.391     291.702    3          308.934    454.802   
2019.2     386.141    26.624     1          30.797     44.086     291.546    3          307.603    453.378   
2019.4     420.802    25.956     1          30.126     43.463     283.909    3          306.383    448.339   
2019.6     472.785    25.557     1          29.143     42.505     269.118    3          305.541    440.102   
2019.8     530.943    24.768     1          28.051     40.707     245.765    3          305.114    427.998   
2020       580.99     23.702     1          27.082     38.804     226.416    3          304.843    418.004   
2020.2     598.478    23.062     1          26.443     37.593     211.459    3          304.583    410.266   
2020.4     588.219    23.349     1          26.294     37.531     213.049    3          304.405    410.883   
2020.6     555.132    23.974     1          26.56      37.959     223.246    3          304.252    415.808   
2020.8     522.133    24.866     1          27.098     38.882     236.923    3          304.066    422.482   
2021       481.838    25.576     1          27.588     39.764     244.149    3          303.879    425.967   
2021.2     448.274    25.271     1          28.313     39.935     240.882    3          303.802    426.639   
2021.4     404.235    24.579     1          29.5       39.741     226.601    3          303.934    423.929   
2021.6     355.483    24.201     1          31.322     39.716     212.094    3          304.113    420.987   
2021.8     291.935    25.318     1          33.377     39.747     201.066    3          305.808    421.106   
2022       241.589    27.31      1          35.48      40.115     193.516    3          308.225    423.109   
2022.2     190.902    29.617     1          37.237     41.277     200.971    3          310.057    428.728   
2022.4     165.178    31.359     1          38.076     42.96      223.58     3          311.154    437.378   
2022.6     157.174    32.522     1          37.804     44.485     254.085    3          311.367    446.966   
2022.8     181.787    32.628     1          36.709     45.698     284.496    3          309.988    456.725   
2023       210.34     32.284     1          35.432     46.512     315.914    3          307.79     466.69    
2023.2     239.804    32.117     1          34.133     46.406     339.501    3          306.005    474.084   
2023.4     264.113    31.93      1          33.112     45.662     354.119    3          304.676    478.253   
2023.6     280.794    31.767     1          32.467     44.652     356.82     3          304.314    479.49    
2023.8     288.651    31.662     1          32.224     43.837     356.967    3          304.342    477.797   
2024       293.195    31.584     1          32.082     42.967     349.116    3          304.722    472.521   
2024.2     300.256    31.426     1          31.88      42.783     337.919    3          305.242    465.808   
2024.4     305.454    31.209     1          31.73      42.476     319.924    3          305.901    458.734   
2024.6     308.624    30.956     1          31.64      42.184     304.523    3          306.32     452.968   
2024.8     311.557    30.601     1          31.566     41.825     291.574    3          306.383    448.505   
2025       318.639    30.188     1          31.38      41.778     285.099    3          306.03     446.862   
2025.2     327.307    30.028     1          31.152     41.693     281.972    3          305.56     446.68    
2025.4     337.576    30.355     1          30.892     41.814     282.107    3          304.903    446.091   
2025.6     352.904    31.095     1          30.504     41.973     278.594    3          304.372    443.739   
2025.8     369.846    31.966     1          30.251     41.75      273.416    3          303.925    440.555   
2026       373.9      32.724     1          30.18      41.315     269.137    3          303.78     438.123   
2026.2     359.675    32.954     1          30.64      40.931     265.688    3          304.015    436.499   
2026.4     331.619    31.897     1          31.473     40.704     263.153    3          304.634    435.798   
2026.6     298.849    30.05      1          32.43      40.384     261.319    3          305.353    435.706   
