~Version
 VERS              .         2.0                           : CWLS LOG ASCII STANDARD - VERSION 2.0
 WRAP              .         NO                            : ONE LINE PER DEPTH STEP
 DLM               .         SPACE                         : DELIMITING CHARACTER(SPACE TAB OR COMMA)
~Well Information
#_______________________________________________________________________________
#
#PARAMETER_NAME    .UNIT     VALUE                         : DESCRIPTION
#_______________________________________________________________________________
STRT               .M        138.6                         : First reference value
STOP               .M        217                           : Last reference value
STEP               .M        0.2                           : Step increment
NULL               .         -9999                         : Missing value
COMP               .                                       : Company
WELL               .         616                           : Well name
FLD                .                                       : Field
LOC                .                                       : Location
CNTY               .                                       : County
STAT               .                                       : State
CTRY               .                                       : Country
SRVC               .                                       : Service Company
DATE               .                                       : Date
API                .                                       : API number
PROJECT_UPGRADE_TIME .         2021-03-18T21_24_50           : 
group              .         Good                          : 
~Parameter Information Block
#_______________________________________________________________________________
#
#PARAMETER_NAME    .UNIT     VALUE                         : DESCRIPTION
#_______________________________________________________________________________
SET                .         D1349_D                       : 
OTHER              .         Программное обеспечение станции MONITOR-386EX 25/12/99 15_08_10   BGF V52 22/08/01 16_56_30   3.1_SNGF__BGF_								111238: 
OTHER_10           .         Тарировки_                    : 
OTHER_11           .         <_techsia_sc_> Постоянная времени фильтра  0.5 сек, kf=0.181269: 
OTHER_12           .         TM.GRD = 0.00428968*TM$.UE + -0.3284: 
OTHER_13           .         GK.MKR/H = GK$.UE / 40.16     : 
OTHER_14           .         NKT. = NKT$.UE / 1            : 
OTHER_2            .         Kedr.exe версия 3.3.2.43      : 
OTHER_3            .         KedrData.dll версия 3.3.2.22  : 
OTHER_4            .         Драйвер версия 2.1.1.3        : 
OTHER_5            .         Мнемоники версия 3.3 S        : 
OTHER_6            .         Прибор_ РК4-38                : 
OTHER_7            .         Номер прибора_ 35с            : 
OTHER_8            .         Режим_ РК4-38                 : 
OTHER_9            .         Форма_ 3                      : 
PROJECT_UPGRADE_TIME .         2021-03-18T21_24_49           : 
TLFamily_DEPT      .         Measured Depth                : 
TLFamily_GK        .         Gamma Ray                     : 
TLFamily_GK$       .                                       : 
TLFamily_LM        .         Casing Collar locator         : 
TLFamily_METKA     .                                       : 
TLFamily_NKT       .         Neutron Far                   : 
TLFamily_NKT$      .         Neutron Far                   : 
TLFamily_RCOR      .                                       : 
TLFamily_SPID      .         Spontaneous Potential         : 
TLFamily_TENS      .         Cable Tension                 : 
TLFamily_TIME      .         Time                          : 
TLFamily_TM        .         Temperature                   : 
TLFamily_TM$       .         Temperature                   : 
group              .         prim                          : 
~Curve Information
#_______________________________________________________________________________
#
#LOGNAME           .UNIT     LOG_ID                        : DESCRIPTION
#_______________________________________________________________________________
DEPT               .M                                      : 1 Глубина, м -    0.0 см 
GK                 .MKR/H                                  : 12 Гамма-активность, мкр./ч -   23.0 см 
GK$                .UE                                     : 10 Гамма-активность, усл.ед. -   23.0 см 
LM                 .                                       : 8 Локатор муфт,  -  180.0 см 
METKA              .                                       : 3 Метки,  -    0.0 см 
NKT                .                                       : 13 НКТ, прив. -  160.0 см 
NKT$               .UE                                     : 9 НКТ, усл.ед. -  160.0 см 
RCOR               .CM/KM                                  : 5 Коррекция по ролику, см/км -    0.0 см 
SPID               .M/H                                    : 2 Скорость, м/час -    0.0 см 
TENS               .T                                      : 6 Натяжение кабеля, т -    0.0 см 
TIME               .S                                      : 4 Время, сек -    0.0 см 
TM                 .GRD                                    : 11 Температура, °C -  193.0 см 
TM$                .UE                                     : 7 Температура, усл.ед. -  193.0 см 
~Ascii
# ...
161        3.67       146        116        0          0          0          7013       -311       0          1425.18    3.86       976       
161.2      3.7        149        297        0          0          0          7013       -313       0          1422.87    3.874      980       
161.4      3.71       148        323        0          0          0          7013       -309       0          1420.45    3.867      978       
161.6      3.77       150        91         0          0          0          7013       -309       0          1418.19    3.77       956       
161.8      3.83       152        76         0          0          0          7013       -314       0          1415.93    3.823      968       
162        3.91       158        64         0          0          0          7013       -317       0          1413.61    3.803      963       
162.2      3.85       154        103        0          0          0          7013       -314       0          1411.32    3.788      960       
162.4      3.91       154        73         0          0          0          7013       -315       0          1409.08    3.758      952       
162.6      4.14       164        82         0          0          0          7013       -321       0          1406.72    3.749      950       
162.8      4.34       164        70         0          0          0          7013       -311       0          1404.39    3.745      950       
163        4.22       179        91         0          0          0          7013       -303       0          1402.17    3.738      948       
163.2      3.76       173        113        0          0          0          7013       -315       0          1399.82    3.728      946       
163.4      3.62       144        171        0          0          0          7013       -309       0          1397.58    3.693      938       
163.6      3.81       143        93         0          0          0          7013       -310       0          1395.28    3.678      934       
163.8      4.06       160        122        0          0          0          7013       -311       0          1392.94    3.672      933       
164        4.16       165        71         0          0          0          7013       -318       0          1390.69    3.67       932       
164.2      4.22       171        49         0          0          0          7013       -306       0          1388.37    3.647      927       
164.4      4.14       168        108        0          0          0          7013       -309       0          1386.05    3.579      911       
164.6      4.06       161        88         0          0          0          7013       -304       0          1383.81    3.618      920       
164.8      4.22       170        104        0          0          0          7013       -304       0          1381.49    3.554      905       
165        4.16       169        153        0          0          0          7013       -319       0          1379.17    3.573      910       
165.2      4.02       169        73         0          0          0          7013       -328       0          1376.93    3.567      908       
165.4      3.91       161        72         0          0          0          7013       -306       0          1374.63    3.528      899       
165.6      3.96       155        68         0          0          0          7013       -312       0          1372.29    3.489      890       
165.8      4.07       159        85         0          0          0          7013       -301       0          1369.94    3.486      889       
166        4.1        169        116        0          0          0          7013       -305       0          1367.6     3.474      886       
166.2      3.92       163        171        0          0          0          7013       -316       0          1365.36    3.432      876       
166.4      3.78       153        138        0          0          0          7013       -322       0          1363.12    3.438      878       
166.6      3.82       146        92         0          0          0          7013       -315       0          1360.73    3.382      865       
166.8      4.13       167        94         0          0          0          7013       -317       0          1358.47    3.378      864       
167        4.04       167        98         0          0          0          7013       -309       0          1356.23    3.402      870       
167.2      3.72       149        317        0          0          0          7013       -309       0          1353.84    3.371      863       
167.4      3.77       151        4893       0          0          0          7013       -309       0          1351.54    3.281      841       
167.6      3.81       152        9451       0          0          0          7013       -308       0          1349.35    3.324      851       
167.8      3.89       152        65         0          0          0          7013       -306       0          1346.96    3.33       853       
168        3.92       157        75         0          0          0          7013       -306       0          1344.66    3.296      845       
168.2      3.7        161        63         0          0          0          7013       -306       0          1342.36    3.222      828       
168.4      3.48       147        87         0          0          0          7013       -320       0          1340.07    3.226      829       
168.6      3.39       132        92         0          0          0          7013       -310       0          1337.67    3.17       815       
168.8      3.56       137        107        0          0          0          7013       -313       0          1335.48    3.133      807       
169        3.87       144        64         0          0          0          7013       -313       0          1333.04    3.103      800       
169.2      4.35       169        97         0          0          0          7013       -314       0          1330.79    3.099      799       
169.4      4.51       189        83         0          0          0          7013       -309       0          1328.5     3.073      793       
169.6      4.12       170        104        0          0          0          7013       -311       0          1326.15    3.112      802       
169.8      3.85       152        82         0          0          0          7013       -306       0          1323.9     3.069      792       
170        4.05       161        114        2          0          0          7013       -309       0          1321.58    3.013      779       
170.2      4.19       168        94         0          0          0          7013       -312       0          1319.4     3.059      790       
170.4      4.19       169        108        0          0          0          7013       -314       0          1318.37    3.023      781       
170.6      4.16       171        122        0          0          0          7013       -310       0          1316.12    2.977      771       
170.8      3.94       158        86         0          0          0          7013       -310       0          1313.83    2.983      772       
171        3.98       159        91         0          0          0          7013       -308       0          1311.49    2.933      760       
171.2      4.05       167        133        0          0          0          7013       -304       0          1309.24    2.92       757       
171.4      3.64       145        136        0          0          0          7013       -313       0          1306.85    2.897      752       
171.6      3.76       145        61         0          0          0          7013       -314       0          1304.55    2.906      754       
171.8      3.94       151        93         0          0          0          7013       -308       0          1302.35    2.82       734       
172        4.05       160        70         0          0          0          7013       -311       0          1299.96    2.784      725       
