~Version
 VERS              .         2.0                           : CWLS LOG ASCII STANDARD - VERSION 2.0
 WRAP              .         NO                            : ONE LINE PER DEPTH STEP
 DLM               .         SPACE                         : DELIMITING CHARACTER(SPACE TAB OR COMMA)
~Well Information
#_______________________________________________________________________________
#
#PARAMETER_NAME    .UNIT     VALUE                         : DESCRIPTION
#_______________________________________________________________________________
STRT               .M        2647.6                        : First reference value
STOP               .M        2755.199839                   : Last reference value
STEP               .M        0.1999997                     : Step increment
NULL               .         -9999                         : Missing value
COMP               .                                       : Company
WELL               .         616                           : Well name
FLD                .                                       : Field
LOC                .                                       : Location
CNTY               .                                       : County
STAT               .                                       : State
CTRY               .                                       : Country
SRVC               .                                       : Service Company
DATE               .                                       : Date
API                .                                       : API number
PROJECT_UPGRADE_TIME .         2021-03-18T21_24_50           : 
group              .         Good                          : 
~Parameter Information Block
#_______________________________________________________________________________
#
#PARAMETER_NAME    .UNIT     VALUE                         : DESCRIPTION
#_______________________________________________________________________________
SET                .         D7024_D                       : 
OTHER              .         Kedr.exe версия 2.1.2.32      : 
OTHER_10           .         TM.GRD = 0.00404*TM$.UE + 0.07: 
OTHER_11           .         MN.ATM = (6.33279e-006*TM.GRD + 0.02401)*(MN$.UE + 2.72*TM.GRD + -2018): 
OTHER_12           .         GK.MKR/H = GK$.UE / 43.5489 + 0: 
OTHER_13           .         RES.SM = 0.00476*CRES.UE - 1.51709: 
OTHER_14           .         PL.GSM3 = 0 + 0 * (PL.UE / 1) +  0 * (PL.UE / 1)^2: 
OTHER_15           .         Постоянная времени ГГП = 6 сек: 
OTHER_16           .         Постоянная времени ГК = 6 сек : 
OTHER_2            .         KedrData.dll версия 3.2.2.14  : 
OTHER_3            .         LasInf.dll версия 3.2.0.13    : 
OTHER_4            .         Драйвер версия 1.2.0.5        : 
OTHER_5            .         Прибор_ КСА-M1                : 
OTHER_6            .         Номер прибора_ 155+р204       : 
OTHER_7            .         Режим_ КСА-М1 + ГГП + Резистивиметр: 
OTHER_8            .         Форма_ 223\2                  : 
OTHER_9            .         Тарировки_                    : 
PROJECT_UPGRADE_TIME .         2021-03-18T21_24_50           : 
TLFamily_CRES      .                                       : 
TLFamily_DEPT      .         Measured Depth                : 
TLFamily_GK        .         Gamma Ray                     : 
TLFamily_GK$       .                                       : 
TLFamily_LM        .         Casing Collar locator         : 
TLFamily_METKA     .                                       : 
TLFamily_MN        .                                       : 
TLFamily_MN$       .                                       : 
TLFamily_PL        .                                       : 
TLFamily_PL_2      .                                       : 
TLFamily_RCOR      .                                       : 
TLFamily_RES       .         Mud Resistivity               : 
TLFamily_SPID      .         Spontaneous Potential         : 
TLFamily_STD       .                                       : 
TLFamily_TIME      .         Time                          : 
TLFamily_TM        .         Temperature                   : 
TLFamily_TM$       .         Temperature                   : 
TLFamily_VGD       .         Gas Volume                    : 
group              .         prim                          : 
~Curve Information
#_______________________________________________________________________________
#
#LOGNAME           .UNIT     LOG_ID                        : DESCRIPTION
#_______________________________________________________________________________
DEPT               .M                                      : 1 Глубина, м -    0.0 см 
CRES               .UE                                     : 9 Проводимость, усл.ед. -  222.0 см 
GK                 .MKR/H                                  : 16 Гамма-активность, мкр./ч -  106.0 см 
GK$                .UE                                     : 13 Гамма-активность, усл.ед. -  106.0 см 
LM                 .                                       : 11 Локатор муфт,  -   16.0 см 
METKA              .                                       : 3 Метки,  -    0.0 см 
MN                 .ATM                                    : 15 Давление, атм. -  160.0 см 
MN$                .UE                                     : 7 Давление, усл.ед. -  160.0 см 
PL                 .UE                                     : 10 Плотность, усл.ед. -  270.0 см 
PL_2               .GSM3                                   : 18 Плотность, г./см3 -  270.0 см 
RCOR               .CM/KM                                  : 5 Коррекция по ролику, см/км -    0.0 см 
RES                .SM                                     : 17 Проводимость,  -  222.0 см 
SPID               .M/H                                    : 2 Скорость, м/час -    0.0 см 
STD                .                                       : 12 Приток,  -  170.0 см 
TIME               .S                                      : 4 Время, сек -    0.0 см 
TM                 .GRD                                    : 14 Температура, °C -  180.0 см 
TM$                .UE                                     : 6 Температура, усл.ед. -  180.0 см 
VGD                .                                       : 8 Влагомер,  -  170.0 см 
~Ascii
2647.6000977 -9999      -9999      -9999      -9999      -9999      -9999      -9999      -9999      -9999      -9999      -9999      -9999      -9999      -9999      -9999      -9999      -9999     
2647.8     -9999      -9999      -9999      -9999      0          -9999      -9999      -9999      -9999      0          -9999      130        -9999      15829.47   -9999      -9999      -9999     
2647.999999 -9999      -9999      -9999      123        0          -9999      -9999      -9999      -9999      0          -9999      190        -9999      15834.26   -9999      -9999      -9999     
2648.199999 -9999      -9999      -9999      158        0          -9999      -9999      -9999      -9999      0          -9999      422        -9999      15836.08   -9999      -9999      -9999     
2648.399999 -9999      -9999      -9999      484        0          -9999      -9999      -9999      -9999      0          -9999      568        -9999      15837.38   -9999      -9999      -9999     
2648.599998 -9999      -9999      -9999      224        0          -9999      -9999      -9999      -9999      0          -9999      640        -9999      15838.59   -9999      -9999      -9999     
2648.799998 -9999      -9999      -9999      256        0          -9999      -9999      -9999      -9999      0          -9999      621        -9999      15839.79   -9999      -9999      -9999     
2648.999998 -9999      10.19      428        248        0          -9999      -9999      -9999      -9999      0          -9999      510        -9999      15841.03   -9999      -9999      -9999     
2649.199998 -9999      9.88       412        251        0          -9999      -9999      -9999      -9999      0          -9999      580        -9999      15842.3    -9999      -9999      -9999     
2649.399997 -9999      9.37       387        219        0          368.716    16992      -9999      -9999      0          -9999      580        -9999      15843.57   -9999      -9999      -9999     
2649.599997 -9999      9          355        191        0          367.684    16950      -9999      -9999      0          -9999      640        11173      15844.84   56.994     14090      6695      
2649.799997 -9999      8.6        355        175        0          365.483    16860      -9999      -9999      0          -9999      580        11173      15846.15   57.002     14092      6699      
2649.999996 1256       8.56       391        219        0          365.122    16845      -9999      -9999      0          4.4591     510        11171      15847.24   57.006     14093      6698      
2650.199996 1256       8.76       391        215        1          365.278    16851      -9999      -9999      0          4.4631     580        11169      15848.42   57.005     14093      6697      
2650.399996 1252       9.13       439        256        0          365.547    16862      -9999      -9999      0          4.4434     597        11164      15849.69   57.002     14092      6689      
2650.599995 1256       9.59       439        243        0          364.811    16832      14         0          0          4.4615     510        11162      15851      56.998     14091      6686      
2650.799995 1257       9.99       474        182        0          364.896    16836      14         0          0          4.4683     580        11162      15852.32   56.994     14090      6686      
2650.999995 1257       10.5       481        157        0          365.184    16847      14         0          0          4.4676     545        11159      15853.61   56.994     14090      6687      
2651.199995 1257       10.68      472        180        0          365.736    16870      13         0          0          4.4662     580        11158      15854.88   56.994     14090      6696      
2651.399994 1257       10.66      463        177        0          364.791    16831      13         0          0          4.4669     618        11156      15856.12   56.99      14089      6690      
2651.599994 1258       10.51      433        256        0          366.497    16901      14         0          0          4.471      522        11154      15857.46   56.986     14088      6693      
2651.799994 1257       10.23      433        193        0          365.28     16851      14         0          0          4.4679     580        11153      15858.77   56.986     14088      6695      
2651.999993 1256       10.22      454        160        0          364.877    16835      14         0          0          4.4615     533        11154      15860.06   56.981     14087      6692      
2652.199993 1257       10.32      454        236        0          364.763    16830      14         0          0          4.4662     510        11153      15861.38   56.975     14085      6684      
2652.399993 1258       10.27      431        176        0          365.389    16856      14         0          0          4.4694     522        11154      15862.65   56.973     14085      6691      
2652.599993 1256       10.04      427        157        0          366.442    16899      14         0          0          4.4631     510        11153      15863.98   56.969     14084      6698      
2652.799992 1258       9.79       405        175        0          366.971    16921      14         0          0          4.4726     580        11152      15865.27   56.961     14082      6695      
2652.999992 1257       9.55       405        160        0          368.113    16968      14         0          0          4.4662     510        11151      15866.56   56.963     14082      6696      
2653.199992 1257       9.77       449        164        0          367.24     16932      14         0          0          4.4654     510        11152      15867.9    56.961     14082      6689      
2653.399991 1258       10.04      449        173        0          367.74     16953      13         0          0          4.471      580        11150      15869.17   56.953     14080      6681      
2653.599991 1257       10.41      489        155        0          368.57     16987      14         0          0          4.4663     580        11148      15870.44   56.951     14080      6677      
2653.799991 1257       10.82      489        140        0          368.524    16985      14         0          0          4.4678     580        11147      15871.75   56.945     14078      6692      
2653.99999 1259       10.97      482        118        0          368.007    16964      14         0          0          4.4751     533        11146      15873.09   56.941     14077      6693      
2654.19999 1257       11.02      482        142        0          367.23     16932      14         0          0          4.4678     540        11146      15874.38   56.937     14076      6686      
2654.39999 1258       10.81      457        149        0          366.799    16914      14         0          0          4.4726     580        11146      15875.69   56.933     14075      6694      
2654.599989 1258       10.66      457        133        0          366.36     16896      14         0          0          4.471      580        11145      15877.01   56.929     14074      6698      
2654.799989 1258       10.63      462        147        0          365.891    16877      14         0          0          4.4718     533        11144      15878.28   56.925     14073      6676      
2654.999989 1257       10.62      462        148        0          365.416    16857      14         0          0          4.4683     533        11142      15879.61   56.92      14072      6690      
2655.199989 1257       10.59      459        156        0          365.624    16866      14         0          0          4.4683     532        11142      15880.88   56.919     14071      6683      
2655.399988 1258       10.56      459        131        0          364.678    16827      14         0          0          4.471      570        11142      15882.18   56.914     14070      6684      
2655.599988 1257       10.23      430        156        0          366.302    16894      14         0          0          4.4686     580        11143      15883.46   56.909     14069      6679      
