~Version
 VERS              .         2.0                           : CWLS LOG ASCII STANDARD - VERSION 2.0
 WRAP              .         NO                            : ONE LINE PER DEPTH STEP
 DLM               .         SPACE                         : DELIMITING CHARACTER(SPACE TAB OR COMMA)
~Well Information
#_______________________________________________________________________________
#
#PARAMETER_NAME    .UNIT     VALUE                         : DESCRIPTION
#_______________________________________________________________________________
STRT               .M        2700.4                        : First reference value
STOP               .M        2799                          : Last reference value
STEP               .M        0.2000002                     : Step increment
NULL               .         -9999                         : Missing value
COMP               .                                       : Company
WELL               .         616                           : Well name
FLD                .                                       : Field
LOC                .                                       : Location
CNTY               .                                       : County
STAT               .                                       : State
CTRY               .                                       : Country
SRVC               .                                       : Service Company
DATE               .                                       : Date
API                .                                       : API number
PROJECT_UPGRADE_TIME .         2021-03-18T21_24_50           : 
group              .         Good                          : 
~Parameter Information Block
#_______________________________________________________________________________
#
#PARAMETER_NAME    .UNIT     VALUE                         : DESCRIPTION
#_______________________________________________________________________________
SET                .         D2658_D                       : 
OTHER              .         Программное обеспечение станции MONITOR-386EX 25/12/99 15_08_10   BGF V50 26/12/00 07_26_01   3.1_SNGF___BGF_N_092085: 
OTHER_10           .         Тарировки_                    : 
OTHER_11           .         <_techsia_sc_> Постоянная времени фильтра ПС  0.5 сек, kf=0.139292: 
OTHER_2            .         Kedr.exe версия 3.3.2.32      : 
OTHER_3            .         KedrData.dll версия 3.3.2.17  : 
OTHER_4            .         Драйвер версия 2.1.0.7        : 
OTHER_5            .         Мнемоники версия 3.3 S        : 
OTHER_6            .         Прибор_ К1a-723м              : 
OTHER_7            .         Номер прибора_ 348/72         : 
OTHER_8            .         Режим_ K1A-723M               : 
OTHER_9            .         Форма_ БКЗ                    : 
PROJECT_UPGRADE_TIME .         2021-03-18T21_24_49           : 
TLFamily_BK        .         Lateral Log Resistivity       : 
TLFamily_DEPT      .         Measured Depth                : 
TLFamily_GZ1       .         Extra Shallow Resistivity     : 
TLFamily_GZ2       .         Shallow Resistivity           : 
TLFamily_GZ3       .         Medium Resistivity            : 
TLFamily_GZ4       .         Deep Resistivity              : 
TLFamily_GZ5       .         Extra Deep Resistivity        : 
TLFamily_GZ6       .         Medium Resistivity Inverted   : 
TLFamily_IBK       .                                       : 
TLFamily_IK        .         Conductivity                  : 
TLFamily_IPR       .                                       : 
TLFamily_METKA     .                                       : 
TLFamily_PS        .         Spontaneous Potential         : 
TLFamily_PZ        .         Potential Resistivity         : 
TLFamily_RCOR      .                                       : 
TLFamily_RES       .         Mud Resistivity               : 
TLFamily_SPID      .         Spontaneous Potential         : 
TLFamily_TENS      .         Cable Tension                 : 
TLFamily_TIME      .         Time                          : 
TLFamily_UBK       .         Uranium Concentration         : 
group              .         prim                          : 
~Curve Information
#_______________________________________________________________________________
#
#LOGNAME           .UNIT     LOG_ID                        : DESCRIPTION
#_______________________________________________________________________________
DEPT               .M                                      : 1 Глубина, м -    0.0 см 
BK                 .OHMM                                   : 20 БК, Ом*м - 1768.0 см 
GZ1                .OHMM                                   : 12 A0.4M0.1N, Ом*м - 1295.0 см 
GZ2                .OHMM                                   : 11 A1.0M0.1N, Ом*м - 1355.0 см 
GZ3                .OHMM                                   : 9 A2.0M0.5N, Ом*м - 1475.0 см 
GZ4                .OHMM                                   : 8 A4.0M0.5N, Ом*м - 1025.0 см 
GZ5                .OHMM                                   : 7 A8.0M1.0N, Ом*м - 1450.0 см 
GZ6                .OHMM                                   : 10 N0.5M2.0A, Ом*м - 1025.0 см 
IBK                .A                                      : 18 Ток БК, А - 1768.0 см 
IK                 .MSM/M                                  : 14 ИК, мСм/м - 1961.0 см 
IPR                .MA                                     : 17 Ток прибора, мA -    0.0 см 
METKA              .                                       : 3 Метки,  -    0.0 см 
PS                 .mV                                     : 16 ПС, мВ - 1210.0 см 
PZ                 .OHMM                                   : 13 N11M0.5A, Ом*м - 1225.0 см 
RCOR               .CM/KM                                  : 5 Коррекция по ролику, см/км -    0.0 см 
RES                .OHMM                                   : 15 Резистивиметр, Ом*м -  600.0 см 
SPID               .M/H                                    : 2 Скорость, м/час -    0.0 см 
TENS               .T                                      : 6 Натяжение кабеля, т -    0.0 см 
TIME               .S                                      : 4 Время, сек -    0.0 см 
UBK                .V                                      : 19 Напр. БК, В - 1768.0 см 
~Ascii
# ...
2744.8     6.22       8.9        8.2        7.9        7.5        10.1       8          0.03       131.7      427.006    0          574.55     11.1       -268       2.761      -1761      0          28262.1    0.782     
2745       6.41       8.2        7.6        7.6        6.9        9.5        7.5        0.029      132        428        0          569.52     12         -268       2.764      -1769      0          28261.71   0.777     
2745.2     6.86       8.1        7          6.8        6.4        9          7.2        0.027      134.3      426        0          563.42     11.4       -268       2.759      -1790      0          28261.29   0.785     
2745.4     8.76       8.9        7.3        6.5        6.1        8.5        7          0.021      133.2      424        0          555.43     10.5       -268       2.763      -1790      0          28260.93   0.787     
2745.6     12.17      11.8       8.3        6.5        6.2        8.1        7          0.015      131.1      427.608    0          554.84     9.7        -268       2.762      -1790      0          28260.49   0.785     
2745.8     11.33      15.9       9.9        6.9        6.5        7.8        7.4        0.017      129.3      426.672    0          562.69     9.4        -268       2.759      -1790      0          28260.09   0.789     
2746       6.32       14.3       9.7        7.1        6.7        7.8        7.7        0.03       128.3      428        0          574        9.2        -268       2.761      -1790      0          28259.77   0.788     
2746.2     6.79       10.6       9.4        7.2        6.9        8.2        7.9        0.028      126.3      426        0          577.67     9.1        -268       2.758      -1790      0          28259.29   0.79      
2746.4     7.16       9.5        9.9        7.5        7.1        8.5        8.1        0.026      126        428        0          579.96     9          -268       2.759      -1791      0          28258.89   0.788     
2746.6     6.55       9.6        9.8        7.9        7.4        8.6        8.2        0.028      125.8      428        0          581.85     8.8        -268       2.761      -1791      0          28258.54   0.778     
2746.8     6.63       8.8        8.8        7.9        7.4        8.8        8.1        0.027      125.7      428        0          582.14     8.8        -268       2.759      -1792      0          28258.1    0.763     
2747       6.78       8.9        8.6        7.9        7.6        8.8        8.1        0.026      126.8      428        0          582.33     8.8        -268       2.759      -1794      0          28257.72   0.746     
2747.2     6.58       8.8        8.5        8.1        7.6        8.8        8.2        0.027      125.9      427.6      0          582.49     9.1        -268       2.759      -1797      0          28257.33   0.745     
2747.4     6.66       8.6        8.5        8          7.7        8.6        8.2        0.026      126        427        0          582        9.3        -268       2.756      -1804      0          28256.96   0.739     
2747.6     6.82       8.4        8.1        7.7        7.5        8.4        7.9        0.026      126.3      427.984    0          582.11     9.3        -268       2.762      -1814      0          28256.52   0.74      
2747.8     6.87       8.3        7.7        7.3        7.1        8.1        7.8        0.026      126        424.667    0          582.26     9.2        -268       2.763      -1801      0          28256.12   0.742     
2748       7.09       8.4        7.6        6.9        7          8          7.6        0.025      125.5      428        0          581.7      9.2        -268       2.762      -1773      0          28255.81   0.741     
2748.2     6.9        8.9        8          7.1        7          7.6        7.7        0.025      124.2      428        0          581.26     9.2        -268       2.762      -1760      0          28255.33   0.742     
2748.4     6.61       8.8        8.4        7.1        7          7.7        7.8        0.026      125        424.4      0          581.62     9.1        -268       2.76       -1780      0          28254.93   0.739     
2748.6     6.95       8.4        8.2        7.3        7.1        7.7        7.9        0.025      127.5      428        0          581.94     8.9        -268       2.758      -1799      0          28254.57   0.736     
2748.8     7.14       8.7        8.5        7.4        7.3        7.5        8.3        0.024      126.3      428        0          581.57     8.7        -268       2.76       -1806      0          28254.16   0.736     
2749       7.2        9          8.8        7.7        7.5        7.3        8.4        0.024      126.3      428        0          582.38     8.6        -268       2.76       -1820      0          28253.72   0.732     
2749.2     6.58       9.1        8.7        7.7        7.5        7.2        8.6        0.026      127.9      426.667    0          583        8.5        -268       2.761      -1813      0          28253.34   0.732     
2749.4     6.62       8.8        8.6        7.5        7.3        7.3        8.3        0.026      128.7      428        0          583.17     8.6        -268       2.759      -1792      0          28253.02   0.732     
2749.6     6.35       8.4        8.3        7.7        7.1        7.1        7.7        0.028      130        426        0          583.41     8.8        -268       2.76       -1793      0          28252.52   0.737     
2749.8     6.34       8.1        8          7.6        6.7        7          7.1        0.028      130.7      426.503    1          583.65     8.9        -268       2.761      -1796      0          28252.12   0.736     
2750       6.44       7.8        7.5        7.3        6.6        6.8        7          0.027      130.6      425.333    0          583.02     9.1        -260       2.761      -1803      0          28251.62   0.744     
2750.2     6.72       7.8        7.5        7.3        6.6        6.8        7          0.026      129        426        0          582.37     9.3        -260       2.762      -1814      0          28251.18   0.749     
2750.4     6.92       8.2        7.7        7.3        6.7        6.8        7.1        0.026      126.3      426        0          582.08     9.7        -260       2.761      -1826      0          28250.77   0.755     
2750.6     6.94       8.3        7.7        7.2        6.9        6.8        7.2        0.026      123.3      424        0          582.52     10         -260       2.761      -1799      0          28250.38   0.775     
2750.8     6.88       8.6        7.7        7.1        6.9        7          7.4        0.027      121.9      426        0          582.5      10.4       -260       2.762      -1789      0          28250.04   0.781     
2751       7.07       8.3        7.6        7.1        6.9        7.6        7.6        0.026      119.3      425.6      0          582.18     10.6       -260       2.762      -1788      0          28249.59   0.777     
2751.2     7.68       8.7        7.9        7.5        7.5        8.6        8.4        0.024      118.1      424        0          581.82     10.1       -260       2.761      -1787      0          28249.21   0.779     
2751.4     7.15       9.2        8.6        8.6        8.8        9.8        9.9        0.026      117.4      427.333    0          582.26     10         -260       2.764      -1785      0          28248.87   0.78      
2751.6     8.26       10         10.4       10.6       11         10.5       11.9       0.022      116.7      426        0          582.06     10.2       -260       2.761      -1781      0          28248.4    0.78      
2751.8     11.99      12.4       12.8       11.7       11.9       10.6       11.6       0.015      116.3      424.667    0          582.79     9.6        -260       2.761      -1774      0          28247.99   0.779     
2752       7.04       12.4       10.4       10.6       10.8       10.3       10.1       0.026      116        426        0          583.54     9.5        -260       2.761      -1762      0          28247.6    0.781     
