~Version
 VERS              .         2.0                           : CWLS LOG ASCII STANDARD - VERSION 2.0
 WRAP              .         NO                            : ONE LINE PER DEPTH STEP
 DLM               .         SPACE                         : DELIMITING CHARACTER(SPACE TAB OR COMMA)
~Well Information
#_______________________________________________________________________________
#
#PARAMETER_NAME    .UNIT     VALUE                         : DESCRIPTION
#_______________________________________________________________________________
STRT               .M        2648.2                        : First reference value
STOP               .M        2755.2                        : Last reference value
STEP               .M        0.2                           : Step increment
NULL               .         -9999                         : Missing value
COMP               .                                       : Company
WELL               .         616                           : Well name
FLD                .                                       : Field
LOC                .                                       : Location
CNTY               .                                       : County
STAT               .                                       : State
CTRY               .                                       : Country
SRVC               .                                       : Service Company
DATE               .                                       : Date
API                .                                       : API number
PROJECT_UPGRADE_TIME .         2021-03-18T21_24_50           : 
group              .         Good                          : 
~Parameter Information Block
#_______________________________________________________________________________
#
#PARAMETER_NAME    .UNIT     VALUE                         : DESCRIPTION
#_______________________________________________________________________________
SET                .         D7022_D                       : 
OTHER              .         Kedr.exe версия 2.1.2.32      : 
OTHER_10           .         TM.GRD = 0.00404*TM$.UE + 0.07: 
OTHER_11           .         MN.ATM = (6.33279e-006*TM.GRD + 0.02401)*(MN$.UE + 2.72*TM.GRD + -2018): 
OTHER_12           .         GK.MKR/H = GK$.UE / 43.5489 + 0: 
OTHER_13           .         RES.SM = 0.00476*CRES.UE - 1.51709: 
OTHER_14           .         PL.GSM3 = 0 + 0 * (PL.UE / 1) +  0 * (PL.UE / 1)^2: 
OTHER_15           .         Постоянная времени ГГП = 6 сек: 
OTHER_16           .         Постоянная времени ГК = 6 сек : 
OTHER_2            .         KedrData.dll версия 3.2.2.14  : 
OTHER_3            .         LasInf.dll версия 3.2.0.13    : 
OTHER_4            .         Драйвер версия 1.2.0.5        : 
OTHER_5            .         Прибор_ КСА-M1                : 
OTHER_6            .         Номер прибора_ 155+р204       : 
OTHER_7            .         Режим_ КСА-М1 + ГГП + Резистивиметр: 
OTHER_8            .         Форма_ 223\2                  : 
OTHER_9            .         Тарировки_                    : 
PROJECT_UPGRADE_TIME .         2021-03-18T21_24_50           : 
TLFamily_CRES      .                                       : 
TLFamily_DEPT      .         Measured Depth                : 
TLFamily_GK        .         Gamma Ray                     : 
TLFamily_GK$       .                                       : 
TLFamily_LM        .         Casing Collar locator         : 
TLFamily_METKA     .                                       : 
TLFamily_MN        .                                       : 
TLFamily_MN$       .                                       : 
TLFamily_PL        .                                       : 
TLFamily_PL_2      .                                       : 
TLFamily_RCOR      .                                       : 
TLFamily_RES       .         Mud Resistivity               : 
TLFamily_SPID      .         Spontaneous Potential         : 
TLFamily_STD       .                                       : 
TLFamily_TIME      .         Time                          : 
TLFamily_TM        .         Temperature                   : 
TLFamily_TM$       .         Temperature                   : 
TLFamily_VGD       .         Gas Volume                    : 
group              .         prim                          : 
~Curve Information
#_______________________________________________________________________________
#
#LOGNAME           .UNIT     LOG_ID                        : DESCRIPTION
#_______________________________________________________________________________
DEPT               .M                                      : 1 Глубина, м -    0.0 см 
CRES               .UE                                     : 9 Проводимость, усл.ед. -  222.0 см 
GK                 .MKR/H                                  : 16 Гамма-активность, мкр./ч -  106.0 см 
GK$                .UE                                     : 13 Гамма-активность, усл.ед. -  106.0 см 
LM                 .                                       : 11 Локатор муфт,  -   16.0 см 
METKA              .                                       : 3 Метки,  -    0.0 см 
MN                 .ATM                                    : 15 Давление, атм. -  160.0 см 
MN$                .UE                                     : 7 Давление, усл.ед. -  160.0 см 
PL                 .UE                                     : 10 Плотность, усл.ед. -  270.0 см 
PL_2               .GSM3                                   : 18 Плотность, г./см3 -  270.0 см 
RCOR               .CM/KM                                  : 5 Коррекция по ролику, см/км -    0.0 см 
RES                .SM                                     : 17 Проводимость,  -  222.0 см 
SPID               .M/H                                    : 2 Скорость, м/час -    0.0 см 
STD                .                                       : 12 Приток,  -  170.0 см 
TIME               .S                                      : 4 Время, сек -    0.0 см 
TM                 .GRD                                    : 14 Температура, °C -  180.0 см 
TM$                .UE                                     : 6 Температура, усл.ед. -  180.0 см 
VGD                .                                       : 8 Влагомер,  -  170.0 см 
~Ascii
# ...
2713.8     1166       7.92       326        675        0          345.237    16074      14         0          0          4.0346     568        9794       14273.67   49.928     12341      6665      
2714       1167       7.71       326        507        0          344.596    16048      14         0          0          4.037      580        9792       14274.94   49.916     12338      6661      
2714.2     1165       7.33       291        2085       0          344.718    16053      14         0          0          4.0275     533        9790       14276.27   49.903     12335      6662      
2714.4     1165       7.01       291        3565       0          344.874    16059      14         0          0          4.0259     533        9788       14277.61   49.902     12335      6669      
2714.6     1164       6.71       276        1030       0          345.209    16073      14         0          0          4.0249     580        9788       14278.88   49.893     12332      6665      
2714.8     1164       6.52       276        248        0          345.484    16085      14         0          0          4.0236     580        9789       14280.14   49.872     12327      6664      
2715       1164       6.94       322        234        0          345.164    16072      14         0          0          4.0243     557        9785       14281.46   49.855     12323      6666      
2715.2     1164       7.2        331        235        0          344.711    16053      14         0          0          4.0236     580        9780       14282.76   49.828     12316      6669      
2715.4     1165       7.61       350        156        0          344.015    16025      14         0          0          4.0267     580        9775       14284.06   49.81      12312      6667      
2715.6     1164       7.82       350        81         0          343.848    16018      14         0          0          4.0236     510        9771       14285.33   49.799     12309      6668      
2715.8     1165       7.79       337        70         0          344.069    16027      14         0          0          4.0283     580        9769       14286.65   49.794     12308      6663      
2716       1164       7.76       336        75         0          343.23     15993      14         0          0          4.0259     510        9765       14287.92   49.796     12308      6663      
2716.2     1164       7.73       335        60         0          342.608    15967      14         0          0          4.0256     522        9762       14289.25   49.786     12306      6663      
2716.4     1163       7.74       343        64         0          343.093    15987      14         0          0          4.0188     580        9758       14290.52   49.775     12303      6659      
2716.6     1164       7.82       344        72         0          343.906    16021      14         0          0          4.0219     556        9755       14291.83   49.766     12301      6659      
2716.8     1162       7.86       344        56         0          345.751    16097      14         0          0          4.014      580        9755       14293.17   49.753     12298      6661      
2717       1163       7.88       344        87         0          345.875    16102      14         0          0          4.0188     618        9755       14294.44   49.74      12295      6654      
2717.2     1162       7.98       365        121        0          347.384    16164      14         0          0          4.014      580        9751       14295.77   49.722     12290      6653      
2717.4     1162       8.22       369        98         0          346.216    16116      14         0          0          4.014      545        9744       14297.09   49.697     12284      6655      
2717.6     1161       8.54       405        95         0          346.337    16121      14         0          0          4.0116     521        9738       14298.42   49.684     12281      6652      
2717.8     1161       8.92       405        73         0          346.663    16135      14         0          0          4.0077     580        9735       14299.69   49.673     12278      6652      
2718       1161       9.19       417        74         0          347.179    16156      14         0          0          4.0093     580        9736       14301.02   49.662     12275      6650      
2718.2     1160       9.38       417        62         0          346.245    16117      14         0          0          4.0045     557        9734       14302.34   49.649     12272      6651      
2718.4     1158       9.72       443        74         0          345.679    16094      14         0          0          3.995      568        9731       14303.61   49.639     12270      6654      
2718.6     1158       9.95       443        220        0          345.574    16090      14         0          0          3.995      570        9729       14304.94   49.623     12266      6656      
2718.8     1160       10.21      463        315        0          345.444    16085      14         0          0          4.0045     580        9724       14306.21   49.601     12260      6654      
2719       1159       10.42      463        520        0          344.797    16058      14         0          0          4.0013     557        9718       14307.53   49.584     12256      6653      
2719.2     1159       9.87       395        285        0          344.021    16027      13         0          0          3.9997     580        9711       14308.81   49.568     12252      6657      
2719.4     1160       9.48       395        501        0          344.396    16042      15         0          0          4.0037     568        9709       14310.13   49.553     12248      6650      
2719.6     1159       8.33       310        655        0          345.175    16074      15         0          0          3.9989     580        9709       14311.42   49.54      12245      6652      
2719.8     1158       7.73       306        476        0          347.442    16168      15         0          0          3.9974     580        9704       14312.72   49.517     12239      6651      
2720       1158       7.29       298        594        0          347.292    16162      13         0          0          3.9966     580        9699       14313.99   49.494     12234      6656      
2720.2     1154       7.06       298        661        1          348.731    16221      14         0          0          3.976      580        9695       14315.86   49.476     12229      6658      
2720.4     1156       6.85       288        562        0          347.514    16171      14         0          0          3.9839     530        9689       14317.12   49.446     12222      6658      
2720.6     1153       6.72       286        691        0          347.829    16184      13         0          0          3.9736     580        9685       14318.44   49.428     12217      6664      
2720.8     1150       6.59       281        235        0          348        16192      14         0          0          3.9577     568        9677       14319.71   49.366     12202      6670      
2721       1147       6.52       281        161        0          347.917    16189      14         0          0          3.9426     545        9663       14321.04   49.292     12184      6672      
2721.2     1144       6.48       281        172        0          347.261    16163      14         0          0          3.9283     580        9634       14322.36   49.132     12144      6674      
2721.4     1143       6.49       284        151        0          346.908    16150      13         0          0          3.9256     580        9602       14323.63   49.002     12112      6670      
2721.6     1142       6.5        284        145        0          346.808    16147      14         0          0          3.9188     580        9569       14324.94   48.829     12069      6673      
2721.8     1141       6.96       338        120        0          348.334    16211      14         0          0          3.914      580        9519       14326.23   48.651     12025      6675      
