~Version
 VERS              .         2.0                           : CWLS LOG ASCII STANDARD - VERSION 2.0
 WRAP              .         NO                            : ONE LINE PER DEPTH STEP
 DLM               .         SPACE                         : DELIMITING CHARACTER(SPACE TAB OR COMMA)
~Well Information
#_______________________________________________________________________________
#
#PARAMETER_NAME    .UNIT     VALUE                         : DESCRIPTION
#_______________________________________________________________________________
STRT               .M        0.2                           : First reference value
STOP               .M        2774.2                        : Last reference value
STEP               .M        0.2                           : Step increment
NULL               .         -9999                         : Missing value
COMP               .                                       : Company
WELL               .         616                           : Well name
FLD                .                                       : Field
LOC                .                                       : Location
CNTY               .                                       : County
STAT               .                                       : State
CTRY               .                                       : Country
SRVC               .                                       : Service Company
DATE               .                                       : Date
API                .                                       : API number
PROJECT_UPGRADE_TIME .         2021-03-18T21_24_50           : 
group              .         Good                          : 
~Parameter Information Block
#_______________________________________________________________________________
#
#PARAMETER_NAME    .UNIT     VALUE                         : DESCRIPTION
#_______________________________________________________________________________
SET                .         D1799_D_2                     : 
NPR                .                                       : 
OTHER              .         Программное обеспечение станции MONITOR-386EX 25/12/99 15_08_10   BGF V52 22/08/01 16_56_30   3.1_SNGF___BGF_N_092049: 
OTHER_10           .         Тарировки_                    : 
OTHER_11           .         TM.GRD = 0.00403*TM$.UE + -1.07: 
OTHER_12           .         MN.ATM = (9.34907e-006*TM.GRD + 0.02171)*(MN$.UE + -7.93*TM.GRD + -1787): 
OTHER_13           .         GK.MKR/H = LM. / 42.4676      : 
OTHER_14           .         GK.FLT = 0.1*GK.MKR/H[-1] + (1-0.1)*GK.MKR/H[0]: 
OTHER_2            .         Kedr.exe версия 3.4.2.51      : 
OTHER_3            .         KedrData.dll версия 3.4.2.24  : 
OTHER_4            .         Драйвер версия 2.1.1.3        : 
OTHER_5            .         Мнемоники версия 3.3 S        : 
OTHER_6            .         Прибор_ КСА-Т4                : 
OTHER_7            .         Номер прибора_ 03             : 
OTHER_8            .         Режим_ КСА-Т4                 : 
OTHER_9            .         Форма_ КВА.                   : 
PR                 .                                       : 
PROJECT_UPGRADE_TIME .         2021-03-18T21_24_49           : 
PRTY               .         ПП-603-1                      : N партии
SRV                .                                       : 
SRVC               .         Карпов                        : Начальник партии
TLFamily_DEPT      .         Measured Depth                : 
TLFamily_LM        .         Casing Collar locator         : 
TLFamily_MN        .                                       : 
TLFamily_TM        .         Temperature                   : 
group              .         second                        : 
~Curve Information
#_______________________________________________________________________________
#
#LOGNAME           .UNIT     LOG_ID                        : DESCRIPTION
#_______________________________________________________________________________
DEPT               .M                                      : Depth curve 
LM                 .е.ацп                                  : Локатор муфт,е.ацп 
MN                 .атм                                    : Манометрия, атм 
TM                 .град.C                                 : Термограмма по стволу скважины,град.C 
~Ascii
# ...
728.2      1093.004   67.368     32.874    
728.4      1170.003   67.401     32.878    
728.6      1229.997   67.404     32.881    
728.8      1177       67.424     32.885    
729        1177.99    67.445     32.889    
729.2      987.999    67.465     32.895    
729.4      969.005    67.486     32.901    
729.6      1063.011   67.485     32.905    
729.8      1256.992   67.503     32.909    
730        1105.005   67.528     32.912    
730.2      1191.997   67.547     32.917    
730.4      1131.002   67.569     32.921    
730.6      1167       67.57      32.925    
730.8      1166.998   67.605     32.928    
731        1129.997   67.629     32.933    
731.2      1076.995   67.648     32.941    
731.4      993.999    67.655     32.947    
731.6      981.008    67.655     32.947    
731.8      1119.999   67.677     32.952    
732        1099.002   67.708     32.959    
732.2      1135       67.728     32.963    
732.4      1131.987   67.74      32.971    
732.6      899.993    67.747     32.975    
732.8      774.004    67.766     32.979    
733        849.133    67.787     32.979    
733.2      3279.248   67.807     32.985    
733.4      7813.845   67.827     32.99     
733.6      4982.903   67.846     32.994    
733.8      3211.945   67.847     32.998    
734        2196.966   67.868     33        
734.2      1567       67.888     33.003    
734.4      1566.979   67.929     33.008    
734.6      1176.989   67.932     33.011    
734.8      979.989    67.932     33.016    
735        776.991    67.962     33.018    
735.2      620.999    67.989     33.025    
735.4      599.004    67.996     33.028    
735.6      677.997    68.006     33.033    
735.8      631        68.026     33.04     
736        634.999    68.047     33.044    
736.2      624.002    68.067     33.048    
736.4      658.002    68.08      33.051    
736.6      687.003    68.087     33.055    
736.8      740.003    68.106     33.059    
737        785.994    68.131     33.066    
737.2      684.999    68.166     33.071    
737.4      666.001    68.169     33.075    
737.6      686.002    68.189     33.079    
737.8      716.999    68.21      33.083    
738        702.005    68.229     33.086    
738.2      786.998    68.229     33.09     
738.4      746.997    68.247     33.096    
738.6      698.001    68.268     33.102    
738.8      714.001    68.288     33.106    
739        741.005    68.309     33.11     
739.2      831.998    68.329     33.113    
739.4      804.004    68.35      33.117    
739.6      875.999    68.356     33.121    
739.8      860.997    68.369     33.125    
740        814        68.377     33.129    
740.2      814        68.41      33.135    
740.4      817.01     68.419     33.142    
740.6      998.001    68.45      33.146    
740.8      1010.997   68.462     33.149    
741        952.002    68.475     33.153    
741.2      987.994    68.483     33.158    
741.4      881.003    68.504     33.165    
741.6      943.995    68.535     33.165    
741.8      855.995    68.556     33.168    
742        763.994    68.576     33.176    
742.2      659        68.59      33.18     
742.4      656.999    68.589     33.184    
742.6      633        68.598     33.188    
742.8      630        68.637     33.192    
743        633.994    68.657     33.196    
743.2      516.999    68.675     33.2      
743.4      500        68.676     33.203    
743.6      503.002    68.694     33.207    
743.8      540.999    68.715     33.211    
744        527.006    68.736     33.215    
744.2      640        68.757     33.22     
744.4      640.465    68.759     33.227    
744.6      9022.819   68.792     33.23     
744.8      5768.888   68.817     33.234    
745        3750.929   68.824     33.238    
745.2      2467.956   68.837     33.242    
745.4      1680.974   68.845     33.246    
745.6      1208.998   68.868     33.25     
745.8      1164.986   68.898     33.254    
746        917        68.909     33.257    
746.2      923.001    68.915     33.264    
746.4      934        68.943     33.269    
746.6      938.994    68.973     33.273    
746.8      837.998    68.977     33.277    
747        809.004    68.996     33.283    
747.2      879.998    69.016     33.286    
747.4      852.994    69.035     33.29     
747.6      753.997    69.036     33.296    
747.8      703        69.056     33.3      
748        699        69.057     33.304    
748.2      698.998    69.094     33.307    
748.4      663.005    69.117     33.311    
748.6      759.996    69.121     33.315    
748.8      695        69.137     33.319    
749        694.998    69.157     33.323    
749.2      664.999    69.176     33.327    
749.4      652.995    69.196     33.33     
749.6      560.001    69.217     33.334    
749.8      570.001    69.238     33.338    
750        591.999    69.26      33.342    
750.2      573.997    69.271     33.346    
750.4      523.002    69.279     33.35     
750.6      551.003    69.3       33.354    
750.8      607        69.321     33.358    
751        613.001    69.342     33.362    
751.2      635.006    69.362     33.366    
751.4      736.995    69.383     33.369    
751.6      652.998    69.386     33.373    
751.8      609.998    69.348     33.377    
752        575.012    69.442     33.381    
752.2      793.003    69.443     33.385    
752.4      848.996    69.464     33.389    
752.6      771.991    69.482     33.392    
752.8      611.997    69.502     33.396    
753        555.997    69.523     33.4      
753.2      500        69.544     33.404    
753.4      500.002    69.548     33.408    
753.6      537.002    69.563     33.413    
753.8      571        69.583     33.42     
754        563.996    69.604     33.423    
754.2      493.002    69.624     33.427    
754.4      531.003    69.633     33.431    
754.6      581.017    69.655     33.435    
754.8      880.001    69.676     33.439    
755        894.002    69.684     33.443    
755.2      929.999    69.705     33.447    
755.4      905.404    69.718     33.45     
755.6      8074.836   69.725     33.454    
755.8      5154.897   69.745     33.458    
756        3320.935   69.764     33.462    
756.2      2164.959   69.784     33.468    
756.4      1439.979   69.804     33.474    
756.6      1060.988   69.824     33.477    
756.8      839.993    69.824     33.481    
757        721.992    69.867     33.485    
757.2      581.999    69.866     33.489    
757.4      558        69.884     33.493    
757.6      557.996    69.904     33.496    
757.8      480        69.925     33.5      
758        479.998    69.945     33.505    
758.2      449.999    69.951     33.512    
758.4      438        69.964     33.516    
758.6      444        69.984     33.52     
758.8      452.002    70.005     33.524    
759        479.999    70.025     33.527    
759.2      466.997    70.037     33.532    
759.4      407        70.054     33.535    
759.6      405.999    70.079     33.539    
759.8      396.002    70.085     33.543    
760        432.001    70.106     33.547    
760.2      451.002    70.131     33.555    
760.4      479.001    70.152     33.56     
760.6      490.001    70.172     33.563    
760.8      499        70.186     33.567    
761        502.002    70.191     33.568    
761.2      531.004    70.212     33.571    
761.4      596.998    70.232     33.578    
761.6      560.999    70.254     33.583    
761.8      540.998    70.274     33.587    
762        498.997    70.293     33.588    
762.2      449.998    70.293     33.59     
762.4      410.999    70.314     33.594    
762.6      401.001    70.335     33.598    
762.8      415        70.335     33.602    
763        417        70.371     33.606    
763.2      417.002    70.378     33.609    
763.4      452.999    70.393     33.613    
763.6      439        70.414     33.617    
763.8      435        70.435     33.621    
764        441.002    70.455     33.625    
764.2      482.999    70.463     33.629    
764.4      471.001    70.474     33.633    
