~Version
 VERS              .         2.0                           : CWLS LOG ASCII STANDARD - VERSION 2.0
 WRAP              .         NO                            : ONE LINE PER DEPTH STEP
 DLM               .         SPACE                         : DELIMITING CHARACTER(SPACE TAB OR COMMA)
~Well Information
#_______________________________________________________________________________
#
#PARAMETER_NAME    .UNIT     VALUE                         : DESCRIPTION
#_______________________________________________________________________________
STRT               .M        46                            : First reference value
STOP               .M        2756.6                        : Last reference value
STEP               .M        0.2                           : Step increment
NULL               .         -9999                         : Missing value
COMP               .                                       : Company
WELL               .         616                           : Well name
FLD                .                                       : Field
LOC                .                                       : Location
CNTY               .                                       : County
STAT               .                                       : State
CTRY               .                                       : Country
SRVC               .                                       : Service Company
DATE               .                                       : Date
API                .                                       : API number
PROJECT_UPGRADE_TIME .         2021-03-18T21_24_50           : 
group              .         Good                          : 
~Parameter Information Block
#_______________________________________________________________________________
#
#PARAMETER_NAME    .UNIT     VALUE                         : DESCRIPTION
#_______________________________________________________________________________
SET                .         D4390_D                       : 
OTHER              .         Запись производится в присутствии: 
OTHER_10           .         Максимальная температура      : 
OTHER_100          .         GK.FLT = 0.1*GR.UR/H[-1] + (1-0.1)*GR.UR/H[0]: 
OTHER_11           .         Тип промывочной жидкости      : 
OTHER_12           .         Сопротивление ПЖ (Ом*м) при 20°C: 
OTHER_13           .         Плотность ПЖ(г/см3)           : 
OTHER_14           .         Вязкость ПЖ(с)                : 
OTHER_15           .         Водоотдача ПЖ(см3/30мин)      : 
OTHER_16           .         Уровень ПЖ                    : 
OTHER_17           .         Нефть ПЖ (%)                  : 
OTHER_18           .         Барит ПЖ (%)                  : 
OTHER_19           .         Гематит ПЖ (%)                : 
OTHER_2            .         Заказчик ННСН  ЦДНГ-1         : 
OTHER_20           .         КМЦ ПЖ (%)                    : 
OTHER_21           .         Разгазирование ПЖ (да,нет)    : 
OTHER_22           .         Подъемник                     : 
OTHER_23           .         Лаборатория                   : 
OTHER_24           .         Тип кабеля                    : 
OTHER_25           .         Длина кабеля (м)              : 
OTHER_26           .         Цена последней метки          : 
OTHER_27           .         Цена контрольной метки        : 
OTHER_28           .         Диаметр долота (мм)           : 
OTHER_29           .         Глубина бурения (м)           : 
OTHER_3            .         Площадь                       : 
OTHER_30           .         Искусственный забой (м)       : 
OTHER_31           .         Диаметр колонны (мм)          : 
OTHER_32           .         Толщина колонны (мм)          : 
OTHER_33           .         Башмак колонны (м)            : 
OTHER_34           .         Диаметр НКТ (мм)              : 
OTHER_35           .         Толщина НКТ (мм)              : 
OTHER_36           .         Воронка НКТ (м)               : 
OTHER_37           .         Дата цементожа                : 
OTHER_38           .         Тип, количество(т) и плотность цемента: 
OTHER_39           .         Интервалы перфорации (м)      : 
OTHER_4            .         Категория                     : 
OTHER_40           .         Направление, диаметр (мм)     : 
OTHER_41           .         Направление, глубина (м)      : 
OTHER_42           .         Кондуктор, диаметр (мм)       : 
OTHER_43           .         Кондуктор, глубина (м)        : 
OTHER_44           .         Техническая колонна, диаметр (мм): 
OTHER_45           .         Техническая колонна, глубина (м): 
OTHER_46           .         Эксплуатационная колонна, диаметр (мм): 
OTHER_47           .         Эксплуатационная колонна, глубина (м): 
OTHER_48           .         Программа Кедр-02 версия 3.4  : 
OTHER_49           .         Операционная система Windows NT 5.1 build 2600 Service Pack 2: 
OTHER_5            .         Назначение исследований       : 
OTHER_50           .         Программное обеспечение станции MONITOR-386EX 25/12/99 15_08_10   BGF V54 20/09/05 15_32_17   3.3__BGF_9030071: 
OTHER_51           .         Kedr.exe версия 3.4.2.74      : 
OTHER_52           .         KedrData.dll версия 3.4.2.29  : 
OTHER_53           .         Мнемоники версия 3.18 S       : 
OTHER_54           .         Драйвер версия 2.1.1.4        : 
OTHER_55           .         LasInf.dll 4.3.0.35           : 
OTHER_56           .         Прибор_ КСА-Т4                : 
OTHER_57           .         Номер прибора_ 160            : 
OTHER_58           .         Режим_ КСА-Т4                 : 
OTHER_59           .         Форма_ С.А.Б.                 : 
OTHER_6            .         Альтитуда стола ротора        : 
OTHER_60           .         Тарировки_                    : 
OTHER_61           .         <_techsia_sc_> Дата тарировки температуры 25.05.2010: 
OTHER_62           .         Ручной ввод коэффициентов     : 
OTHER_63           .         TM.DEGC = 0.00402*RTM.E.ACP + -0.994: 
OTHER_64           .         <_techsia_sc_> Дата тарировки давления 25.05.2010: 
OTHER_65           .         Ручной ввод коэффициентов     : 
OTHER_66           .         MN.ATM = (2.27521e-006*TM.DEGC + 0.02078)*(RMN.E.ACP + 6.2*TM.DEGC + -1688): 
OTHER_67           .         <_techsia_sc_> Дата тарировки ГК 25.05.2010: 
OTHER_68           .         Ручной ввод коэффициентов     : 
OTHER_69           .         GR.UR/H = RGR.IMP/MIN / 45.5144: 
OTHER_7            .         Вид исследований 3  6         : 
OTHER_70           .         GK.FLT = 0.1*GR.UR/H[-1] + (1-0.1)*GR.UR/H[0]: 
OTHER_71           .         <_techsia_sc_> Дата тарировки температуры 25.05.2010: 
OTHER_72           .         Ручной ввод коэффициентов     : 
OTHER_73           .         TM.DEGC = 0.00402*RTM.E.ACP + -0.994: 
OTHER_74           .         <_techsia_sc_> Дата тарировки давления 25.05.2010: 
OTHER_75           .         Ручной ввод коэффициентов     : 
OTHER_76           .         MN.ATM = (2.27521e-006*TM.DEGC + 0.02078)*(RMN.E.ACP + 6.2*TM.DEGC + -1688): 
OTHER_77           .         <_techsia_sc_> Дата тарировки ГК 25.05.2010: 
OTHER_78           .         Ручной ввод коэффициентов     : 
OTHER_79           .         GR.UR/H = RGR.IMP/MIN / 45.5144: 
OTHER_8            .         Начало бурения интервала каротажа: 
OTHER_80           .         GK.FLT = 0.1*GR.UR/H[-1] + (1-0.1)*GR.UR/H[0]: 
OTHER_81           .         <_techsia_sc_> Дата тарировки температуры 25.05.2010: 
OTHER_82           .         Ручной ввод коэффициентов     : 
OTHER_83           .         TM.DEGC = 0.00402*RTM.E.ACP + -0.994: 
OTHER_84           .         <_techsia_sc_> Дата тарировки давления 25.05.2010: 
OTHER_85           .         Ручной ввод коэффициентов     : 
OTHER_86           .         MN.ATM = (2.27521e-006*TM.DEGC + 0.02078)*(RMN.E.ACP + 6.2*TM.DEGC + -1688): 
OTHER_87           .         <_techsia_sc_> Дата тарировки ГК 25.05.2010: 
OTHER_88           .         Ручной ввод коэффициентов     : 
OTHER_89           .         GR.UR/H = RGR.IMP/MIN / 45.5144: 
OTHER_9            .         Окончание бурения интервала каротажа: 
OTHER_90           .         GK.FLT = 0.1*GR.UR/H[-1] + (1-0.1)*GR.UR/H[0]: 
OTHER_91           .         <_techsia_sc_> Дата тарировки температуры 25.05.2010: 
OTHER_92           .         Ручной ввод коэффициентов     : 
OTHER_93           .         TM.DEGC = 0.00402*RTM.E.ACP + -0.994: 
OTHER_94           .         <_techsia_sc_> Дата тарировки давления 25.05.2010: 
OTHER_95           .         Ручной ввод коэффициентов     : 
OTHER_96           .         MN.ATM = (2.27521e-006*TM.DEGC + 0.02078)*(RMN.E.ACP + 6.2*TM.DEGC + -1688): 
OTHER_97           .         <_techsia_sc_> Дата тарировки ГК 25.05.2010: 
OTHER_98           .         Ручной ввод коэффициентов     : 
OTHER_99           .         GR.UR/H = RGR.IMP/MIN / 45.5144: 
PROJECT_UPGRADE_TIME .         2021-03-18T21_24_50           : 
TLFamily_CCLC      .                                       : 
TLFamily_DEPT      .         Measured Depth                : 
TLFamily_GK        .         Gamma Ray                     : 
TLFamily_GR        .         Gamma Ray                     : 
TLFamily_METKA     .                                       : 
TLFamily_MN        .                                       : 
TLFamily_RCOR      .                                       : 
TLFamily_RGR       .                                       : 
TLFamily_RMN       .                                       : 
TLFamily_RTEN      .                                       : 
TLFamily_RTM       .                                       : 
TLFamily_SPEE      .         Cable Speed                   : 
TLFamily_TIME      .         Time                          : 
TLFamily_TM        .         Temperature                   : 
group              .         prim                          : 
~Curve Information
#_______________________________________________________________________________
#
#LOGNAME           .UNIT     LOG_ID                        : DESCRIPTION
#_______________________________________________________________________________
DEPT               .M                                      : 1 Глубина, м -    0.0 см 
CCLC               .E.ACP                                  : 9 Локатор муфт,  -   20.0 см 
GK                 .FLT                                    : 14 Гамма-активность фильтрованная, мкр./ч -  110.0 см 
GR                 .UR/H                                   : 13 Гамма-активность, мкр./ч -  110.0 см 
METKA              .CU                                     : 3 Метки,  -    0.0 см 
MN                 .ATM                                    : 12 Давление, атм. -  160.0 см 
RCOR               .CM/KM                                  : 5 Коррекция по ролику, см/км -    0.0 см 
RGR                .IMP/MIN                                : 10 Гамма-активность, усл.ед. -  110.0 см 
RMN                .E.ACP                                  : 8 Давление, усл.ед. -  160.0 см 
RTEN               .T                                      : 6 Натяжение кабеля, т -    0.0 см 
RTM                .E.ACP                                  : 7 Температура, усл.ед. -  170.0 см 
SPEE               .M/H                                    : 2 Скорость, м/час -    0.0 см 
TIME               .S                                      : 4 Время, сек -    0.0 см 
TM                 .DEGC                                   : 11 Температура, °C -  170.0 см 
~Ascii
46.0       -9999      -9999      -9999      0          -9999      -9999      -9999      -9999      -9999      -9999      -9999      -9999      -9999     
46.2       270        -9999      -9999      0          -9999      0          -9999      -9999      0.02       -9999      1495       0.48       -9999     
46.4       235        -9999      -9999      0          -9999      0          -9999      -9999      0.02       -9999      1496       0.96       -9999     
46.6       223        -9999      -9999      0          -9999      0          -9999      -9999      0.02       -9999      1497       1.44       -9999     
46.8       209        -9999      -9999      0          -9999      0          -9999      -9999      0.02       -9999      1498       1.92       -9999     
47         212        -9999      -9999      0          -9999      0          -9999      -9999      0.02       -9999      1497       2.4        -9999     
47.2       257        3.25       3.25       0          -9999      0          148        -9999      0.02       -9999      1495       2.87       -9999     
47.4       284        3.25       3.25       0          -9999      0          148        -9999      0.02       -9999      1496       3.37       -9999     
47.6       240        3.25       3.25       0          -9999      0          148        -9999      0.02       -9999      1497       3.84       -9999     
47.8       242        3.38       3.38       0          8.884      0          154        1995       0.02       5047       1497       4.32       19.295    
48         210        3.38       3.38       0          8.905      0          154        1996       0.02       5047       1497       4.8        19.297    
48.2       199        3.38       3.38       0          8.922      0          154        1997       0.02       5048       1498       5.24       19.299    
48.4       239        3.38       3.38       0          8.917      0          154        1997       0.02       5048       1500       5.72       19.299    
48.6       224        3.38       3.38       0          8.987      0          154        2000       0.02       5048       1502       6.2        19.299    
48.8       169        3.56       3.56       0          8.968      0          162        1999       0.02       5048       1505       6.7        19.299    
49         172        3.6        3.6        0          9.018      0          164        2001       0.02       5049       1507       7.18       19.303    
49.2       135        3.6        3.6        0          9.013      0          164        2001       0.02       5049       1506       7.63       19.303    
49.4       144        3.6        3.6        0          9.05       0          164        2003       0.02       5049       1508       8.1        19.303    
49.6       379        3.6        3.6        0          9.039      0          164        2002       0.02       5049       1509       8.57       19.303    
49.8       2695       3.86       3.86       0          9.111      0          176        2006       0.02       5049       1510       9.04       19.303    
50         1221       4.2        4.2        0          9.073      0          191        2004       0.02       5049       1511       9.51       19.303    
50.2       912        4.2        4.2        0          9.103      0          191        2005       0.02       5049       1512       9.99       19.303    
50.4       692        4.2        4.2        0          9.132      0          191        2007       0.02       5049       1511       10.48      19.303    
50.6       360        4.2        4.2        0          9.134      0          191        2007       0.02       5049       1510       10.96      19.303    
50.8       355        4.2        4.2        0          9.14       0          191        2007       0.02       5049       1507       11.44      19.303    
51         404        3.93       3.93       0          9.199      0          179        2010       0.02       5049       1505       11.92      19.303    
51.2       307        3.93       3.93       0          9.187      0          179        2009       0.02       5049       1504       12.4       19.303    
51.4       376        3.93       3.93       0          9.204      0          179        2010       0.02       5049       1504       12.87      19.303    
51.6       355        3.93       3.93       0          9.259      0          179        2013       0.02       5048       1502       13.34      19.299    
51.8       273        3.93       3.93       0          9.239      0          179        2012       0.02       5048       1500       13.84      19.299    
52         321        3.19       3.19       0          9.28       0          145        2014       0.02       5048       1498       14.34      19.299    
52.2       364        3.19       3.19       0          9.258      0          145        2013       0.02       5048       1497       14.81      19.297    
52.4       279        3.19       3.19       0          9.28       0          145        2014       0.02       5047       1496       15.27      19.295    
52.6       274        3.19       3.19       0          9.327      0          145        2016       0.02       5047       1496       15.75      19.295    
52.8       216        3.19       3.19       0          9.267      0          145        2013       0.02       5047       1495       16.22      19.295    
53         234        2.97       2.97       0          9.375      0          135        2019       0.02       5046       1495       16.7       19.292    
53.2       227        2.92       2.92       0          9.362      0          133        2018       0.02       5046       1496       17.21      19.291    
53.4       279        2.92       2.92       0          9.419      0          133        2021       0.02       5046       1494       17.68      19.291    
53.6       271        2.92       2.92       0          9.342      0          133        2017       0.02       5046       1494       18.15      19.291    
53.8       247        2.92       2.92       0          9.452      0          133        2022       0.02       5046       1498       18.63      19.291    
54         244        3.14       3.14       0          9.449      0          143        2022       0.02       5046       1498       19.11      19.291    
54.2       210        3.38       3.38       0          9.486      0          154        2024       0.02       5046       1497       19.58      19.291    
54.4       238        3.38       3.38       0          9.474      0          154        2023       0.02       5045       1497       20.05      19.287    
54.6       242        3.38       3.38       0          9.492      0          154        2024       0.02       5045       1496       20.53      19.287    
54.8       242        3.38       3.38       0          9.517      0          154        2025       0.02       5045       1495       21.03      19.287    
55         244        3.38       3.38       0          9.525      0          154        2026       0.02       5044       1496       21.51      19.283    
55.2       269        3.38       3.38       0          9.574      0          154        2028       0.02       5044       1497       21.99      19.283    
55.4       247        3.38       3.38       0          9.579      0          154        2028       0.02       5044       1498       22.45      19.283    
55.6       232        3.38       3.38       0          9.606      0          154        2030       0.02       5043       1499       22.93      19.28     
55.8       208        3.38       3.38       0          9.623      0          154        2031       0.02       5043       1499       23.41      19.281    
56         220        3.38       3.38       0          9.612      0          154        2030       0.02       5043       1498       23.9       19.279    
56.2       268        3.3        3.3        2          9.631      0          150        2031       0.02       5042       1497       24.39      19.275    
