~Version
 VERS              .         2.0                           : CWLS LOG ASCII STANDARD - VERSION 2.0
 WRAP              .         NO                            : ONE LINE PER DEPTH STEP
 DLM               .         SPACE                         : DELIMITING CHARACTER(SPACE TAB OR COMMA)
~Well Information
#_______________________________________________________________________________
#
#PARAMETER_NAME    .UNIT     VALUE                         : DESCRIPTION
#_______________________________________________________________________________
STRT               .M        9                             : First reference value
STOP               .M        197.4                         : Last reference value
STEP               .M        0.2                           : Step increment
NULL               .         -9999                         : Missing value
COMP               .                                       : Company
WELL               .         616                           : Well name
FLD                .                                       : Field
LOC                .                                       : Location
CNTY               .                                       : County
STAT               .                                       : State
CTRY               .                                       : Country
SRVC               .                                       : Service Company
DATE               .                                       : Date
API                .                                       : API number
PROJECT_UPGRADE_TIME .         2021-03-18T21_24_50           : 
group              .         Good                          : 
~Parameter Information Block
#_______________________________________________________________________________
#
#PARAMETER_NAME    .UNIT     VALUE                         : DESCRIPTION
#_______________________________________________________________________________
SET                .         616                           : 
CONF               .         00                            : 
END                .         0                             : 
ERR                .         0                             : 
GS00               .M        0195.38                       : 
GS01               .M        0006.66                       : 
MM00               .M        0080.00                       : 
NOKG               .         0                             : 
NPR                .         980402                        : 
PART               .         Палагутин                     : 
PROJECT_UPGRADE_TIME .         2021-03-18T21_24_49           : 
PRZK               .         Шакиров                       : 
TLFamily_AZIMUTH   .         True Dip Azimuth              : 
TLFamily_DEPTH     .         Measured Depth                : 
TLFamily_METKA     .                                       : 
TLFamily_ROLL      .                                       : 
TLFamily_SPEED     .         Spontaneous Potential         : 
TLFamily_ZENIT     .                                       : 
VPRG               .         310                           : 
WAY                .         UP                            : 
group              .         prim                          : 
~Curve Information
#_______________________________________________________________________________
#
#LOGNAME           .UNIT     LOG_ID                        : DESCRIPTION
#_______________________________________________________________________________
DEPTH              .M                                      :  
AZIMUTH            .DEG                                    :  
METKA              .                                       :  
ROLL               .DEG                                    :  
SPEED              .M/H                                    :  
ZENIT              .DEG                                    :  
~Ascii
# ...
106.6      236.82     0          108.62     504        4.55      
106.8      236.87     0          102.47     504        4.65      
107        237.15     0          95.43      540        4.68      
107.2      236.17     0          87.35      540        4.56      
107.4      236.05     0          79.99      504        4.66      
107.6      235.73     0          72.81      540        4.65      
107.8      235.99     0          64.5       504        4.54      
108        237.04     0          52.63      504        4.71      
108.2      237.32     0          39.79      540        4.75      
108.4      238.02     0          26.86      468        4.91      
108.6      238.37     0          15.05      540        4.96      
108.8      238.73     0          6.56       504        4.97      
109        243.4      0          0.34       504        5.07      
109.2      269.88     0          355.48     504        5.13      
109.4      208.41     0          351.9      504        5.17      
109.6      92.48      0          349.22     540        5.23      
109.8      20.27      0          346.96     504        5.29      
110        233.85     0          343.8      540        5.33      
110.2      238.95     0          341.68     540        5.42      
110.4      239.45     0          340.39     468        5.5       
110.6      239.18     0          339.16     540        5.49      
110.8      238.8      1          338.35     540        5.52      
111        239.51     0          337.86     792        5.57      
111.2      239.53     0          336.23     468        5.58      
111.4      239.69     0          334.21     540        5.61      
111.6      239.98     0          332.11     540        5.61      
111.8      240.24     0          329.74     540        5.68      
112        240.21     0          327.34     504        5.74      
112.2      240.12     1          325.76     468        5.8       
112.4      240.29     0          324.68     504        5.83      
112.6      240.35     0          323.44     540        5.89      
112.8      240.33     0          322.45     540        5.92      
113        240.7      0          321.12     540        5.97      
113.2      240.72     0          319.07     504        5.96      
113.4      242.02     0          314.61     504        6.13      
113.6      239.88     0          311.63     504        6.24      
113.8      240.28     0          311.74     504        6.27      
114        239.98     0          311.69     540        6.27      
114.2      240.13     0          311.49     504        6.28      
114.4      240.4      0          310.93     468        6.33      
114.6      240.67     0          310.27     504        6.34      
114.8      240.7      0          308.87     540        6.38      
115        241.17     0          307.7      540        6.42      
115.2      240.99     0          306.03     540        6.45      
115.4      240.69     0          304.3      504        6.48      
115.6      240.18     0          303.59     540        6.54      
115.8      239.69     0          304.93     504        6.56      
116        240.68     0          306.04     540        6.58      
116.2      240.88     0          305.25     504        6.63      
116.4      240.93     0          303.29     468        6.67      
116.6      240.81     0          302.24     504        6.72      
116.8      240.51     0          301.99     504        6.76      
117        240.36     0          302.22     540        6.74      
117.2      240.8      0          302.54     504        6.83      
117.4      241.13     0          301.37     540        6.8       
117.6      240.46     0          299.75     504        6.78      
117.8      241        0          299.11     504        6.91      
118        240.38     0          299.33     504        6.89      
118.2      240.55     0          299.91     540        6.89      
118.4      241        0          300.16     468        6.98      
118.6      240.57     0          300.39     504        6.99      
118.8      240.73     0          300.45     540        6.97      
119        240.89     0          300.33     468        6.97      
119.2      241.35     0          300.09     504        7.09      
119.4      241.1      0          299.62     504        7.02      
119.6      241.01     0          299.02     540        7.04      
119.8      241.4      0          298.6      504        7.12      
120        241.09     0          298.22     540        7.11      
120.2      241.53     0          298.05     504        7.12      
120.4      241.61     0          297.81     468        7.23      
120.6      241.83     0          297.68     540        7.22      
120.8      242.22     0          297.16     540        7.23      
121        243.24     0          296.64     540        7.34      
121.2      245.57     0          296.14     540        7.44      
121.4      258.56     0          296.04     540        7.33      
121.6      289        0          296.14     504        7.41      
121.8      162.76     0          296.37     504        7.54      
122        117.43     0          296.96     540        7.45      
122.2      185.37     1          297.39     540        7.47      
122.4      244.12     0          297.38     504        7.52      
122.6      243.64     0          297.17     540        7.53      
122.8      242.76     0          297.43     540        7.54      
123        242.43     0          297.82     540        7.56      
123.2      242.24     0          297.98     504        7.58      
123.4      242.41     0          298.25     468        7.59      
123.6      241.83     0          299.04     540        7.61      
123.8      242.04     0          299.52     540        7.62      
124        242.34     0          300.07     540        7.58      
124.2      243.32     0          299.65     504        7.63      
124.4      242.94     0          297.75     504        7.63      
124.6      243.51     0          295.87     504        7.64      
124.8      243.77     0          294.2      540        7.82      
125        243.63     0          292.79     504        7.77      
125.2      243.79     0          291.67     540        7.83      
125.4      244.41     0          290.49     504        7.89      
125.6      244.86     0          288.01     576        7.88      
125.8      242.87     0          284.47     468        8.02      
126        243.32     0          283.27     540        8.07      
126.2      243.9      0          282.87     540        8.22      
126.4      242.81     0          282.66     540        8.02      
126.6      244.18     0          282.67     504        8.39      
126.8      244.78     0          282.14     504        8.51      
127        243.37     0          281.36     504        8.23      
127.2      243.98     0          280.88     540        8.42      
127.4      244.9      0          280.5      504        8.61      
127.6      243.86     0          280.15     540        8.43      
127.8      244.08     0          279.73     540        8.52      
128        244.83     0          279.38     504        8.7       
128.2      244.06     0          279.54     540        8.58      
128.4      243.81     0          279.45     468        8.5       
128.6      244.29     0          279.34     540        8.64      
128.8      244.29     0          279.93     540        8.64      
129        244.16     0          279.96     468        8.57      
129.2      244.41     0          279.32     504        8.69      
129.4      244.69     0          279.04     540        8.74      
129.6      244.2      0          279.29     540        8.72      
129.8      244.39     0          280.35     504        8.82      
130        244.19     0          282.05     504        8.75      
130.2      245.07     0          282.3      504        8.85      
130.4      245.67     0          282.08     468        8.97      
130.6      244.82     0          281.83     540        8.88      
130.8      244.78     0          281.82     540        8.88      
