~Version
 VERS              .         2.0                           : CWLS LOG ASCII STANDARD - VERSION 2.0
 WRAP              .         NO                            : ONE LINE PER DEPTH STEP
 DLM               .         SPACE                         : DELIMITING CHARACTER(SPACE TAB OR COMMA)
~Well Information
#_______________________________________________________________________________
#
#PARAMETER_NAME    .UNIT     VALUE                         : DESCRIPTION
#_______________________________________________________________________________
STRT               .M        21.55                         : First reference value
STOP               .M        2764.75                       : Last reference value
STEP               .M        0.2                           : Step increment
NULL               .         -9999                         : Missing value
COMP               .                                       : Company
WELL               .         616                           : Well name
FLD                .                                       : Field
LOC                .                                       : Location
CNTY               .                                       : County
STAT               .                                       : State
CTRY               .                                       : Country
SRVC               .                                       : Service Company
DATE               .                                       : Date
API                .                                       : API number
PROJECT_UPGRADE_TIME .         2021-03-18T21_24_50           : 
group              .         Good                          : 
~Parameter Information Block
#_______________________________________________________________________________
#
#PARAMETER_NAME    .UNIT     VALUE                         : DESCRIPTION
#_______________________________________________________________________________
SET                .         D7028_D_2                     : 
NPR                .         155                           : Номер прибора
OTHER              .         Kedr.exe версия 2.1.2.32      : 
OTHER_10           .         TM.GRD = 0.00404*TM$.UE + 0.07: 
OTHER_11           .         MN.ATM = (6.33279e-006*TM.GRD + 0.02401)*(MN$.UE + 2.72*TM.GRD + -2018): 
OTHER_12           .         GK.MKR/H = GK$.UE / 43.5489 + 0: 
OTHER_13           .         RES.SM = 0.00476*CRES.UE - 1.51709: 
OTHER_14           .         PL.GSM3 = 0 + 0 * (PL.UE / 1) +  0 * (PL.UE / 1)^2: 
OTHER_15           .         Постоянная времени ГГП = 6 сек: 
OTHER_16           .         Постоянная времени ГК = 6 сек : 
OTHER_2            .         KedrData.dll версия 3.2.2.14  : 
OTHER_3            .         LasInf.dll версия 3.2.0.13    : 
OTHER_4            .         Драйвер версия 1.2.0.5        : 
OTHER_5            .         Прибор_ КСА-M1                : 
OTHER_6            .         Номер прибора_ 155+р204       : 
OTHER_7            .         Режим_ КСА-М1 + ГГП + Резистивиметр: 
OTHER_8            .         Форма_ 223\2                  : 
OTHER_9            .         Тарировки_                    : 
PR                 .         КСА-Т7 М1                     : Тип прибора
PROJECT_UPGRADE_TIME .         2021-03-18T21_24_50           : 
PRTY               .         ПП-223_2                      : Номер партии
SRV                .         ЦКРС                          : Заказчик
SRVC               .         Лузин  А.Б.                   : Начальник партии
TLFamily_DEPT      .         Measured Depth                : 
TLFamily_LM        .         Casing Collar locator         : 
TLFamily_MN        .                                       : 
TLFamily_SPID      .         Spontaneous Potential         : 
TLFamily_TM        .         Temperature                   : 
group              .         second                        : 
~Curve Information
#_______________________________________________________________________________
#
#LOGNAME           .UNIT     LOG_ID                        : DESCRIPTION
#_______________________________________________________________________________
DEPT               .M                                      : Depth curve 
LM                 .е.ацп                                  : Локация муфт 
MN                 .атм                                    : Манометрия, атм 
SPID               .м/ч                                    : Скорость записи,м/час 
TM                 .град.С                                 : Термометрия,град.С 
~Ascii
# ...
2007.15    1294.111   179.16     -1790      55.69     
2007.35    2061.176   179.18     -1790      55.69     
2007.55    3285.273   179.19     -1790      55.7      
2007.75    5175.387   179.21     -1790      55.7      
2007.95    921.912    179.23     -1790      55.71     
2008.15    311.002    179.24     -1790.008  55.71     
2008.35    325.003    179.27     -1842.995  55.71     
2008.55    343.985    179.29     -1809.997  55.72     
2008.75    240.001    179.32     -1790.007  55.72     
2008.95    246.005    179.33     -1840.003  55.72     
2009.15    283.998    179.34     -1860      55.72     
2009.35    268.994    179.37     -1859.992  55.73     
2009.55    227.998    179.39     -1808.005  55.73     
2009.75    213.999    179.4      -1843.002  55.73     
2009.95    206.005    179.42     -1859.992  55.74     
2010.15    240        179.44     -1805.005  55.74     
2010.35    240        179.47     -1842.995  55.75     
2010.55    241.004    179.47     -1807.997  55.75     
2010.75    266        179.49     -1790.008  55.75     
2010.95    265.997    179.52     -1843.002  55.76     
2011.15    242.006    179.52     -1859.997  55.76     
2011.35    283.995    179.56     -1836.996  55.76     
2011.55    252.002    179.57     -1812.007  55.76     
2011.75    264.005    179.59     -1859.996  55.77     
2011.95    297.007    179.62     -1834.997  55.77     
2012.15    341.999    179.62     -1815.007  55.78     
2012.35    333.006    179.64     -1859.996  55.78     
2012.55    375.985    179.67     -1832.994  55.79     
2012.75    275.004    179.69     -1790.004  55.79     
2012.95    299.997    179.71     -1816.006  55.79     
2013.15    278.004    179.73     -1860.003  55.8      
2013.35    306.997    179.75     -1881.998  55.8      
2013.55    285.996    179.76     -1867.989  55.8      
2013.75    258.004    179.78     -1790.004  55.81     
2013.95    284        179.81     -1815.003  55.81     
2014.15    286.99     179.79     -1834.993  55.81     
2014.35    216.999    179.78     -1790.004  55.82     
2014.55    213.005    179.86     -1817.003  55.82     
2014.75    249.001    179.88     -1834.997  55.82     
2014.95    256.004    179.91     -1816.006  55.83     
2015.15    282.007    179.92     -1859.996  55.83     
2015.35    329.005    179.93     -1831.994  55.84     
2015.55    362.016    179.96     -1790      55.84     
2015.75    472.96     179.98     -1790.004  55.84     
2015.95    198        180.01     -1818.002  55.84     
2016.15    197.005    180.02     -1829.994  55.85     
2016.35    233.002    180.03     -1790.004  55.85     
2016.55    246.002    180.06     -1821.006  55.86     
2016.75    257.001    180.07     -1859.995  55.86     
2016.95    264.007    180.08     -1826.995  55.86     
2017.15    310.01     180.11     -1790      55.87     
2017.35    382.013    180.13     -1790      55.87     
2017.55    470.03     180.15     -1790      55.88     
2017.75    675.056    180.16     -1790.005  55.88     
2017.95    1061.087   180.18     -1827.005  55.88     
2018.15    1659.143   180.21     -1860      55.88     
2018.35    2649.194   180.22     -1859.995  55.88     
2018.55    3987.146   180.23     -1826.999  55.89     
2018.75    4994.359   180.26     -1822.006  55.89     
2018.95    571.005    180.28     -1860      55.9      
2019.15    608.013    180.31     -1859.995  55.9      
2019.35    698.99     180.32     -1827.999  55.91     
2019.55    629.972    180.33     -1823.005  55.91     
2019.75    434.006    180.36     -1860      55.91     
2019.95    472.986    180.38     -1859.995  55.92     
2020.15    375.991    180.4      -1824.995  55.92     
2020.35    313.995    180.41     -1790      55.93     
2020.55    282.004    180.43     -1790.005  55.93     
2020.75    307.006    180.46     -1825.005  55.93     
2020.95    351.012    180.47     -1860      55.94     
2021.15    432.013    180.48     -1859.999  55.94     
2021.35    521.02     180.51     -1852.991  55.94     
2021.55    658.995    180.52     -1790.001  55.95     
2021.75    624.021    180.54     -1797.008  55.95     
2021.95    770.978    180.57     -1852.991  55.95     
2022.15    618.009    180.58     -1790.001  55.96     
2022.35    679.992    180.61     -1797.008  55.96     
2022.55    627.978    180.63     -1852.992  55.97     
2022.75    474.004    180.64     -1797.009  55.97     
2022.95    501.994    180.67     -1860      55.97     
2023.15    458.976    180.67     -1860      55.98     
2023.35    295.001    180.7      -1860      55.98     
2023.55    302.005    180.72     -1859.999  55.99     
2023.75    337.988    180.75     -1852.991  55.99     
2023.95    258.002    180.77     -1790      55.99     
2024.15    271.003    180.77     -1790.001  56        
2024.35    288.998    180.82     -1800.009  56        
2024.55    278.011    180.82     -1860      56        
2024.75    352.994    180.85     -1859.998  56.01     
2024.95    308.997    180.87     -1848.993  56.01     
2025.15    288.999    180.87     -1800.009  56.01     
2025.35    284        180.9      -1860      56.02     
2025.55    284.999    180.92     -1859.999  56.02     
2025.75    278.999    180.92     -1849.992  56.02     
2025.95    273.002    180.95     -1797.009  56.03     
2026.15    287.003    180.97     -1860      56.03     
2026.35    305.001    180.99     -1859.999  56.03     
2026.55    310.991    181        -1852.991  56.04     
2026.75    249.995    181.02     -1790      56.04     
2026.95    213.004    181.04     -1790.002  56.05     
2027.15    240.003    181.05     -1803.007  56.05     
2027.35    263.004    181.07     -1848.991  56.05     
2027.55    291.995    181.1      -1790.002  56.06     
2027.75    255.001    181.12     -1804.006  56.06     
2027.95    264.001    181.14     -1845.992  56.06     
2028.15    270.004    181.15     -1790.002  56.07     
2028.35    299.016    181.17     -1804.006  56.07     
2028.55    411.026    181.2      -1845.992  56.07     
2028.75    588.045    181.22     -1790.002  56.08     
2028.95    900.075    181.22     -1804.006  56.08     
2029.15    1417.121   181.25     -1845.994  56.08     
2029.35    2246.196   181.27     -1804.008  56.09     
2029.55    3592.256   181.3      -1860      56.09     
2029.75    5345.261   181.32     -1859.998  56.09     
2029.95    280.006    181.32     -1848.991  56.09     
2030.15    322.992    181.35     -1790.002  56.09     
2030.35    266.002    181.37     -1802.006  56.1      
2030.55    278.995    181.39     -1842.992  56.11     
2030.75    243.005    181.4      -1790.002  56.11     
2030.95    275.002    181.42     -1802.008  56.11     
2031.15    292.002    181.45     -1859.994  56.11     
2031.35    302.987    181.47     -1819.996  56.12     
2031.55    216.004    181.47     -1790      56.12     
2031.75    241.009    181.5      -1790.009  56.12     
2031.95    299.999    181.52     -1849.002  56.13     
2032.15    292.004    181.54     -1860      56.13     
2032.35    319.991    181.55     -1860      56.14     
2032.55    257.991    181.57     -1860      56.14     
2032.75    197        181.6      -1859.991  56.14     
2032.95    196.009    181.63     -1797.008  56.15     
2033.15    257.011    181.64     -1850.001  56.15     
2033.35    333.004    181.66     -1859.991  56.15     
2033.55    362.989    181.66     -1796.999  56.16     
2033.75    285.995    181.69     -1790      56.16     
2033.95    248.996    181.71     -1790      56.16     
2034.15    220.999    181.74     -1790      56.17     
2034.35    212.002    181.76     -1790.01   56.17     
2034.55    227.006    181.76     -1856.001  56.18     
2034.75    264.999    181.79     -1860      56.18     
2034.95    255.005    181.81     -1859.99   56.18     
2035.15    286.996    181.84     -1790      56.18     
2035.35    259.999    181.84     -1790      56.19     
2035.55    252.005    181.86     -1790.01   56.19     
2035.75    287.01     181.89     -1856.99   56.19     
2035.95    353.006    181.91     -1790      56.2      
2036.15    395.982    181.91     -1790.001  56.2      
