~Version
 VERS              .         2.0                           : CWLS LOG ASCII STANDARD - VERSION 2.0
 WRAP              .         NO                            : ONE LINE PER DEPTH STEP
 DLM               .         SPACE                         : DELIMITING CHARACTER(SPACE TAB OR COMMA)
~Well Information
#_______________________________________________________________________________
#
#PARAMETER_NAME    .UNIT     VALUE                         : DESCRIPTION
#_______________________________________________________________________________
STRT               .M        2714.4                        : First reference value
STOP               .M        2769                          : Last reference value
STEP               .M        0.2000004                     : Step increment
NULL               .         -9999                         : Missing value
COMP               .                                       : Company
WELL               .         616                           : Well name
FLD                .                                       : Field
LOC                .                                       : Location
CNTY               .                                       : County
STAT               .                                       : State
CTRY               .                                       : Country
SRVC               .                                       : Service Company
DATE               .                                       : Date
API                .                                       : API number
PROJECT_UPGRADE_TIME .         2021-03-18T21_24_50           : 
group              .         Good                          : 
~Parameter Information Block
#_______________________________________________________________________________
#
#PARAMETER_NAME    .UNIT     VALUE                         : DESCRIPTION
#_______________________________________________________________________________
SET                .         D1163_D                       : 
OTHER              .         Программное обеспечение станции MONITOR-386EX 25/12/99 15_08_10   BGF V52 22/08/01 16_56_30   3.2_BGF_N_3070031: 
OTHER_10           .         Тарировки_                    : 
OTHER_11           .         TM.GRD = 0.00403*TM$.UE + -1.19: 
OTHER_12           .         MN.ATM = (7.1e-006*TM.GRD + 0.02017)*(MN$.UE + -3.03*TM.GRD + -1833): 
OTHER_13           .         Id error                      : 
OTHER_2            .         Kedr.exe версия 3.4.2.51      : 
OTHER_3            .         KedrData.dll версия 3.4.2.24  : 
OTHER_4            .         Драйвер версия 2.1.1.8        : 
OTHER_5            .         Мнемоники версия 3.3 S        : 
OTHER_6            .         Прибор_ КСА-М1                : 
OTHER_7            .         Номер прибора_ 265            : 
OTHER_8            .         Режим_ КСА-М1                 : 
OTHER_9            .         Форма_ ТЕРМОМЕТР              : 
PROJECT_UPGRADE_TIME .         2021-03-18T21_24_49           : 
TLFamily_DEPT      .         Measured Depth                : 
TLFamily_GK        .         Gamma Ray                     : 
TLFamily_GK$       .                                       : 
TLFamily_LM        .         Casing Collar locator         : 
TLFamily_METKA     .                                       : 
TLFamily_MN        .                                       : 
TLFamily_MN$       .                                       : 
TLFamily_RCOR      .                                       : 
TLFamily_SPID      .         Spontaneous Potential         : 
TLFamily_STD       .                                       : 
TLFamily_TENS      .         Cable Tension                 : 
TLFamily_TIME      .         Time                          : 
TLFamily_TM        .         Temperature                   : 
TLFamily_TM$       .         Temperature                   : 
TLFamily_VGD       .         Gas Volume                    : 
group              .         prim                          : 
~Curve Information
#_______________________________________________________________________________
#
#LOGNAME           .UNIT     LOG_ID                        : DESCRIPTION
#_______________________________________________________________________________
DEPT               .M                                      : 1 Глубина, м -    0.0 см 
GK                 .MKR/H                                  : 15 Гамма-активность, мкр./ч -  110.0 см 
GK$                .UE                                     : 12 Гамма-активность, усл.ед. -  110.0 см 
LM                 .                                       : 10 Локатор муфт,  -   20.0 см 
METKA              .                                       : 3 Метки,  -    0.0 см 
MN                 .ATM                                    : 14 Давление, атм. -  160.0 см 
MN$                .UE                                     : 8 Давление, усл.ед. -  160.0 см 
RCOR               .CM/KM                                  : 5 Коррекция по ролику, см/км -    0.0 см 
SPID               .M/H                                    : 2 Скорость, м/час -    0.0 см 
STD                .                                       : 11 Приток,  -  170.0 см 
TENS               .T                                      : 6 Натяжение кабеля, т -    0.0 см 
TIME               .S                                      : 4 Время, сек -    0.0 см 
TM                 .GRD                                    : 13 Температура, °C -  180.0 см 
TM$                .UE                                     : 7 Температура, усл.ед. -  180.0 см 
VGD                .                                       : 9 Влагомер,  -  170.0 см 
~Ascii
# ...
2743.8     7.86       333        1          0          254.497    14336      -1400      -313       32372      0          18337.19   89.848     22590      6478      
2744       8.15       346        1          0          254.518    14337      -1400      -317       32372      0          18334.78   89.849     22590      6478      
2744.2     8.48       365        1          0          254.533    14338      -1400      -315       32373      0          18332.58   89.854     22591      6477      
2744.4     7.98       340        1          0          254.554    14339      -1400      -312       32372      0          18330.28   89.86      22593      6477      
2744.6     8.2        350        1          0          254.58     14340      -1400      -308       32373      0          18328.09   89.867     22595      6476      
2744.8     8.3        350        1          0          254.601    14341      -1400      -315       32373      0          18325.79   89.864     22594      6476      
2745       8.2        359        1          0          254.608    14341      -1400      -316       32373      0          18323.52   89.872     22596      6476      
2745.2     7.56       344        1          0          254.633    14343      -1400      -315       32373      0          18321.29   89.869     22595      6475      
2745.4     6.91       309        1          0          254.664    14344      -1400      -323       32373      0          18318.88   89.874     22597      6474      
2745.6     6.34       277        1          0          254.685    14345      -1400      -317       32373      0          18316.69   89.876     22597      6475      
2745.8     5.98       252        1          0          254.685    14345      -1400      -316       32373      0          18314.5    89.88      22598      6474      
2746       6.27       262        1          0          254.721    14347      -1400      -316       32373      0          18312.2    89.88      22598      6474      
2746.2     6.8        291        1          0          254.732    14347      -1400      -318       32372      0          18309.9    89.888     22600      6473      
2746.4     6.79       289        1          0          254.758    14348      -1400      -317       32372      0          18307.71   89.896     22602      6472      
2746.6     7.03       294        36         0          254.769    14349      -1400      -314       32373      0          18305.4    89.896     22602      6472      
2746.8     7.85       328        1031       0          254.789    14350      -1400      -319       32373      0          18303.09   89.903     22604      6471      
2747       8.14       338        1473       0          254.81     14351      -1400      -318       32372      0          18300.79   89.905     22604      6470      
2747.2     8.26       355        1          0          254.831    14352      -1400      -316       32373      0          18298.6    89.908     22605      6468      
2747.4     8.33       350        1          0          254.836    14352      -1400      -313       32373      0          18296.3    89.908     22605      6468      
2747.6     8.35       364        1          0          254.863    14354      -1400      -318       32373      0          18293.99   89.912     22606      6470      
2747.8     7.96       347        1          0          254.894    14355      -1400      -317       32372      0          18291.8    89.92      22608      6469      
2748       7.47       317        1          0          254.91     14356      -1400      -315       32373      0          18289.5    89.927     22610      6468      
2748.2     7.7        324        1          0          254.915    14356      -1400      -319       32374      0          18287.2    89.929     22610      6468      
2748.4     8.2        351        1          0          254.951    14358      -1400      -318       32373      0          18284.9    89.932     22611      6467      
2748.6     8.14       350        1          0          254.957    14358      -1400      -316       32372      0          18282.71   89.933     22611      6468      
2748.8     7.79       338        1          0          254.978    14359      -1400      -313       32373      0          18280.52   89.936     22612      6466      
2749       8.02       337        1          0          254.993    14360      -1400      -318       32373      0          18278.1    89.948     22615      6465      
2749.2     8.12       346        1          0          255.019    14361      -1400      -317       32372      0          18275.8    89.949     22615      6465      
2749.4     7.81       351        1          0          255.04     14362      -1400      -315       32372      0          18273.61   89.957     22617      6465      
2749.6     7.28       312        1          0          255.061    14363      -1400      -319       32372      0          18271.31   89.961     22618      6463      
2749.8     7.46       308        1          0          255.072    14363      -1400      -318       32372      0          18269      89.965     22619      6463      
2750       8.17       339        1          2          255.103    14365      -1400      -316       32373      0          18266.67   89.969     22620      6462      
2750.2     8.85       380        1          0          255.124    14366      -1400      -313       32372      0          18264.29   89.973     22621      6462      
2750.4     8.73       373        1          0          255.145    14367      -1400      -319       32373      0          18261.99   89.977     22622      6462      
2750.6     8.74       372        1          0          255.145    14367      -1400      -312       32372      0          18259.71   89.982     22623      6461      
2750.8     9.04       387        1          0          255.176    14369      -1400      -314       32372      0          18257.5    89.985     22624      6457      
2751       8.96       388        1          0          255.187    14369      -1400      -318       32372      0          18255.09   89.991     22625      6458      
2751.2     8.02       346        1          0          255.208    14370      -1400      -317       32373      0          18252.89   89.997     22627      6456      
2751.4     7.31       325        1          0          255.229    14371      -1400      -315       32372      0          18250.7    90.001     22628      6457      
2751.6     7.33       304        1          0          255.27     14373      -1400      -310       32372      0          18248.4    90.005     22629      6457      
2751.8     7.85       317        1          0          255.291    14374      -1400      -319       32373      0          18246.1    90.009     22630      6455      
2752       8.29       348        1          0          255.312    14375      -1400      -315       32373      0          18243.79   90.017     22632      6455      
2752.2     8.44       365        1          0          255.333    14376      -1400      -317       32372      0          18241.61   90.021     22633      6454      
2752.4     8.17       354        1          0          255.354    14377      -1400      -310       32372      0          18239.19   90.025     22634      6453      
2752.6     7.94       339        1          0          255.375    14378      -1400      -310       32372      0          18237      90.028     22635      6452      
2752.8     7.99       340        1          0          255.391    14379      -1400      -313       32372      0          18234.81   90.032     22636      6450      
2753       8.16       351        1          0          255.417    14380      -1400      -317       32372      0          18232.51   90.04      22638      6449      
2753.2     7.79       331        1          0          255.438    14381      -1400      -324       32373      0          18230.2    90.041     22638      6448      
2753.4     8.15       348        1          0          255.443    14381      -1400      -315       32372      0          18227.94   90.045     22639      6447      
