~Version
 VERS              .         2.0                           : CWLS LOG ASCII STANDARD - VERSION 2.0
 WRAP              .         NO                            : ONE LINE PER DEPTH STEP
 DLM               .         SPACE                         : DELIMITING CHARACTER(SPACE TAB OR COMMA)
~Well Information
#_______________________________________________________________________________
#
#PARAMETER_NAME    .UNIT     VALUE                         : DESCRIPTION
#_______________________________________________________________________________
STRT               .M        2656                          : First reference value
STOP               .M        2756.3999                     : Last reference value
STEP               .M        0.1999998                     : Step increment
NULL               .         -9999                         : Missing value
COMP               .                                       : Company
WELL               .         616                           : Well name
FLD                .                                       : Field
LOC                .                                       : Location
CNTY               .                                       : County
STAT               .                                       : State
CTRY               .                                       : Country
SRVC               .                                       : Service Company
DATE               .                                       : Date
API                .                                       : API number
PROJECT_UPGRADE_TIME .         2021-03-18T21_24_50           : 
group              .         Good                          : 
~Parameter Information Block
#_______________________________________________________________________________
#
#PARAMETER_NAME    .UNIT     VALUE                         : DESCRIPTION
#_______________________________________________________________________________
SET                .         D4404_D                       : 
OTHER              .         Запись производится в присутствии: 
OTHER_10           .         Максимальная температура      : 
OTHER_11           .         Тип промывочной жидкости      : 
OTHER_12           .         Сопротивление ПЖ (Ом*м) при 20°C: 
OTHER_13           .         Плотность ПЖ(г/см3)           : 
OTHER_14           .         Вязкость ПЖ(с)                : 
OTHER_15           .         Водоотдача ПЖ(см3/30мин)      : 
OTHER_16           .         Уровень ПЖ                    : 
OTHER_17           .         Нефть ПЖ (%)                  : 
OTHER_18           .         Барит ПЖ (%)                  : 
OTHER_19           .         Гематит ПЖ (%)                : 
OTHER_2            .         Заказчик ННСН  ЦДНГ-1         : 
OTHER_20           .         КМЦ ПЖ (%)                    : 
OTHER_21           .         Разгазирование ПЖ (да,нет)    : 
OTHER_22           .         Подъемник                     : 
OTHER_23           .         Лаборатория                   : 
OTHER_24           .         Тип кабеля                    : 
OTHER_25           .         Длина кабеля (м)              : 
OTHER_26           .         Цена последней метки          : 
OTHER_27           .         Цена контрольной метки        : 
OTHER_28           .         Диаметр долота (мм)           : 
OTHER_29           .         Глубина бурения (м)           : 
OTHER_3            .         Площадь                       : 
OTHER_30           .         Искусственный забой (м)       : 
OTHER_31           .         Диаметр колонны (мм)          : 
OTHER_32           .         Толщина колонны (мм)          : 
OTHER_33           .         Башмак колонны (м)            : 
OTHER_34           .         Диаметр НКТ (мм)              : 
OTHER_35           .         Толщина НКТ (мм)              : 
OTHER_36           .         Воронка НКТ (м)               : 
OTHER_37           .         Дата цементожа                : 
OTHER_38           .         Тип, количество(т) и плотность цемента: 
OTHER_39           .         Интервалы перфорации (м)      : 
OTHER_4            .         Категория                     : 
OTHER_40           .         Направление, диаметр (мм)     : 
OTHER_41           .         Направление, глубина (м)      : 
OTHER_42           .         Кондуктор, диаметр (мм)       : 
OTHER_43           .         Кондуктор, глубина (м)        : 
OTHER_44           .         Техническая колонна, диаметр (мм): 
OTHER_45           .         Техническая колонна, глубина (м): 
OTHER_46           .         Эксплуатационная колонна, диаметр (мм): 
OTHER_47           .         Эксплуатационная колонна, глубина (м): 
OTHER_48           .         Программа Кедр-02 версия 3.4  : 
OTHER_49           .         Операционная система Windows NT 5.1 build 2600 Service Pack 2: 
OTHER_5            .         Назначение исследований       : 
OTHER_50           .         Программное обеспечение станции MONITOR-386EX 25/12/99 15_08_10   BGF V54 20/09/05 15_32_17   3.3__BGF_9030071: 
OTHER_51           .         Kedr.exe версия 3.4.2.74      : 
OTHER_52           .         KedrData.dll версия 3.4.2.29  : 
OTHER_53           .         Мнемоники версия 3.18 S       : 
OTHER_54           .         Драйвер версия 2.1.1.4        : 
OTHER_55           .         LasInf.dll 4.3.0.35           : 
OTHER_56           .         Прибор_ КСА-Т4                : 
OTHER_57           .         Номер прибора_ 160            : 
OTHER_58           .         Режим_ КСА-Т4                 : 
OTHER_59           .         Форма_ С.А.Б.                 : 
OTHER_6            .         Альтитуда стола ротора        : 
OTHER_60           .         Тарировки_                    : 
OTHER_61           .         <_techsia_sc_> Дата тарировки температуры 25.05.2010: 
OTHER_62           .         Ручной ввод коэффициентов     : 
OTHER_63           .         TM.DEGC = 0.00402*RTM.E.ACP + -0.994: 
OTHER_64           .         <_techsia_sc_> Дата тарировки давления 25.05.2010: 
OTHER_65           .         Ручной ввод коэффициентов     : 
OTHER_66           .         MN.ATM = (2.27521e-006*TM.DEGC + 0.02078)*(RMN.E.ACP + 6.2*TM.DEGC + -1688): 
OTHER_67           .         <_techsia_sc_> Дата тарировки ГК 25.05.2010: 
OTHER_68           .         Ручной ввод коэффициентов     : 
OTHER_69           .         GR.UR/H = RGR.IMP/MIN / 45.5144: 
OTHER_7            .         Вид исследований 3  6         : 
OTHER_70           .         GK.FLT = 0.1*GR.UR/H[-1] + (1-0.1)*GR.UR/H[0]: 
OTHER_8            .         Начало бурения интервала каротажа: 
OTHER_9            .         Окончание бурения интервала каротажа: 
PROJECT_UPGRADE_TIME .         2021-03-18T21_24_50           : 
TLFamily_CCLC      .                                       : 
TLFamily_DEPT      .         Measured Depth                : 
TLFamily_GK        .         Gamma Ray                     : 
TLFamily_GR        .         Gamma Ray                     : 
TLFamily_METKA     .                                       : 
TLFamily_MN        .                                       : 
TLFamily_RCOR      .                                       : 
TLFamily_RGR       .                                       : 
TLFamily_RMN       .                                       : 
TLFamily_RTEN      .                                       : 
TLFamily_RTM       .                                       : 
TLFamily_SPEE      .         Cable Speed                   : 
TLFamily_TIME      .         Time                          : 
TLFamily_TM        .         Temperature                   : 
group              .         prim                          : 
~Curve Information
#_______________________________________________________________________________
#
#LOGNAME           .UNIT     LOG_ID                        : DESCRIPTION
#_______________________________________________________________________________
DEPT               .M                                      : 1 Глубина, м -    0.0 см 
CCLC               .E.ACP                                  : 9 Локатор муфт,  -   20.0 см 
GK                 .FLT                                    : 14 Гамма-активность фильтрованная, мкр./ч -  110.0 см 
GR                 .UR/H                                   : 13 Гамма-активность, мкр./ч -  110.0 см 
METKA              .CU                                     : 3 Метки,  -    0.0 см 
MN                 .ATM                                    : 12 Давление, атм. -  160.0 см 
RCOR               .CM/KM                                  : 5 Коррекция по ролику, см/км -    0.0 см 
RGR                .IMP/MIN                                : 10 Гамма-активность, усл.ед. -  110.0 см 
RMN                .E.ACP                                  : 8 Давление, усл.ед. -  160.0 см 
RTEN               .T                                      : 6 Натяжение кабеля, т -    0.0 см 
RTM                .E.ACP                                  : 7 Температура, усл.ед. -  170.0 см 
SPEE               .M/H                                    : 2 Скорость, м/час -    0.0 см 
TIME               .S                                      : 4 Время, сек -    0.0 см 
TM                 .DEGC                                   : 11 Температура, °C -  170.0 см 
~Ascii
# ...
2739.199917 78         8.22       8.22       0          246.512    -1110      374        13182      0.21       12495      578        518.43     49.237    
2739.399917 57         8.22       8.22       0          246.541    -1110      374        13183      0.21       12498      579        519.74     49.247    
2739.599916 137        7.73       7.73       0          246.57     -1110      352        13185      0.21       12500      580        520.94     49.256    
2739.799916 123        7.73       7.73       0          246.6      -1110      352        13186      0.21       12503      580        522.19     49.269    
2739.999916 94         9.83       9.83       0          246.623    -1110      447        13187      0.21       12507      580        523.44     49.283    
2740.199916 75         10.66      10.66      0          246.646    -1110      485        13188      0.21       12510      580        524.67     49.297    
2740.399916 83         12.35      12.35      0          246.67     -1110      562        13189      0.21       12514      580        525.94     49.312    
2740.599915 69         12.35      12.35      1          246.694    -1110      562        13190      0.21       12518      581        527.14     49.33     
2740.799915 72         11.78      11.78      0          246.719    -1110      536        13191      0.21       12524      582        528.38     49.353    
2740.999915 72         11.78      11.78      0          246.744    -1110      536        13192      0.21       12530      583        529.63     49.375    
2741.199915 108        13.41      13.41      0          246.768    -1110      610        13193      0.21       12537      585        530.88     49.403    
2741.399915 85         14.63      14.63      0          246.792    -1110      666        13194      0.21       12541      583        532.13     49.421    
2741.599914 79         15.53      15.53      0          246.817    -1110      707        13195      0.21       12547      583        533.38     49.443    
2741.799914 62         15.53      15.53      0          246.841    -1110      707        13196      0.21       12552      582        534.59     49.466    
2741.999914 85         14.78      14.78      0          246.865    -1110      673        13197      0.21       12559      582        535.83     49.493    
2742.199914 59         14.63      14.63      0          246.89     -1110      666        13198      0.21       12563      582        537.14     49.511    
2742.399914 59         13.99      13.99      0          246.914    -1110      637        13199      0.21       12570      582        538.38     49.537    
2742.599913 99         13.34      13.34      0          246.938    -1110      607        13200      0.21       12576      582        539.58     49.56     
2742.799913 101        11.56      11.56      0          246.964    -1110      526        13201      0.21       12581      581        540.83     49.583    
2742.999913 117        11.56      11.56      0          246.989    -1110      526        13202      0.21       12589      580        542.14     49.614    
2743.199913 88         11.32      11.32      0          247.013    -1110      515        13203      0.21       12595      580        543.38     49.637    
2743.399913 98         11.27      11.27      0          247.039    -1110      513        13204      0.21       12600      581        544.58     49.658    
2743.599912 72         11.25      11.25      0          247.065    -1110      512        13205      0.21       12609      581        545.83     49.693    
2743.799912 58         11.21      11.21      0          247.101    -1110      510        13207      0.21       12616      582        547.03     49.721    
2743.999912 122        10.39      10.39      0          247.118    -1110      473        13207      0.21       12625      581        548.34     49.76     
2744.199912 91         10.39      10.39      0          247.144    -1110      473        13208      0.21       12634      582        549.59     49.795    
2744.399912 56         9.72       9.72       0          247.171    -1110      442        13209      0.21       12645      581        550.84     49.838    
2744.599911 156        9.38       9.38       0          247.199    -1110      427        13210      0.21       12654      581        552.03     49.875    
2744.799911 67         9.12       9.12       0          247.226    -1110      415        13211      0.21       12664      582        553.34     49.916    
2744.999911 89         8.61       8.61       1          247.257    -1110      392        13212      0.21       12677      575        554.59     49.968    
2745.199911 75         9.38       9.38       0          247.286    -1110      427        13213      0.21       12692      578        555.84     50.028    
2745.399911 87         9.38       9.38       0          247.314    -1110      427        13214      0.21       12705      580        557.09     50.08     
2745.59991 87         10.07      10.07      0          247.342    -1110      458        13215      0.21       12715      581        558.35     50.12     
2745.79991 69         10.52      10.52      0          247.369    -1110      479        13216      0.21       12725      581        559.59     50.161    
2745.99991 92         9.89       9.89       2          247.397    -1112      450        13217      0.21       12735      581        560.89     50.202    
2746.19991 57         9.89       9.89       0          247.428    -1112      450        13218      0.21       12751      580        562.17     50.263    
2746.39991 138        9.47       9.47       0          247.457    -1112      431        13219      0.21       12763      579        563.41     50.315    
2746.599909 104        9.47       9.47       0          247.487    -1112      431        13220      0.22       12778      581        564.74     50.372    
2746.799909 96         9.57       9.57       0          247.519    -1112      436        13221      0.22       12795      581        565.96     50.442    
2746.999909 74         9.62       9.62       0          247.546    -1112      438        13222      0.22       12810      581        567.17     50.502    
2747.199909 72         10.37      10.37      0          247.573    -1112      472        13223      0.22       12817      581        568.42     50.53     
2747.399909 9481       10.37      10.37      0          247.602    -1112      472        13224      0.21       12829      580        569.69     50.577    
2747.599908 6139       9.56       9.56       0          247.631    -1112      435        13225      0.21       12841      581        570.95     50.627    
2747.799908 1769       9.56       9.56       0          247.66     -1112      435        13226      0.21       12855      581        572.2      50.684    
2747.999908 358        10.33      10.33      0          247.689    -1112      470        13227      0.21       12868      581        573.39     50.734    
2748.199908 135        10.33      10.33      0          247.702    -1112      470        13227      0.21       12884      582        574.64     50.8      
2748.399908 117        11.84      11.84      0          247.729    -1112      539        13228      0.21       12901      581        575.95     50.867    
2748.599907 82         11.84      11.84      0          247.757    -1112      539        13229      0.21       12910      581        577.2      50.904    
2748.799907 57         10.99      10.99      0          247.784    -1112      500        13230      0.21       12921      580        578.43     50.946    
2748.999907 64         10.99      10.99      0          247.815    -1112      500        13231      0.21       12930      580        579.64     50.985    
2749.199907 252        11.29      11.29      0          247.839    -1112      514        13232      0.21       12941      581        580.95     51.03     
2749.399907 209        11.45      11.45      0          247.867    -1112      521        13233      0.21       12952      581        582.15     51.075    
