~Version
 VERS              .         2.0                           : CWLS LOG ASCII STANDARD - VERSION 2.0
 WRAP              .         NO                            : ONE LINE PER DEPTH STEP
 DLM               .         SPACE                         : DELIMITING CHARACTER(SPACE TAB OR COMMA)
~Well Information
#_______________________________________________________________________________
#
#PARAMETER_NAME    .UNIT     VALUE                         : DESCRIPTION
#_______________________________________________________________________________
STRT               .M        9                             : First reference value
STOP               .M        197.4                         : Last reference value
STEP               .M        0.2                           : Step increment
NULL               .         -9999                         : Missing value
COMP               .                                       : Company
WELL               .         616                           : Well name
FLD                .                                       : Field
LOC                .                                       : Location
CNTY               .                                       : County
STAT               .                                       : State
CTRY               .                                       : Country
SRVC               .                                       : Service Company
DATE               .                                       : Date
API                .                                       : API number
PROJECT_UPGRADE_TIME .         2021-03-18T21_24_50           : 
group              .         Good                          : 
~Parameter Information Block
#_______________________________________________________________________________
#
#PARAMETER_NAME    .UNIT     VALUE                         : DESCRIPTION
#_______________________________________________________________________________
SET                .         616                           : 
CONF               .         00                            : 
END                .         0                             : 
ERR                .         0                             : 
GS00               .M        0195.38                       : 
GS01               .M        0006.66                       : 
MM00               .M        0080.00                       : 
NOKG               .         0                             : 
NPR                .         980402                        : 
PART               .         Палагутин                     : 
PROJECT_UPGRADE_TIME .         2021-03-18T21_24_49           : 
PRZK               .         Шакиров                       : 
TLFamily_AZIMUTH   .         True Dip Azimuth              : 
TLFamily_DEPTH     .         Measured Depth                : 
TLFamily_METKA     .                                       : 
TLFamily_ROLL      .                                       : 
TLFamily_SPEED     .         Spontaneous Potential         : 
TLFamily_ZENIT     .                                       : 
VPRG               .         310                           : 
WAY                .         UP                            : 
group              .         prim                          : 
~Curve Information
#_______________________________________________________________________________
#
#LOGNAME           .UNIT     LOG_ID                        : DESCRIPTION
#_______________________________________________________________________________
DEPTH              .M                                      :  
AZIMUTH            .DEG                                    :  
METKA              .                                       :  
ROLL               .DEG                                    :  
SPEED              .M/H                                    :  
ZENIT              .DEG                                    :  
~Ascii
# ...
57.8       180.29     0          348.57     504        0.92      
58         180.49     0          348.2      504        0.96      
58.2       178.49     0          350.21     540        0.95      
58.4       178.74     0          350        504        0.93      
58.6       177.44     0          351.18     540        0.94      
58.8       176.82     0          351.77     540        0.96      
59         175.6      0          353.26     468        0.92      
59.2       174.25     0          354.95     540        0.89      
59.4       175.38     0          354.06     540        0.86      
59.6       177.77     0          351.51     504        0.86      
59.8       181.35     0          347.23     504        0.85      
60         182.85     0          344.22     504        0.87      
60.2       184.49     0          340.27     540        0.9       
60.4       219.81     0          332.3      540        0.96      
60.6       240.21     0          327.21     504        1.05      
60.8       191.34     0          323.69     504        1.1       
61         186.54     0          323.61     468        1.16      
61.2       194.74     0          323        540        1.2       
61.4       191.77     0          324.25     540        1.19      
61.6       190.62     0          324.83     540        1.19      
61.8       192.16     0          323.2      504        1.17      
62         189.62     0          324.73     540        1.15      
62.2       188.96     1          325.84     504        1.15      
62.4       189.11     0          326.89     468        1.12      
62.6       189.14     0          327.97     540        1.08      
62.8       189.34     0          328.67     540        1.09      
63         189.1      0          329.89     504        1.05      
63.2       188.73     0          330.79     540        1.03      
63.4       188.05     0          331.88     504        1.01      
63.6       185.44     0          334.8      504        1         
63.8       186.24     0          334.64     504        0.96      
64         186.25     0          335.17     540        0.95      
64.2       183.98     0          337.52     540        0.93      
64.4       184.83     0          337.04     504        0.89      
64.6       182.93     0          338.78     504        0.93      
64.8       182.43     0          339.12     504        0.93      
65         181.97     0          339.7      540        0.93      
65.2       180.93     0          341.04     540        0.9       
65.4       178.37     0          343.91     540        0.88      
65.6       178.11     0          343.55     504        0.9       
65.8       178.04     0          342.18     468        0.87      
66         180.73     0          338.3      504        0.9       
66.2       180.47     0          337.4      540        0.91      
66.4       181.7      0          335.23     540        0.88      
66.6       184.06     0          331.95     540        0.91      
66.8       185.8      0          329.08     540        0.92      
67         189        0          324.12     540        0.95      
67.2       191.36     0          319.75     504        0.97      
67.4       193.06     0          315.86     540        1.03      
67.6       193.21     0          313.59     504        1.04      
67.8       193.29     0          311.24     504        1.09      
68         192.98     0          309.13     468        1.13      
68.2       192.07     0          307.63     540        1.19      
68.4       189.63     0          307.58     540        1.24      
68.6       189.98     0          304.96     504        1.29      
68.8       189.74     0          303.33     540        1.35      
69         188.39     0          302.73     468        1.4       
69.2       186.38     0          303.42     540        1.42      
69.4       186.47     0          303        540        1.43      
69.6       185.97     0          303.4      540        1.42      
69.8       186.09     0          303.55     504        1.42      
70         185.4      0          304.66     504        1.41      
70.2       185.71     0          305.38     504        1.37      
70.4       186.63     0          305.22     504        1.32      
70.6       186.55     0          305.85     504        1.33      
70.8       186.84     0          306.17     504        1.27      
71         187.61     0          306.06     540        1.22      
71.2       187.12     0          307.33     504        1.2       
71.4       188.29     0          307.61     504        1.14      
71.6       187.26     0          310.54     504        1.1       
71.8       186        0          314.82     540        1.09      
72         184.2      0          323.77     540        1.04      
72.2       176.12     1          348.98     540        1.02      
72.4       184.28     0          3.55       504        1.01      
72.6       164.18     0          1.9        540        0.96      
72.8       356.28     0          1.86       468        0.98      
73         295.92     0          0.65       504        1         
73.2       205.96     0          358.04     540        1         
73.4       214.42     0          357.24     504        1         
73.6       199.78     0          356.54     504        1         
73.8       200.63     0          353.36     504        1.03      
74         201.52     0          351.52     540        1.06      
74.2       200.91     0          351.16     540        1.08      
74.4       201.56     0          350.13     540        1.06      
74.6       201.19     0          350.32     504        1.08      
74.8       203        0          348.31     468        1.08      
75         203.16     0          347.26     504        1.1       
75.2       206.98     0          342.82     540        1.09      
75.4       205.62     0          343.14     504        1.1       
75.6       202.49     0          345.25     540        1.12      
75.8       202.09     0          344.63     468        1.16      
76         201.73     0          344.48     540        1.21      
76.2       199.88     0          345.54     540        1.22      
76.4       198.31     0          347.54     504        1.22      
76.6       200.34     0          347.38     576        1.29      
76.8       196.86     0          352.32     468        1.04      
77         196.87     0          352.46     504        1.06      
77.2       196.5      0          352.51     540        1.07      
77.4       196.75     0          351.89     504        1.07      
77.6       195.18     0          353.1      540        1.04      
77.8       195.09     0          352.75     540        1.03      
78         196.92     0          350.19     504        1.02      
78.2       198.11     0          347.4      504        1.02      
78.4       199.17     0          344.45     540        1.01      
78.6       201.45     0          340.22     504        1.06      
78.8       199.43     0          339.61     468        1.04      
79         202.76     0          334.49     504        1.08      
79.2       205.18     0          329.7      540        1.08      
79.4       201.64     2          328.77     576        1.06      
79.6       204.91     0          327.26     396        1.15      
79.8       206.25     0          323.36     504        1.23      
80         206.36     0          320.29     504        1.29      
80.2       206.37     0          317.07     504        1.33      
80.4       206.65     0          314.16     504        1.37      
80.6       206.8      0          310.59     540        1.43      
80.8       208.35     0          304.73     468        1.5       
81         211.13     0          295.04     540        1.54      
81.2       215.06     0          280.86     540        1.62      
81.4       226.04     0          250.18     540        1.75      
81.6       208.79     0          233.57     504        1.73      
81.8       208.5      0          229.82     540        1.76      
82         206.76     0          229.32     540        1.78      
