~Version
 VERS              .         2.0                           : CWLS LOG ASCII STANDARD - VERSION 2.0
 WRAP              .         NO                            : ONE LINE PER DEPTH STEP
 DLM               .         SPACE                         : DELIMITING CHARACTER(SPACE TAB OR COMMA)
~Well Information
#_______________________________________________________________________________
#
#PARAMETER_NAME    .UNIT     VALUE                         : DESCRIPTION
#_______________________________________________________________________________
STRT               .M        2659.2                        : First reference value
STOP               .M        2769.000055                   : Last reference value
STEP               .M        0.2000001                     : Step increment
NULL               .         -9999                         : Missing value
COMP               .                                       : Company
WELL               .         616                           : Well name
FLD                .                                       : Field
LOC                .                                       : Location
CNTY               .                                       : County
STAT               .                                       : State
CTRY               .                                       : Country
SRVC               .                                       : Service Company
DATE               .                                       : Date
API                .                                       : API number
PROJECT_UPGRADE_TIME .         2021-03-18T21_24_50           : 
group              .         Good                          : 
~Parameter Information Block
#_______________________________________________________________________________
#
#PARAMETER_NAME    .UNIT     VALUE                         : DESCRIPTION
#_______________________________________________________________________________
SET                .         D1165_D                       : 
OTHER              .         Программное обеспечение станции MONITOR-386EX 25/12/99 15_08_10   BGF V52 22/08/01 16_56_30   3.2_BGF_N_3070031: 
OTHER_10           .         Тарировки_                    : 
OTHER_11           .         TM.GRD = 0.00403*TM$.UE + -1.19: 
OTHER_12           .         MN.ATM = (7.1e-006*TM.GRD + 0.02017)*(MN$.UE + -3.03*TM.GRD + -1833): 
OTHER_13           .         Id error                      : 
OTHER_2            .         Kedr.exe версия 3.4.2.51      : 
OTHER_3            .         KedrData.dll версия 3.4.2.24  : 
OTHER_4            .         Драйвер версия 2.1.1.8        : 
OTHER_5            .         Мнемоники версия 3.3 S        : 
OTHER_6            .         Прибор_ КСА-М1                : 
OTHER_7            .         Номер прибора_ 265            : 
OTHER_8            .         Режим_ КСА-М1                 : 
OTHER_9            .         Форма_ ТЕРМОМЕТР              : 
PROJECT_UPGRADE_TIME .         2021-03-18T21_24_49           : 
TLFamily_DEPT      .         Measured Depth                : 
TLFamily_GK        .         Gamma Ray                     : 
TLFamily_GK$       .                                       : 
TLFamily_LM        .         Casing Collar locator         : 
TLFamily_METKA     .                                       : 
TLFamily_MN        .                                       : 
TLFamily_MN$       .                                       : 
TLFamily_RCOR      .                                       : 
TLFamily_SPID      .         Spontaneous Potential         : 
TLFamily_STD       .                                       : 
TLFamily_TENS      .         Cable Tension                 : 
TLFamily_TIME      .         Time                          : 
TLFamily_TM        .         Temperature                   : 
TLFamily_TM$       .         Temperature                   : 
TLFamily_VGD       .         Gas Volume                    : 
group              .         prim                          : 
~Curve Information
#_______________________________________________________________________________
#
#LOGNAME           .UNIT     LOG_ID                        : DESCRIPTION
#_______________________________________________________________________________
DEPT               .M                                      : 1 Глубина, м -    0.0 см 
GK                 .MKR/H                                  : 15 Гамма-активность, мкр./ч -  110.0 см 
GK$                .UE                                     : 12 Гамма-активность, усл.ед. -  110.0 см 
LM                 .                                       : 10 Локатор муфт,  -   20.0 см 
METKA              .                                       : 3 Метки,  -    0.0 см 
MN                 .ATM                                    : 14 Давление, атм. -  160.0 см 
MN$                .UE                                     : 8 Давление, усл.ед. -  160.0 см 
RCOR               .CM/KM                                  : 5 Коррекция по ролику, см/км -    0.0 см 
SPID               .M/H                                    : 2 Скорость, м/час -    0.0 см 
STD                .                                       : 11 Приток,  -  170.0 см 
TENS               .T                                      : 6 Натяжение кабеля, т -    0.0 см 
TIME               .S                                      : 4 Время, сек -    0.0 см 
TM                 .GRD                                    : 13 Температура, °C -  180.0 см 
TM$                .UE                                     : 7 Температура, усл.ед. -  180.0 см 
VGD                .                                       : 9 Влагомер,  -  170.0 см 
~Ascii
# ...
2698.40002 9.69       418        1          0          352.531    19057      -1400      633        31743      0          21222.04   86.497     21759      6528      
2698.60002 9.75       418        1          0          354.319    19143      -1400      634        31746      0          21223.13   86.499     21759      6528      
2698.80002 9.59       403        1          0          351.325    18999      -1400      630        31749      0          21224.34   86.502     21760      6528      
2699.00002 9.48       403        1          0          352.436    19052      -1400      627        31747      0          21225.43   86.507     21761      6528      
2699.20002 9.26       389        1          0          353.09     19083      -1400      636        31742      0          21226.52   86.511     21762      6529      
2699.40002 9.16       389        1          0          351.817    19022      -1400      639        31743      0          21227.65   86.513     21763      6530      
2699.60002 9.1        387        1          0          352.065    19034      -1400      637        31745      0          21228.79   86.519     21764      6529      
2699.80002 9.07       387        1          0          352.33     19047      -1400      638        31749      0          21229.93   86.525     21766      6530      
2700.00002 9.13       396        1          2          353.833    19119      -1400      638        31750      0          21231.1    86.527     21766      6530      
2700.20002 9.59       421        1          0          352.187    19040      -1400      639        31749      0          21232.34   86.531     21767      6530      
2700.400021 9.7        414        1          0          352.915    19075      -1400      633        31749      0          21233.43   86.538     21769      6530      
2700.600021 9.39       395        1          0          354.358    19144      -1400      640        31750      0          21234.52   86.543     21770      6529      
2700.800021 9.29       395        1          0          351.794    19021      -1400      635        31757      0          21235.64   86.547     21771      6531      
2701.000021 8.19       314        1          0          352.029    19032      -1400      635        31755      0          21236.83   86.551     21772      6531      
2701.200021 7.6        314        1          0          352.67     19063      -1400      637        31755      0          21237.93   86.557     21774      6531      
2701.400021 6.87       261        1          0          352.651    19062      -1400      637        31757      0          21239.04   86.56      21774      6532      
2701.600021 6.37       261        1          0          352.51     19055      -1400      637        31762      0          21240.18   86.569     21777      6530      
2701.800021 6.16       256        1          0          352.606    19060      -1400      627        31765      0          21241.32   86.571     21777      6531      
2702.000021 5.98       252        1          0          354.085    19131      -1400      636        31762      0          21242.42   86.576     21778      6533      
2702.200021 6.1        275        1          0          352.382    19049      -1400      631        31767      0          21243.57   86.582     21780      6532      
2702.400022 6.43       282        1          0          353.055    19082      -1400      629        31767      0          21244.72   86.587     21781      6532      
2702.600022 6.54       282        1          0          354.631    19157      -1400      629        31770      0          21245.87   86.591     21782      6532      
2702.800022 6.74       293        1          0          351.922    19027      -1400      632        31770      0          21246.94   86.598     21784      6533      
2703.000022 6.81       293        1          0          352.322    19046      -1400      633        31772      0          21248.07   86.6       21784      6534      
2703.200022 6.65       276        1          0          352.779    19068      -1400      625        31777      0          21249.21   86.6       21784      6533      
2703.400022 6.52       276        1          0          352.913    19075      -1400      634        31780      0          21250.32   86.604     21785      6535      
2703.600022 6.06       241        2905       0          352.742    19066      -1400      631        31785      0          21251.43   86.612     21787      6534      
2703.800022 5.78       241        457        0          352.818    19070      -1400      631        31783      0          21252.62   86.617     21788      6533      
2704.000022 5.78       252        1          0          354.675    19159      -1400      633        31784      0          21253.72   86.624     21790      6535      
2704.200022 5.89       254        1          0          352.678    19063      -1400      635        31787      0          21254.84   86.63      21792      6533      
2704.400023 5.92       254        1          0          353.214    19089      -1400      641        31792      0          21255.97   86.636     21793      6534      
2704.600023 6.27       276        1          0          354.445    19148      -1400      636        31799      0          21257.12   86.64      21794      6535      
2704.800023 6.39       275        1          0          352.115    19036      -1400      637        31799      0          21258.21   86.644     21795      6534      
2705.000023 6.34       270        1          0          352.279    19044      -1400      638        31803      0          21259.37   86.648     21796      6536      
2705.200023 6.32       270        1          0          352.261    19043      -1400      633        31799      0          21260.51   86.649     21796      6535      
2705.400023 6.2        260        1          0          353.702    19113      -1400      634        31798      0          21261.61   86.652     21797      6536      
2705.600023 6.12       260        1          0          352.921    19075      -1400      636        31801      0          21262.76   86.658     21799      6535      
2705.800023 6.33       290        1          0          353.197    19088      -1400      641        31805      0          21263.86   86.66      21799      6536      
2706.000023 6.63       290        1          0          355.376    19193      -1400      637        31809      0          21265.01   86.666     21801      6536      
2706.200023 6.77       295        1          0          352.643    19062      -1400      637        31810      0          21266.11   86.673     21802      6536      
2706.400024 7.29       323        1          0          353.297    19093      -1400      638        31814      0          21267.25   86.679     21804      6537      
2706.600024 7.45       322        1          0          354.356    19144      -1400      636        31813      0          21268.4    86.681     21804      6536      
2706.800024 7.46       319        1          0          352.424    19051      -1400      645        31818      0          21269.5    86.688     21806      6539      
2707.000024 7.46       319        1          0          352.531    19056      -1400      644        31820      0          21270.63   86.698     21809      6537      
2707.200024 7.62       331        1          0          352.8      19069      -1400      642        31820      0          21271.76   86.704     21810      6538      
2707.400024 7.7        331        1          0          354.651    19158      -1400      637        31823      0          21272.9    86.712     21812      6539      
2707.600024 7.58       312        1          0          353.009    19079      -1400      638        31824      0          21274      86.718     21813      6537      
2707.800024 7.39       312        1          0          353.699    19112      -1400      638        31832      0          21275.09   86.724     21815      6539      
2708.000024 7.12       291        1          0          355.651    19206      -1400      639        31835      0          21276.26   86.725     21815      6539      
