~Version
 VERS              .         2.0                           : CWLS LOG ASCII STANDARD - VERSION 2.0
 WRAP              .         NO                            : ONE LINE PER DEPTH STEP
 DLM               .         SPACE                         : DELIMITING CHARACTER(SPACE TAB OR COMMA)
~Well Information
#_______________________________________________________________________________
#
#PARAMETER_NAME    .UNIT     VALUE                         : DESCRIPTION
#_______________________________________________________________________________
STRT               .M        2689.8                        : First reference value
STOP               .M        2754.4                        : Last reference value
STEP               .M        0.1999995                     : Step increment
NULL               .         -9999                         : Missing value
COMP               .                                       : Company
WELL               .         616                           : Well name
FLD                .                                       : Field
LOC                .                                       : Location
CNTY               .                                       : County
STAT               .                                       : State
CTRY               .                                       : Country
SRVC               .                                       : Service Company
DATE               .                                       : Date
API                .                                       : API number
PROJECT_UPGRADE_TIME .         2021-03-18T21_24_50           : 
group              .         Good                          : 
~Parameter Information Block
#_______________________________________________________________________________
#
#PARAMETER_NAME    .UNIT     VALUE                         : DESCRIPTION
#_______________________________________________________________________________
SET                .         D7018_D                       : 
OTHER              .         Kedr.exe версия 2.1.2.32      : 
OTHER_10           .         TM.GRD = 0.00404*TM$.UE + 0.07: 
OTHER_11           .         MN.ATM = (6.33279e-006*TM.GRD + 0.02401)*(MN$.UE + 2.72*TM.GRD + -2018): 
OTHER_12           .         GK.MKR/H = GK$.UE / 43.5489 + 0: 
OTHER_13           .         RES.SM = 0.00476*CRES.UE - 1.51709: 
OTHER_14           .         PL.GSM3 = 0 + 0 * (PL.UE / 1) +  0 * (PL.UE / 1)^2: 
OTHER_15           .         Постоянная времени ГГП = 6 сек: 
OTHER_16           .         Постоянная времени ГК = 6 сек : 
OTHER_2            .         KedrData.dll версия 3.2.2.14  : 
OTHER_3            .         LasInf.dll версия 3.2.0.13    : 
OTHER_4            .         Драйвер версия 1.2.0.5        : 
OTHER_5            .         Прибор_ КСА-M1                : 
OTHER_6            .         Номер прибора_ 155+р204       : 
OTHER_7            .         Режим_ КСА-М1 + ГГП + Резистивиметр: 
OTHER_8            .         Форма_ 223\2                  : 
OTHER_9            .         Тарировки_                    : 
PROJECT_UPGRADE_TIME .         2021-03-18T21_24_50           : 
TLFamily_CRES      .                                       : 
TLFamily_DEPT      .         Measured Depth                : 
TLFamily_GK        .         Gamma Ray                     : 
TLFamily_GK$       .                                       : 
TLFamily_LM        .         Casing Collar locator         : 
TLFamily_METKA     .                                       : 
TLFamily_MN        .                                       : 
TLFamily_MN$       .                                       : 
TLFamily_PL        .                                       : 
TLFamily_PL_2      .                                       : 
TLFamily_RCOR      .                                       : 
TLFamily_RES       .         Mud Resistivity               : 
TLFamily_SPID      .         Spontaneous Potential         : 
TLFamily_STD       .                                       : 
TLFamily_TIME      .         Time                          : 
TLFamily_TM        .         Temperature                   : 
TLFamily_TM$       .         Temperature                   : 
TLFamily_VGD       .         Gas Volume                    : 
group              .         prim                          : 
~Curve Information
#_______________________________________________________________________________
#
#LOGNAME           .UNIT     LOG_ID                        : DESCRIPTION
#_______________________________________________________________________________
DEPT               .M                                      : 1 Глубина, м -    0.0 см 
CRES               .UE                                     : 9 Проводимость, усл.ед. -  222.0 см 
GK                 .MKR/H                                  : 16 Гамма-активность, мкр./ч -  106.0 см 
GK$                .UE                                     : 13 Гамма-активность, усл.ед. -  106.0 см 
LM                 .                                       : 11 Локатор муфт,  -   16.0 см 
METKA              .                                       : 3 Метки,  -    0.0 см 
MN                 .ATM                                    : 15 Давление, атм. -  160.0 см 
MN$                .UE                                     : 7 Давление, усл.ед. -  160.0 см 
PL                 .UE                                     : 10 Плотность, усл.ед. -  270.0 см 
PL_2               .GSM3                                   : 18 Плотность, г./см3 -  270.0 см 
RCOR               .CM/KM                                  : 5 Коррекция по ролику, см/км -    0.0 см 
RES                .SM                                     : 17 Проводимость,  -  222.0 см 
SPID               .M/H                                    : 2 Скорость, м/час -    0.0 см 
STD                .                                       : 12 Приток,  -  170.0 см 
TIME               .S                                      : 4 Время, сек -    0.0 см 
TM                 .GRD                                    : 14 Температура, °C -  180.0 см 
TM$                .UE                                     : 6 Температура, усл.ед. -  180.0 см 
VGD                .                                       : 8 Влагомер,  -  170.0 см 
~Ascii
# ...
2739       1386       11.39      517        182        0          251.907    12223      14         0          0          5.0819     -260       10319      9501.16    52.428     12960      6672      
2739.2     1389       10.9       488        189        0          251.931    12224      14         0          0          5.0946     -260       10339      9498.4     52.558     12992      6670      
2739.4     1390       11.13      484        190        0          251.969    12225      13         0          0          5.0993     -190       10356      9495.61    52.622     13008      6669      
2739.6     1395       11.19      505        251        0          252.007    12226      14         0          0          5.1231     -260       10379      9492.84    52.785     13048      6669      
2739.8     1394       10.11      453        195        1          252.022    12226      14         0          0          5.1184     -260       10400      9489.94    52.828     13059      6672      
2740       1395       9.65       412        207        0          252.037    12226      14         0          0          5.1231     -260       10424      9485.59    52.937     13086      6675      
2740.2     1394       9.97       438        421        0          252.08     12227      13         0          0          5.1184     -260       10452      9482.8     53.055     13115      6668      
2740.4     1398       9.56       443        3619       0          252.087    12226      13         0          0          5.139      -260       10497      9480.02    53.196     13150      6667      
2740.6     1400       9.04       393        211        0          252.147    12228      14         0          0          5.1453     -260       10536      9477.16    53.43      13208      6670      
2740.8     1405       9.74       379        205        0          252.2      12229      14         0          0          5.1707     -213       10568      9474.34    53.515     13229      6669      
2741       1406       10.19      442        210        0          252.228    12229      13         0          0          5.1771     -190       10598      9471.42    53.733     13283      6668      
2741.2     1407       10.42      448        219        0          252.263    12230      13         0          0          5.1786     -320       10622      9468.66    53.947     13336      6667      
2741.4     1412       10.57      457        198        0          252.278    12230      14         0          0          5.204      -320       10642      9465.87    54.028     13356      6667      
2741.6     1413       10.96      465        203        0          252.345    12232      14         0          0          5.2104     -300       10668      9462.96    54.145     13385      6664      
2741.8     1419       10.71      481        242        0          252.378    12233      15         0          0          5.2357     -260       10712      9460.32    54.28      13418      6663      
2742       1421       10.22      443        221        0          252.456    12234      14         0          0          5.2453     -260       10743      9457.41    54.408     13450      6658      
2742.2     1421       10.31      449        201        0          252.496    12235      13         0          0          5.2469     -260       10775      9454.64    54.757     13536      6660      
2742.4     1426       10.32      449        237        0          252.522    12235      14         0          0          5.2722     -233       10805      9451.86    54.875     13566      6657      
2742.6     1427       10.42      445        261        0          252.59     12237      13         0          0          5.2754     -260       10840      9449.09    55.073     13615      6654      
2742.8     1431       10.89      452        239        0          252.637    12238      13         0          0          5.296      -260       10870      9446.32    55.216     13650      6655      
2743       1439       11.06      488        211        0          252.66     12238      13         0          0          5.3326     -260       10902      9443.48    55.386     13692      6653      
2743.2     1442       10.26      476        199        0          252.718    12239      13         0          0          5.3468     -260       10941      9440.64    55.559     13735      6652      
2743.4     1443       10.26      455        186        0          252.744    12239      13         0          0          5.3532     -190       10978      9437.86    55.818     13799      6650      
2743.6     1446       9.65       440        179        0          252.806    12241      13         0          0          5.3659     -260       11010      9434.82    56.016     13848      6647      
2743.8     1450       8.7        369        200        0          252.86     12242      13         0          0          5.3827     -260       11043      9432.05    56.176     13888      6641      
2744       1453       9.15       390        336        0          252.888    12242      14         0          0          5.4008     -260       11075      9429.26    56.342     13929      6641      
2744.2     1458       9.46       404        2400       0          252.94     12244      13         0          0          5.4214     -260       11096      9426.42    56.486     13964      6636      
2744.4     1460       9.73       417        208        0          252.963    12245      13         0          0          5.4309     -280       11110      9423.58    56.572     13986      6634      
2744.6     1463       9.29       441        205        0          252.992    12245      14         0          0          5.4484     -260       11127      9420.8     56.629     14000      6634      
2744.8     1464       9.16       395        199        0          253.028    12246      14         0          0          5.45       -237       11154      9418.04    56.695     14016      6632      
2745       1463       9.38       418        215        0          253.112    12248      13         0          0          5.4468     -260       11193      9415.25    56.875     14061      6635      
2745.2     1465       8.83       395        390        0          253.15     12249      14         0          0          5.4563     -260       11223      9412.45    57.143     14127      6642      
2745.4     1469       8.18       376        3584       0          253.184    12249      14         0          0          5.4754     -260       11252      9409.64    57.241     14151      6646      
2745.6     1467       7.31       334        1405       0          253.248    12251      13         0          0          5.4659     -320       11281      9406.84    57.441     14201      6642      
2745.8     1471       6.99       297        712        0          253.293    12252      14         0          0          5.4849     -260       11310      9404.06    57.614     14244      6643      
2746       1475       7.54       299        2563       0          253.334    12254      13         0          0          5.5063     -260       11331      9401.25    57.682     14261      6642      
2746.2     1478       7.74       352        750        0          253.387    12255      14         0          0          5.5198     -260       11357      9398.47    57.772     14283      6641      
2746.4     1480       7.16       310        2863       0          253.439    12256      13         0          0          5.5277     -260       11391      9395.66    57.934     14323      6639      
2746.6     1482       8.18       320        5976       0          253.505    12258      14         0          0          5.5372     -260       11426      9392.84    58.079     14359      6638      
2746.8     1485       9.31       395        589        0          253.544    12259      15         0          0          5.5515     -260       11452      9390.06    58.272     14406      6635      
2747       1491       9.77       431        360        0          253.582    12260      14         0          0          5.5801     -260       11472      9387.25    58.377     14432      6631      
