~Version
 VERS              .         2.0                           : CWLS LOG ASCII STANDARD - VERSION 2.0
 WRAP              .         NO                            : ONE LINE PER DEPTH STEP
 DLM               .         SPACE                         : DELIMITING CHARACTER(SPACE TAB OR COMMA)
~Well Information
#_______________________________________________________________________________
#
#PARAMETER_NAME    .UNIT     VALUE                         : DESCRIPTION
#_______________________________________________________________________________
STRT               .M        12                            : First reference value
STOP               .M        2758.6                        : Last reference value
STEP               .M        0.2                           : Step increment
NULL               .         -9999                         : Missing value
COMP               .                                       : Company
WELL               .         616                           : Well name
FLD                .                                       : Field
LOC                .                                       : Location
CNTY               .                                       : County
STAT               .                                       : State
CTRY               .                                       : Country
SRVC               .                                       : Service Company
DATE               .                                       : Date
API                .                                       : API number
PROJECT_UPGRADE_TIME .         2021-03-18T21_24_50           : 
group              .         Good                          : 
~Parameter Information Block
#_______________________________________________________________________________
#
#PARAMETER_NAME    .UNIT     VALUE                         : DESCRIPTION
#_______________________________________________________________________________
SET                .         616ULN                        : 
PROJECT_UPGRADE_TIME .         2021-03-18T21_24_49           : 
TLFamily_AK4       .                                       : 
TLFamily_ALFAK     .                                       : 
TLFamily_AMPL      .                                       : 
TLFamily_DEPTH     .         Measured Depth                : 
TLFamily_DK1       .                                       : 
TLFamily_DK2       .                                       : 
TLFamily_DTK       .         Compressional Slowness        : 
TLFamily_QCBL      .                                       : 
TLFamily_T1        .         Travel Time 1                 : 
TLFamily_T2        .         Travel Time 2                 : 
group              .         prim                          : 
~Curve Information
#_______________________________________________________________________________
#
#LOGNAME           .UNIT     LOG_ID                        : DESCRIPTION
#_______________________________________________________________________________
DEPTH              .M                                      : 0 Depth curve 
AK4                .                                       : 2 Амплитуда - Волна по колонне - Канал1 
ALFAK              .дБ/м                                   : 1 Затухание - Волна по колонне 
AMPL               .                                       : 8 Коэффициент усиления ВС 
DK1                .дБ                                     : 3 Кривая ослабления - Волна по колонне - Канал1 
DK2                .дБ                                     : 4 Кривая ослабления - Волна по колонне - Канал2 
DTK                .мкс/м                                  : 5 ДельтаТ - Волна по породе 
QCBL               .                                       : 9 Контакт цемент-колонна 
T1                 .мкс                                    : 6 Время пробега - Волна по породе - Канал1 
T2                 .мкс                                    : 7 Время пробега - Волна по породе - Канал2 
~Ascii
# ...
187.2      4417.189   7          1          8.964      12.464     177.889    2          313.11     402.055   
187.4      3756.171   7.016      1          10.371     13.871     177.929    2          314.127    403.093   
187.6      3266.501   7.319      1          11.619     15.261     179.75     2          314.337    404.213   
187.8      3017.846   8.217      1          12.268     16.35      182.338    2          313.883    405.053   
188        3038.214   9.75       1          12.313     17.165     185.65     2          312.703    405.529   
188.2      3202.11    11.673     1          11.874     17.692     186.667    2          311.883    405.218   
188.4      3394.191   13.303     1          11.305     17.95      187.352    2          310.903    404.58    
188.6      3583.17    14.259     1          10.595     17.727     186.82     2          310.283    403.694   
188.8      3763.504   14.096     1          10.025     17.084     185.787    2          309.825    402.72    
189        3900.49    13.34      1          9.596      16.273     183.63     2          309.888    401.704   
189.2      4015.18    12.174     1          9.345      15.436     182.588    2          309.657    400.952   
189.4      4148.806   11.477     1          9.063      14.801     182.31     2          309.524    400.681   
189.6      4282.519   11.083     1          8.788      14.329     182.455    2          309.416    400.644   
189.8      4423.889   10.988     1          8.504      13.998     182.117    2          309.402    400.462   
190        4554.166   10.736     1          8.25       13.618     181.95     2          309.172    400.148   
190.2      4687.068   10.497     1          7.998      13.246     182.133    2          308.914    399.982   
190.4      4800.052   10.157     1          7.79       12.869     182.135    2          308.757    399.826   
190.6      4895.17    9.894      1          7.617      12.564     181.809    2          308.714    399.619   
190.8      4952.927   9.549      1          7.514      12.288     181.668    2          308.677    399.512   
191        4970.714   9.253      1          7.482      12.108     181.621    2          308.688    399.5     
191.2      4967.21    8.924      1          7.488      11.95      181.543    2          308.814    399.586   
191.4      4970.309   8.705      1          7.484      11.836     180.978    2          308.95     399.44    
191.6      4986.308   8.556      1          7.457      11.734     180.856    2          308.954    399.383   
191.8      5004.871   8.461      1          7.425      11.655     180.727    2          308.951    399.316   
192        5019.199   8.41       1          7.4        11.604     180.785    2          309.038    399.431   
192.2      5018.718   8.399      1          7.4        11.599     180.443    2          309.228    399.451   
192.4      4989.46    8.428      1          7.45       11.664     180.686    2          309.228    399.573   
192.6      4948.667   8.496      1          7.52       11.768     180.835    2          309.257    399.676   
192.8      4909.031   8.563      1          7.589      11.87      181.051    2          309.181    399.708   
193        4888.46    8.634      1          7.626      11.942     181.096    2          309.091    399.64    
193.2      4866.803   8.635      1          7.664      11.982     181.116    2          308.885    399.444   
193.4      4853.198   8.595      1          7.689      11.986     181.229    2          308.762    399.377   
193.6      4840.042   8.534      1          7.712      11.979     180.98     2          308.716    399.207   
193.8      4834.467   8.591      1          7.722      12.017     180.877    2          308.689    399.129   
194        4828.663   8.679      1          7.732      12.072     180.387    2          308.781    398.976   
194.2      4825.085   8.698      1          7.738      12.088     180.237    2          308.905    399.025   
194.4      4806.217   8.599      1          7.773      12.073     179.884    2          309.124    399.067   
194.6      4777.083   8.507      1          7.826      12.079     180.116    2          309.173    399.232   
194.8      4754.021   8.546      1          7.868      12.141     180.364    2          309.226    399.409   
195        4761.472   8.749      1          7.855      12.23      180.84     2          309.187    399.608   
195.2      4792.239   9.12       1          7.8        12.36      181.266    2          309.105    399.739   
195.4      4841.688   9.523      1          7.712      12.473     181.724    2          308.923    399.786   
195.6      4871.194   9.777      1          7.658      12.547     182.076    2          308.788    399.827   
195.8      4874.971   9.814      1          7.652      12.559     181.782    2          308.865    399.758   
196        4829.085   9.692      1          7.735      12.581     181.281    2          309.021    399.663   
196.2      4764.868   9.594      1          7.852      12.649     180.897    2          309.098    399.547   
196.4      4708.472   9.622      1          7.954      12.765     180.909    2          309.056    399.512   
196.6      4673.024   9.772      1          8.019      12.905     180.9      2          308.952    399.403   
196.8      4637.237   9.872      1          8.086      13.022     181.574    2          308.738    399.526   
197        4557.229   9.798      1          8.248      13.147     182.262    2          308.535    399.668   
197.2      4425.85    9.638      1          8.518      13.337     182.746    2          308.438    399.813   
197.4      4146.242   9.034      1          9.177      13.694     182.732    2          308.352    399.719   
197.6      3756.373   8.278      1          10.337     14.106     182.749    2          308.761    400.136   
197.8      3266.796   7.502      1          11.838     14.85      182.275    2          309.524    400.662   
198        2814.463   7.246      1          13.333     15.847     181.62     2          310.682    401.493   
198.2      2397.822   7.321      1          14.627     17.179     180.985    2          311.693    402.187   
198.4      2124.372   8.465      1          15.321     18.445     180.352    2          312.955    403.133   
198.6      1993.477   10.152     1          15.154     19.718     180.555    2          313.406    403.685   
198.8      2123.807   12.774     1          14.165     20.636     181.628    2          313.154    403.969   
199        2438.744   15.478     1          12.81      20.853     184.219    2          311.982    404.093   
199.2      2906.128   17.822     1          11.359     20.166     186.149    2          310.966    404.041   
199.4      3359.693   19.425     1          10.106     18.89      187.346    2          309.913    403.587   
199.6      3777.931   19.55      1          9.268      17.44      186.905    2          309.15     402.604   
199.8      4030.834   18.252     1          8.97       15.948     185.88     2          308.715    401.656   
200        4135.901   15.937     1          8.894      14.865     183.801    2          308.594    400.495   
200.2      4140.446   13.749     1          8.933      14.218     182.304    2          308.473    399.626   
200.4      4198.468   11.751     1          8.912      14.022     181.333    2          308.264    398.932   
200.6      4299.362   10.764     1          8.761      13.825     181.097    2          308.167    398.716   
200.8      4456.539   10.305     1          8.452      13.604     180.774    2          308.094    398.482   
201        4626.637   10.372     1          8.12       13.306     180.543    2          308.141    398.414   
201.2      4782.265   10.321     1          7.826      12.986     180.491    2          308.137    398.383   
201.4      4898.024   10.057     1          7.614      12.642     181.145    2          308.002    398.576   
201.6      4984.658   9.764      1          7.459      12.34      181.872    2          307.844    398.781   
