~Version
 VERS              .         2.0                           : CWLS LOG ASCII STANDARD - VERSION 2.0
 WRAP              .         NO                            : ONE LINE PER DEPTH STEP
 DLM               .         SPACE                         : DELIMITING CHARACTER(SPACE TAB OR COMMA)
~Well Information
#_______________________________________________________________________________
#
#PARAMETER_NAME    .UNIT     VALUE                         : DESCRIPTION
#_______________________________________________________________________________
STRT               .M        2647.6                        : First reference value
STOP               .M        2755.199839                   : Last reference value
STEP               .M        0.1999997                     : Step increment
NULL               .         -9999                         : Missing value
COMP               .                                       : Company
WELL               .         616                           : Well name
FLD                .                                       : Field
LOC                .                                       : Location
CNTY               .                                       : County
STAT               .                                       : State
CTRY               .                                       : Country
SRVC               .                                       : Service Company
DATE               .                                       : Date
API                .                                       : API number
PROJECT_UPGRADE_TIME .         2021-03-18T21_24_50           : 
group              .         Good                          : 
~Parameter Information Block
#_______________________________________________________________________________
#
#PARAMETER_NAME    .UNIT     VALUE                         : DESCRIPTION
#_______________________________________________________________________________
SET                .         D7024_D                       : 
OTHER              .         Kedr.exe версия 2.1.2.32      : 
OTHER_10           .         TM.GRD = 0.00404*TM$.UE + 0.07: 
OTHER_11           .         MN.ATM = (6.33279e-006*TM.GRD + 0.02401)*(MN$.UE + 2.72*TM.GRD + -2018): 
OTHER_12           .         GK.MKR/H = GK$.UE / 43.5489 + 0: 
OTHER_13           .         RES.SM = 0.00476*CRES.UE - 1.51709: 
OTHER_14           .         PL.GSM3 = 0 + 0 * (PL.UE / 1) +  0 * (PL.UE / 1)^2: 
OTHER_15           .         Постоянная времени ГГП = 6 сек: 
OTHER_16           .         Постоянная времени ГК = 6 сек : 
OTHER_2            .         KedrData.dll версия 3.2.2.14  : 
OTHER_3            .         LasInf.dll версия 3.2.0.13    : 
OTHER_4            .         Драйвер версия 1.2.0.5        : 
OTHER_5            .         Прибор_ КСА-M1                : 
OTHER_6            .         Номер прибора_ 155+р204       : 
OTHER_7            .         Режим_ КСА-М1 + ГГП + Резистивиметр: 
OTHER_8            .         Форма_ 223\2                  : 
OTHER_9            .         Тарировки_                    : 
PROJECT_UPGRADE_TIME .         2021-03-18T21_24_50           : 
TLFamily_CRES      .                                       : 
TLFamily_DEPT      .         Measured Depth                : 
TLFamily_GK        .         Gamma Ray                     : 
TLFamily_GK$       .                                       : 
TLFamily_LM        .         Casing Collar locator         : 
TLFamily_METKA     .                                       : 
TLFamily_MN        .                                       : 
TLFamily_MN$       .                                       : 
TLFamily_PL        .                                       : 
TLFamily_PL_2      .                                       : 
TLFamily_RCOR      .                                       : 
TLFamily_RES       .         Mud Resistivity               : 
TLFamily_SPID      .         Spontaneous Potential         : 
TLFamily_STD       .                                       : 
TLFamily_TIME      .         Time                          : 
TLFamily_TM        .         Temperature                   : 
TLFamily_TM$       .         Temperature                   : 
TLFamily_VGD       .         Gas Volume                    : 
group              .         prim                          : 
~Curve Information
#_______________________________________________________________________________
#
#LOGNAME           .UNIT     LOG_ID                        : DESCRIPTION
#_______________________________________________________________________________
DEPT               .M                                      : 1 Глубина, м -    0.0 см 
CRES               .UE                                     : 9 Проводимость, усл.ед. -  222.0 см 
GK                 .MKR/H                                  : 16 Гамма-активность, мкр./ч -  106.0 см 
GK$                .UE                                     : 13 Гамма-активность, усл.ед. -  106.0 см 
LM                 .                                       : 11 Локатор муфт,  -   16.0 см 
METKA              .                                       : 3 Метки,  -    0.0 см 
MN                 .ATM                                    : 15 Давление, атм. -  160.0 см 
MN$                .UE                                     : 7 Давление, усл.ед. -  160.0 см 
PL                 .UE                                     : 10 Плотность, усл.ед. -  270.0 см 
PL_2               .GSM3                                   : 18 Плотность, г./см3 -  270.0 см 
RCOR               .CM/KM                                  : 5 Коррекция по ролику, см/км -    0.0 см 
RES                .SM                                     : 17 Проводимость,  -  222.0 см 
SPID               .M/H                                    : 2 Скорость, м/час -    0.0 см 
STD                .                                       : 12 Приток,  -  170.0 см 
TIME               .S                                      : 4 Время, сек -    0.0 см 
TM                 .GRD                                    : 14 Температура, °C -  180.0 см 
TM$                .UE                                     : 6 Температура, усл.ед. -  180.0 см 
VGD                .                                       : 8 Влагомер,  -  170.0 см 
~Ascii
# ...
2655.799988 1257       10.02      420        122        0          366.981    16922      15         0          0          4.4646     552        11142      15884.77   56.899     14067      6687      
2655.999987 1255       9.6        400        144        0          368.377    16979      14         0          0          4.4567     510        11142      15886.13   56.897     14066      6680      
2656.199987 1256       9.16       346        119        0          367.599    16947      14         0          0          4.4615     557        11140      15887.45   56.889     14064      6682      
2656.399987 1255       8.43       335        122        0          367.9      16960      15         0          0          4.4574     580        11138      15888.72   56.885     14063      6690      
2656.599986 1255       8.05       331        145        0          368.941    17002      13         0          0          4.4567     580        11138      15890.05   56.879     14062      6694      
2656.799986 1253       7.73       322        114        0          368.619    16989      15         0          0          4.4495     568        11138      15891.38   56.876     14061      6687      
2656.999986 1253       7.61       333        111        0          368.513    16985      14         0          0          4.4472     580        11136      15892.67   56.872     14060      6691      
2657.199986 1253       7.63       333        108        0          368.307    16976      14         0          0          4.4472     580        11137      15893.97   56.868     14059      6689      
2657.399985 1254       7.54       318        141        0          367.585    16947      14         0          0          4.452      580        11137      15895.24   56.864     14058      6689      
2657.599985 1253       7.42       318        148        0          366.86     16917      14         0          0          4.4472     580        11136      15896.56   56.862     14057      6689      
2657.799985 1254       7.77       367        146        0          366.214    16891      14         0          0          4.452      580        11135      15897.86   56.856     14056      6692      
2657.999984 1253       8.1        367        110        0          365.843    16875      14         0          0          4.4491     510        11135      15899.16   56.852     14055      6682      
2658.199984 1254       8.32       377        95         0          365.799    16874      14         0          0          4.4535     510        11134      15900.49   56.848     14054      6695      
2658.399984 1254       8.48       377        108        0          365.687    16869      14         0          0          4.4519     580        11135      15901.76   56.844     14053      6685      
2658.599983 1256       8.6        380        136        0          367.086    16926      14         0          0          4.4598     580        11133      15903.08   56.839     14052      6679      
2658.799983 1256       8.66       380        103        0          367.688    16951      14         0          0          4.4591     580        11133      15904.35   56.832     14050      6691      
2658.999983 1255       8.88       399        122        0          368.712    16993      14         0          0          4.4575     520        11133      15905.62   56.828     14049      6686      
2659.199983 1255       9.02       399        5190       0          368.016    16965      14         0          0          4.4567     520        11132      15906.94   56.825     14048      6684      
2659.399982 1255       8.71       365        3191       0          368.425    16982      14         0          0          4.4583     580        11130      15908.22   56.823     14048      6689      
2659.599982 1255       8.55       365        786        0          369.377    17021      14         0          0          4.4566     580        11130      15909.49   56.818     14047      6675      
2659.799982 1251       8.41       359        170        0          369.404    17022      14         0          0          4.44       510        11129      15910.82   56.812     14045      6689      
2659.999981 1254       8.33       359        126        0          368.724    16994      14         0          0          4.4513     580        11129      15912.14   56.808     14044      6695      
2660.199981 1254       8.61       388        113        1          368.158    16971      14         0          0          4.4504     580        11129      15914.07   56.8       14042      6689      
2660.399981 1254       8.72       381        118        0          367.886    16960      14         0          0          4.4535     522        11130      15915.34   56.794     14040      6693      
2660.599981 1252       8.57       366        126        0          367.634    16949      14         0          0          4.4424     550        11130      15916.65   56.789     14039      6685      
2660.79998 1255       8.55       381        90         0          366.868    16918      14         0          0          4.4575     580        11128      15917.93   56.788     14039      6694      
2660.99998 1253       8.68       384        100        0          366.444    16901      14         0          0          4.4456     580        11124      15919.26   56.779     14037      6691      
2661.19998 1254       8.97       410        125        0          366.695    16911      14         0          0          4.4526     530        11124      15920.58   56.771     14035      6685      
2661.399979 1254       9.19       410        112        0          365.842    16876      14         0          0          4.4535     510        11124      15921.93   56.767     14034      6696      
2661.599979 1257       9.14       393        109        0          366.588    16907      14         0          0          4.4662     580        11123      15923.25   56.763     14033      6696      
2661.799979 1255       9.08       393        88         0          368.811    16998      14         0          0          4.4544     618        11122      15924.52   56.755     14031      6695      
2661.999978 1253       9.3        416        118        0          368.646    16991      14         0          0          4.4472     533        11122      15925.78   56.747     14029      6695      
2662.199978 1253       9.43       416        94         0          367.758    16955      14         0          0          4.4491     580        11122      15927.12   56.742     14028      6694      
2662.399978 1251       9.06       372        101        0          367.536    16946      14         0          0          4.4393     522        11120      15928.39   56.739     14027      6696      
2662.599978 1251       8.81       372        98         0          366.693    16911      14         0          0          4.4377     568        11120      15929.72   56.732     14025      6690      
2662.799977 1252       7.91       303        113        0          367.644    16950      14         0          0          4.4404     580        11121      15930.97   56.727     14024      6691      
2662.999977 1254       7.39       291        95         0          367.277    16935      14         0          0          4.4504     550        11120      15932.27   56.722     14023      6693      
2663.199977 1252       6.86       275        93         0          367.107    16928      14         0          0          4.444      580        11120      15933.58   56.719     14022      6697      
2663.399976 1256       6.58       272        105        0          366.977    16923      14         0          0          4.4615     510        11120      15934.84   56.715     14021      6697      
2663.599976 1253       6.4        271        151        0          369.412    17023      14         0          0          4.4487     580        11121      15936.14   56.708     14019      6695      
2663.799976 1250       6.33       275        116        0          368.887    17001      14         0          0          4.431      580        11120      15937.36   56.705     14019      6689      
