~Version
 VERS              .         2.0                           : CWLS LOG ASCII STANDARD - VERSION 2.0
 WRAP              .         NO                            : ONE LINE PER DEPTH STEP
 DLM               .         SPACE                         : DELIMITING CHARACTER(SPACE TAB OR COMMA)
~Well Information
#_______________________________________________________________________________
#
#PARAMETER_NAME    .UNIT     VALUE                         : DESCRIPTION
#_______________________________________________________________________________
STRT               .M        11                            : First reference value
STOP               .M        2775.8                        : Last reference value
STEP               .M        0.2                           : Step increment
NULL               .         -9999                         : Missing value
COMP               .                                       : Company
WELL               .         616                           : Well name
FLD                .                                       : Field
LOC                .                                       : Location
CNTY               .                                       : County
STAT               .                                       : State
CTRY               .                                       : Country
SRVC               .                                       : Service Company
DATE               .                                       : Date
API                .                                       : API number
PROJECT_UPGRADE_TIME .         2021-03-18T21_24_50           : 
group              .         Good                          : 
~Parameter Information Block
#_______________________________________________________________________________
#
#PARAMETER_NAME    .UNIT     VALUE                         : DESCRIPTION
#_______________________________________________________________________________
SET                .         D1813_D                       : 
OTHER              .         Программное обеспечение станции MONITOR-386EX 25/12/99 15_08_10   BGF V52 22/08/01 16_56_30   3.1_SNGF___BGF_N_092049: 
OTHER_10           .         Тарировки_                    : 
OTHER_11           .         TM.GRD = 0.00403*TM$.UE + -1.07: 
OTHER_12           .         MN.ATM = (9.34907e-006*TM.GRD + 0.02171)*(MN$.UE + -7.93*TM.GRD + -1787): 
OTHER_13           .         GK.MKR/H = LM. / 42.4676      : 
OTHER_14           .         GK.FLT = 0.1*GK.MKR/H[-1] + (1-0.1)*GK.MKR/H[0]: 
OTHER_2            .         Kedr.exe версия 3.4.2.51      : 
OTHER_3            .         KedrData.dll версия 3.4.2.24  : 
OTHER_4            .         Драйвер версия 2.1.1.3        : 
OTHER_5            .         Мнемоники версия 3.3 S        : 
OTHER_6            .         Прибор_ КСА-Т4                : 
OTHER_7            .         Номер прибора_ 03             : 
OTHER_8            .         Режим_ КСА-Т4                 : 
OTHER_9            .         Форма_ КВА.                   : 
PROJECT_UPGRADE_TIME .         2021-03-18T21_24_49           : 
TLFamily_DEPT      .         Measured Depth                : 
TLFamily_GK        .         Gamma Ray                     : 
TLFamily_GK$       .                                       : 
TLFamily_GK_2      .         Gamma Ray                     : 
TLFamily_LM        .         Casing Collar locator         : 
TLFamily_METKA     .                                       : 
TLFamily_MN        .                                       : 
TLFamily_MN$       .                                       : 
TLFamily_RCOR      .                                       : 
TLFamily_SPID      .         Spontaneous Potential         : 
TLFamily_TENS      .         Cable Tension                 : 
TLFamily_TIME      .         Time                          : 
TLFamily_TM        .         Temperature                   : 
TLFamily_TM$       .         Temperature                   : 
group              .         prim                          : 
~Curve Information
#_______________________________________________________________________________
#
#LOGNAME           .UNIT     LOG_ID                        : DESCRIPTION
#_______________________________________________________________________________
DEPT               .M                                      : 1 Глубина, м -    0.0 см 
GK                 .MKR/H                                  : 13 Гамма-активность, мкр./ч -  110.0 см 
GK$                .UE                                     : 10 Гамма-активность, усл.ед. -  110.0 см 
GK_2               .FLT                                    : 14 Гамма-активность фильтрованная, мкр./ч -  110.0 см 
LM                 .                                       : 9 Локатор муфт,  -   20.0 см 
METKA              .                                       : 3 Метки,  -    0.0 см 
MN                 .ATM                                    : 12 Давление, атм. -  160.0 см 
MN$                .UE                                     : 8 Давление, усл.ед. -  160.0 см 
RCOR               .CM/KM                                  : 5 Коррекция по ролику, см/км -    0.0 см 
SPID               .M/H                                    : 2 Скорость, м/час -    0.0 см 
TENS               .T                                      : 6 Натяжение кабеля, т -    0.0 см 
TIME               .S                                      : 4 Время, сек -    0.0 см 
TM                 .GRD                                    : 11 Температура, °C -  170.0 см 
TM$                .UE                                     : 7 Температура, усл.ед. -  170.0 см 
~Ascii
# ...
1300.6     8.91       378        9.01       2822       0          116.789    7401       -1264      -2409      -0.01      10086.21   41.475     10557     
1300.8     9.18       390        9.18       3538       0          116.791    7401       -1264      -2401      0          10085.92   41.481     10558     
1301       9.18       390        9.18       1835       0          116.809    7402       -1264      -2395      0          10085.61   41.485     10560     
1301.2     9.18       390        9.18       1835       0          116.826    7403       -1264      -2394      -0.01      10085.31   41.488     10560     
1301.4     9.18       390        9.17       1149       0          116.855    7404       -1264      -2396      -0.01      10085.02   41.491     10561     
1301.6     9.18       390        9.16       1172       0          116.875    7405       -1264      -2398      -0.01      10084.73   41.495     10562     
1301.8     9.18       390        9.13       1380       0          116.885    7406       -1264      -2396      -0.01      10084.42   41.498     10563     
1302       9.17       389        9.06       1508       0          116.918    7407       -1264      -2397      -0.01      10084.12   41.502     10564     
1302.2     8.92       379        8.9        1508       0          116.918    7407       -1264      -2399      -0.01      10083.83   41.505     10564     
1302.4     8.88       377        8.88       1609       0          116.944    7408       -1264      -2401      -0.01      10083.55   41.509     10565     
1302.6     8.88       377        8.88       1725       0          116.971    7409       -1264      -2398      -0.01      10083.23   41.515     10567     
1302.8     8.88       377        8.88       1976       0          116.988    7410       -1264      -2400      -0.01      10082.93   41.519     10568     
1303       8.88       377        8.88       1448       0          117.004    7411       -1264      -2403      -0.01      10082.65   41.522     10569     
1303.2     8.88       377        8.89       1448       0          117.003    7411       -1264      -2404      -0.01      10082.36   41.525     10569     
1303.4     8.88       377        8.9        1686       0          117.032    7412       -1264      -2402      -0.01      10082.05   41.528     10570     
1303.6     8.88       377        8.92       1236       0          117.047    7413       -1264      -2405      -0.01      10081.73   41.531     10571     
1303.8     8.93       379        8.98       1247       0          117.052    7413       -1264      -2408      -0.01      10081.46   41.535     10572     
1304       9.07       385        9.07       1526       0          117.069    7414       -1264      -2408      -0.01      10081.17   41.538     10573     
1304.2     9.07       385        9.07       1526       0          117.087    7415       -1264      -2406      -0.01      10080.86   41.541     10573     
1304.4     9.07       385        9.07       1655       0          117.104    7416       -1264      -2404      -0.01      10080.55   41.544     10574     
1304.6     9.07       385        9.07       1711       0          117.121    7416       -1264      -2402      -0.01      10080.26   41.548     10575     
1304.8     9.07       385        9.07       1279       0          117.138    7417       -1264      -2399      -0.01      10079.97   41.551     10576     
1305       9.07       385        9.08       1425       0          117.156    7418       -1264      -2400      -0.01      10079.67   41.557     10577     
1305.2     9.07       385        9.1        1425       0          117.174    7419       -1264      -2402      -0.01      10079.36   41.561     10579     
1305.4     9.07       385        9.14       1425       0          117.19     7420       -1264      -2404      -0.01      10079.07   41.565     10579     
1305.6     9.2        391        9.24       1553       0          117.197    7420       -1264      -2402      -0.01      10078.79   41.568     10580     
1305.8     9.32       396        9.32       1395       0          117.203    7420       -1264      -2404      -0.01      10078.48   41.571     10581     
1306       9.32       396        9.32       1289       0          117.221    7421       -1264      -2407      -0.01      10078.17   41.574     10582     
1306.2     9.32       396        9.32       1289       0          117.237    7422       -1264      -2406      -0.01      10077.88   41.579     10583     
1306.4     9.32       396        9.32       1416       0          117.254    7423       -1264      -2399      -0.01      10077.61   41.585     10584     
1306.6     9.32       396        9.32       1246       0          117.283    7424       -1264      -2402      -0.01      10077.3    41.588     10585     
1306.8     9.32       396        9.31       1261       0          117.304    7425       -1264      -2405      -0.01      10076.98   41.591     10586     
1307       9.32       396        9.29       1225       0          117.307    7425       -1264      -2404      -0.01      10076.69   41.594     10587     
1307.2     9.32       396        9.26       1225       0          117.323    7426       -1264      -2404      -0.01      10076.4    41.598     10588     
1307.4     9.19       390        9.17       1426       0          117.341    7427       -1264      -2407      -0.01      10076.11   41.601     10588     
1307.6     9.14       388        9.14       1557       0          117.359    7428       -1264      -2411      -0.01      10075.8    41.604     10589     
1307.8     9.14       388        9.14       1519       0          117.376    7428       -1264      -2409      -0.01      10075.5    41.604     10589     
1308       9.14       388        9.14       1353       0          117.392    7429       -1264      -2411      -0.01      10075.21   41.609     10590     
1308.2     9.14       388        9.14       1353       0          117.41     7430       -1264      -2415      -0.01      10074.92   41.614     10592     
1308.4     9.14       388        9.15       1210       0          117.428    7431       -1264      -2418      -0.01      10074.61   41.617     10592     
1308.6     9.14       388        9.18       1374       1          117.445    7432       -1264      -2417      -0.01      10074.3    41.62      10593     
1308.8     9.2        391        9.24       1683       0          117.462    7432       -1264      -2421      -0.01      10074.03   41.624     10594     
1309       9.3        395        9.3        1918       0          117.48     7433       -1264      -2425      -0.01      10073.73   41.627     10595     
1309.2     9.3        395        9.3        1918       0          117.498    7434       -1264      -2425      -0.01      10073.42   41.63      10596     
1309.4     9.3        395        9.3        2293       0          117.515    7435       -1264      -2418      -0.01      10073.11   41.635     10597     
1309.6     9.3        395        9.3        3130       0          117.482    7433       -1264      -2411      -0.01      10072.84   41.641     10598     
1309.8     9.3        395        9.31       4675       2          117.482    7433       -1264      -2409      -0.01      10072.54   41.644     10599     
1310       9.3        395        9.31       4817       0          117.548    7436       -1263      -2407      -0.01      10072.2    41.647     10600     
1310.2     9.3        395        9.32       4256       0          117.584    7438       -1262      -2405      -0.01      10071.9    41.65      10601     
1310.4     9.3        395        9.35       4256       0          117.584    7438       -1262      -2405      -0.01      10071.61   41.654     10601     
1310.6     9.38       399        9.41       5966       0          117.596    7439       -1262      -2407      -0.01      10071.31   41.657     10602     
1310.8     9.44       401        9.44       864        0          117.614    7439       -1262      -2405      -0.01      10071      41.66      10603     
