~Version
 VERS              .         2.0                           : CWLS LOG ASCII STANDARD - VERSION 2.0
 WRAP              .         NO                            : ONE LINE PER DEPTH STEP
 DLM               .         SPACE                         : DELIMITING CHARACTER(SPACE TAB OR COMMA)
~Well Information
#_______________________________________________________________________________
#
#PARAMETER_NAME    .UNIT     VALUE                         : DESCRIPTION
#_______________________________________________________________________________
STRT               .M        7.8                           : First reference value
STOP               .M        2645.7                        : Last reference value
STEP               .M        0.1                           : Step increment
NULL               .         -9999                         : Missing value
COMP               .                                       : Company
WELL               .         609                           : Well name
FLD                .                                       : Field
LOC                .                                       : Location
CNTY               .                                       : County
STAT               .                                       : State
CTRY               .                                       : Country
SRVC               .                                       : Service Company
DATE               .                                       : Date
API                .                                       : API number
PROJECT_UPGRADE_TIME .         2021-03-18T21_24_49           : 
group              .         Good                          : 
~Parameter Information Block
#_______________________________________________________________________________
#
#PARAMETER_NAME    .UNIT     VALUE                         : DESCRIPTION
#_______________________________________________________________________________
SET                .         LQC                           : 
TLFamily_GK_D1910_D .         Gamma Ray                     : 
TLFamily_GK_D1911_D .         Gamma Ray                     : 
TLFamily_GK_D1911_D_2 .         Gamma Ray                     : 
TLFamily_GK_D2258_D .         Gamma Ray                     : 
TLFamily_GK_D2265_D .         Gamma Ray                     : 
TLFamily_GK_D2395_D .         Gamma Ray                     : 
TLFamily_MD        .         Measured Depth                : 
~Curve Information
#_______________________________________________________________________________
#
#LOGNAME           .UNIT     LOG_ID                        : DESCRIPTION
#_______________________________________________________________________________
MD                 .M                                      :  
GK_D1910_D         .MKR/H                                  : 10 Гамма-активность, мкр./ч -   53.0 см 
GK_D1911_D         .MKR/H                                  : 10 Гамма-активность, мкр./ч -   53.0 см 
GK_D1911_D_2       .MKR/H                                  : 10 Гамма-активность, мкр./ч -   53.0 см 
GK_D2258_D         .MKR/H                                  : 13 Гамма-активность, мкр./ч -  110.0 см 
GK_D2265_D         .MKR/H                                  : 13 Гамма-активность, мкр./ч -  110.0 см 
GK_D2395_D         .MKR/H                                  : 16 Гамма-активность, мкр./ч -  110.0 см 
~Ascii
# ...
2441.4     -9999      6.29939    6.3        -9999      5.11       -9999     
2441.5     -9999      6.24939    6.29878    -9999      5.11       -9999     
2441.6     -9999      6.201465   6.202934   -9999      5.110586   -9999     
2441.7     -9999      6.351648   6.5        -9999      5.17066    -9999     
2441.8     -9999      6.5        6.501223   -9999      5.230122   -9999     
2441.9     -9999      6.5        6.598781   -9999      5.24011    -9999     
2442       -9999      6.495727   6.495122   -9999      5.25       -9999     
2442.1     -9999      6.146154   6.097066   -9999      5.25       -9999     
2442.2     -9999      5.8        5.79878    -9999      5.25       -9999     
2442.3     -9999      5.8        5.701222   -9999      5.25       -9999     
2442.4     -9999      5.803659   5.806098   -9999      5.25       -9999     
2442.5     -9999      6.103659   6.30122    -9999      5.25       -9999     
2442.6     -9999      6.4        6.4        -9999      5.25       -9999     
2442.7     -9999      6.4        6.4        -9999      5.25       -9999     
2442.8     -9999      6.394506   6.398777   -9999      5.249451   -9999     
2442.9     -9999      5.945055   6.290244   -9999      5.204505   -9999     
2443       -9999      5.495727   5.490244   -9999      5.158535   -9999     
2443.1     -9999      5.146154   4.700978   -9999      5.038682   -9999     
2443.2     -9999      4.8        4.79878    -9999      4.92       -9999     
2443.3     -9999      4.8        4.701222   -9999      4.92       -9999     
2443.4     -9999      4.79878    4.8        -9999      4.92       -9999     
2443.5     -9999      4.698781   4.797561   -9999      4.92       -9999     
2443.6     -9999      4.600488   4.6        -9999      4.92       -9999     
2443.7     -9999      4.650549   4.601219   -9999      4.92       -9999     
2443.8     -9999      4.701831   4.7        -9999      4.92       -9999     
2443.9     -9999      4.851648   4.703659   -9999      4.92       -9999     
2444       -9999      5.004884   5.003659   -9999      4.92       -9999     
2444.1     -9999      5.404396   5.30489    -9999      4.92       -9999     
2444.2     -9999      5.800611   5.803658   -9999      4.92       -9999     
2444.3     -9999      5.850672   6.097555   -9999      4.92       -9999     
2444.4     -9999      5.9        5.901219   -9999      4.918415   -9999     
2444.5     -9999      5.9        5.99878    -9999      4.788414   -9999     
2444.6     -9999      5.899023   5.900978   -9999      4.659072   -9999     
2444.7     -9999      5.798901   5.996341   -9999      4.563956   -9999     
2444.8     -9999      5.703663   5.7        -9999      4.47       -9999     
2444.9     -9999      6.003297   5.707317   -9999      4.47       -9999     
2445       -9999      6.3        6.302439   -9999      4.47       -9999     
2445.1     -9999      6.3        6.498044   -9999      4.47       -9999     
2445.2     -9999      6.301221   6.3        -9999      4.47       -9999     
2445.3     -9999      6.401343   6.302445   -9999      4.47       -9999     
2445.4     -9999      6.497561   6.49878    -9999      4.47       -9999     
2445.5     -9999      6.297561   6.396341   -9999      4.47       -9999     
2445.6     -9999      6.101954   6.101956   -9999      4.469951   -9999     
2445.7     -9999      6.302198   6.302439   -9999      4.464945   -9999     
2445.8     -9999      6.501832   6.503667   -9999      4.458901   -9999     
2445.9     -9999      6.651649   6.8        -9999      4.369011   -9999     
2446       -9999      6.8        6.797561   -9999      4.28       -9999     
2446.1     -9999      6.8        6.601956   -9999      4.28       -9999     
2446.2     -9999      6.801832   6.79878    -9999      4.28       -9999     
2446.3     -9999      6.952015   6.70489    -9999      4.28       -9999     
2446.4     -9999      7.098171   7.097561   -9999      4.28       -9999     
2446.5     -9999      6.948171   6.898781   -9999      4.28       -9999     
2446.6     -9999      6.800977   6.798044   -9999      4.28       -9999     
2446.7     -9999      6.901099   6.604878   -9999      4.28       -9999     
2446.8     -9999      6.99939    7          -9999      4.28       -9999     
2446.9     -9999      6.94945    6.99878    -9999      4.28       -9999     
2447       -9999      6.898169   6.897561   -9999      4.28       -9999     
2447.1     -9999      6.748352   6.699022   -9999      4.28       -9999     
2447.2     -9999      6.595726   6.597561   -9999      4.281099   -9999     
2447.3     -9999      6.245299   6.393888   -9999      4.371209   -9999     
2447.4     -9999      5.9        5.898781   -9999      4.461951   -9999     
2447.5     -9999      5.9        5.80122    -9999      4.621952   -9999     
2447.6     -9999      5.904396   5.905868   -9999      4.78       -9999     
2447.7     -9999      6.354945   6.503659   -9999      4.78       -9999     
2447.8     -9999      6.804274   6.806113   -9999      4.78       -9999     
2447.9     -9999      7.153846   7.302439   -9999      4.78       -9999     
2448       -9999      7.5        7.50122    -9999      4.78       -9999     
2448.1     -9999      7.5        7.599022   -9999      4.78       -9999     
2448.2     -9999      7.49939    7.497561   -9999      4.78       -9999     
2448.3     -9999      7.449328   7.301223   -9999      4.78       -9999     
2448.4     -9999      7.39878    7.398781   -9999      4.78       -9999     
2448.5     -9999      7.29878    7.29878    -9999      4.78       -9999     
2448.6     -9999      7.199023   7.199022   -9999      4.780586   -9999     
2448.7     -9999      7.098901   7.098781   -9999      4.84066    -9999     
2448.8     -9999      6.99939    6.997555   -9999      4.900305   -9999     
2448.9     -9999      6.94945    6.80122    -9999      4.925275   -9999     
2449       -9999      6.89939    6.897561   -9999      4.95       -9999     
2449.1     -9999      6.849451   6.700978   -9999      4.95       -9999     
2449.2     -9999      6.800611   6.797561   -9999      4.95       -9999     
2449.3     -9999      6.850672   6.603667   -9999      4.95       -9999     
2449.4     -9999      6.901219   6.902439   -9999      4.95       -9999     
2449.5     -9999      7.00122    7.1        -9999      4.95       -9999     
2449.6     -9999      7.097558   7.099022   -9999      4.95       -9999     
2449.7     -9999      6.847253   6.995122   -9999      4.95       -9999     
2449.8     -9999      6.601221   6.602445   -9999      4.95       -9999     
2449.9     -9999      6.701099   6.8        -9999      4.95       -9999     
2450       -9999      6.802442   6.8        -9999      4.949878   -9999     
2450.1     -9999      7.002198   6.803912   -9999      4.93989    -9999     
2450.2     -9999      7.201831   7.20122    -9999      4.929512   -9999     
2450.3     -9999      7.352015   7.302445   -9999      4.889462   -9999     
2450.4     -9999      7.497561   7.496341   -9999      4.85       -9999     
2450.5     -9999      7.297561   7.19878    -9999      4.85       -9999     
2450.6     -9999      7.101465   7.102934   -9999      4.85       -9999     
2450.7     -9999      7.251648   7.4        -9999      4.85       -9999     
2450.8     -9999      7.40061    7.402445   -9999      4.85       -9999     
2450.9     -9999      7.45055    7.598781   -9999      4.85       -9999     
2451       -9999      7.496947   7.495122   -9999      4.85       -9999     
2451.1     -9999      7.247253   7.099022   -9999      4.85       -9999     
2451.2     -9999      7.001221   6.997561   -9999      4.85       -9999     
2451.3     -9999      7.101343   6.80489    -9999      4.85       -9999     
2451.4     -9999      7.19939    7.19878    -9999      4.854268   -9999     
2451.5     -9999      7.14939    7.1        -9999      5.204268   -9999     
2451.6     -9999      7.099023   7.099022   -9999      5.551075   -9999     
2451.7     -9999      6.998901   6.99878    -9999      5.661209   -9999     
