~Version
 VERS              .         2.0                           : CWLS LOG ASCII STANDARD - VERSION 2.0
 WRAP              .         NO                            : ONE LINE PER DEPTH STEP
 DLM               .         SPACE                         : DELIMITING CHARACTER(SPACE TAB OR COMMA)
~Well Information
#_______________________________________________________________________________
#
#PARAMETER_NAME    .UNIT     VALUE                         : DESCRIPTION
#_______________________________________________________________________________
STRT               .M        7.8                           : First reference value
STOP               .M        2645.7                        : Last reference value
STEP               .M        0.1                           : Step increment
NULL               .         -9999                         : Missing value
COMP               .                                       : Company
WELL               .         609                           : Well name
FLD                .                                       : Field
LOC                .                                       : Location
CNTY               .                                       : County
STAT               .                                       : State
CTRY               .                                       : Country
SRVC               .                                       : Service Company
DATE               .                                       : Date
API                .                                       : API number
PROJECT_UPGRADE_TIME .         2021-03-18T21_24_49           : 
group              .         Good                          : 
~Parameter Information Block
#_______________________________________________________________________________
#
#PARAMETER_NAME    .UNIT     VALUE                         : DESCRIPTION
#_______________________________________________________________________________
SET                .         LQC                           : 
TLFamily_GK_D1910_D .         Gamma Ray                     : 
TLFamily_GK_D1911_D .         Gamma Ray                     : 
TLFamily_GK_D1911_D_2 .         Gamma Ray                     : 
TLFamily_GK_D2258_D .         Gamma Ray                     : 
TLFamily_GK_D2265_D .         Gamma Ray                     : 
TLFamily_GK_D2395_D .         Gamma Ray                     : 
TLFamily_MD        .         Measured Depth                : 
~Curve Information
#_______________________________________________________________________________
#
#LOGNAME           .UNIT     LOG_ID                        : DESCRIPTION
#_______________________________________________________________________________
MD                 .M                                      :  
GK_D1910_D         .MKR/H                                  : 10 Гамма-активность, мкр./ч -   53.0 см 
GK_D1911_D         .MKR/H                                  : 10 Гамма-активность, мкр./ч -   53.0 см 
GK_D1911_D_2       .MKR/H                                  : 10 Гамма-активность, мкр./ч -   53.0 см 
GK_D2258_D         .MKR/H                                  : 13 Гамма-активность, мкр./ч -  110.0 см 
GK_D2265_D         .MKR/H                                  : 13 Гамма-активность, мкр./ч -  110.0 см 
GK_D2395_D         .MKR/H                                  : 16 Гамма-активность, мкр./ч -  110.0 см 
~Ascii
# ...
2389.4     -9999      6.5        6.50122    -9999      4.78       -9999     
2389.5     -9999      6.5        6.598781   -9999      4.78       -9999     
2389.6     -9999      6.49707    6.496088   -9999      4.78       -9999     
2389.7     -9999      6.196703   6.097561   -9999      4.78       -9999     
2389.8     -9999      5.896947   5.897555   -9999      4.78       -9999     
2389.9     -9999      5.647253   5.696342   -9999      4.78       -9999     
2390       -9999      5.40061    5.4        -9999      4.78       -9999     
2390.1     -9999      5.45055    5.400978   -9999      4.78       -9999     
2390.2     -9999      5.501832   5.5        -9999      4.78       -9999     
2390.3     -9999      5.652015   5.503667   -9999      4.78       -9999     
2390.4     -9999      5.803049   5.803658   -9999      4.777378   -9999     
2390.5     -9999      6.053049   6.102439   -9999      4.562378   -9999     
2390.6     -9999      6.301466   6.301956   -9999      4.349902   -9999     
2390.7     -9999      6.451648   6.50122    -9999      4.33989    -9999     
2390.8     -9999      6.598779   6.598777   -9999      4.33       -9999     
2390.9     -9999      6.498901   6.49878    -9999      4.33       -9999     
2391       -9999      6.401832   6.402439   -9999      4.33       -9999     
2391.1     -9999      6.551648   6.600978   -9999      4.33       -9999     
2391.2     -9999      6.702442   6.70122    -9999      4.33       -9999     
2391.3     -9999      6.902686   6.803668   -9999      4.33       -9999     
2391.4     -9999      7.10061    7.095122   -9999      4.33       -9999     
2391.5     -9999      7.150609   6.706098   -9999      4.33       -9999     
2391.6     -9999      7.2        7.200978   -9999      4.33       -9999     
2391.7     -9999      7.2        7.29878    -9999      4.33       -9999     
2391.8     -9999      7.201221   7.202445   -9999      4.331038   -9999     
2391.9     -9999      7.301099   7.4        -9999      4.415934   -9999     
2392       -9999      7.40061    7.397561   -9999      4.5        -9999     
2392.1     -9999      7.45055    7.202934   -9999      4.5        -9999     
2392.2     -9999      7.503053   7.5        -9999      4.5        -9999     
2392.3     -9999      7.753358   7.506113   -9999      4.5        -9999     
2392.4     -9999      7.998171   8.003658   -9999      4.5        -9999     
2392.5     -9999      7.848171   8.292683   -9999      4.5        -9999     
2392.6     -9999      7.695116   7.693154   -9999      4.5        -9999     
2392.7     -9999      7.194505   6.996341   -9999      4.5        -9999     
2392.8     -9999      6.692674   6.696332   -9999      4.5        -9999     
2392.9     -9999      6.093407   6.389024   -9999      4.5        -9999     
2393       -9999      5.492064   5.492683   -9999      4.501954   -9999     
2393.1     -9999      4.842857   4.893154   -9999      4.661758   -9999     
2393.2     -9999      4.196947   4.196342   -9999      4.820305   -9999     
2393.3     -9999      3.946642   3.897555   -9999      4.845336   -9999     
2393.4     -9999      3.70061    3.70122    -9999      4.87       -9999     
2393.5     -9999      3.75061    3.8        -9999      4.87       -9999     
2393.6     -9999      3.800488   3.800978   -9999      4.87       -9999     
2393.7     -9999      3.850549   3.9        -9999      4.87       -9999     
2393.8     -9999      3.900611   3.903668   -9999      4.87       -9999     
2393.9     -9999      3.95055    4.197561   -9999      4.87       -9999     
2394       -9999      4.00061    4.003659   -9999      4.87       -9999     
2394.1     -9999      4.05055    4.298044   -9999      4.87       -9999     
2394.2     -9999      4.098168   4.095122   -9999      4.87       -9999     
2394.3     -9999      3.947985   3.701223   -9999      4.87       -9999     
2394.4     -9999      3.801219   3.8        -9999      4.867378   -9999     
2394.5     -9999      3.90122    3.802439   -9999      4.652378   -9999     
2394.6     -9999      3.999023   3.999022   -9999      4.438291   -9999     
2394.7     -9999      3.898901   3.898781   -9999      4.263077   -9999     
2394.8     -9999      3.800611   3.802445   -9999      4.09       -9999     
2394.9     -9999      3.850549   3.99878    -9999      4.09       -9999     
2395       -9999      3.903053   3.904878   -9999      4.09       -9999     
2395.1     -9999      4.152747   4.300978   -9999      4.09       -9999     
2395.2     -9999      4.398779   4.397561   -9999      4.09       -9999     
2395.3     -9999      4.298657   4.2        -9999      4.09       -9999     
2395.4     -9999      4.2        4.20122    -9999      4.09       -9999     
2395.5     -9999      4.2        4.29878    -9999      4.09       -9999     
2395.6     -9999      4.199512   4.198044   -9999      4.088682   -9999     
2395.7     -9999      4.14945    4.00122    -9999      3.953516   -9999     
2395.8     -9999      4.09939    4.098777   -9999      3.817619   -9999     
2395.9     -9999      4.04945    4          -9999      3.622857   -9999     
2396       -9999      3.998779   4.00122    -9999      3.43       -9999     
2396.1     -9999      3.898901   4.097066   -9999      3.43       -9999     
2396.2     -9999      3.8        3.797561   -9999      3.43       -9999     
2396.3     -9999      3.8        3.602445   -9999      3.43       -9999     
2396.4     -9999      3.798171   3.797561   -9999      3.43       -9999     
2396.5     -9999      3.648171   3.59878    -9999      3.43       -9999     
2396.6     -9999      3.5        3.500978   -9999      3.43       -9999     
2396.7     -9999      3.5        3.59878    -9999      3.43       -9999     
2396.8     -9999      3.501832   3.5        -9999      3.43       -9999     
2396.9     -9999      3.651648   3.503659   -9999      3.43       -9999     
2397       -9999      3.800611   3.802439   -9999      3.430122   -9999     
2397.1     -9999      3.850549   3.999022   -9999      3.44011    -9999     
2397.2     -9999      3.900611   3.90122    -9999      3.450183   -9999     
2397.3     -9999      3.950672   4          -9999      3.465202   -9999     
2397.4     -9999      3.99878    3.99878    -9999      3.48       -9999     
2397.5     -9999      3.89878    3.898781   -9999      3.48       -9999     
2397.6     -9999      3.799512   3.797066   -9999      3.48       -9999     
2397.7     -9999      3.74945    3.502439   -9999      3.48       -9999     
2397.8     -9999      3.701221   3.7        -9999      3.48       -9999     
2397.9     -9999      3.801099   3.702439   -9999      3.48       -9999     
2398       -9999      3.901221   3.902439   -9999      3.48       -9999     
2398.1     -9999      4.001099   4.1        -9999      3.48       -9999     
2398.2     -9999      4.1        4.102439   -9999      3.48       -9999     
2398.3     -9999      4.1        4.297555   -9999      3.48       -9999     
2398.4     -9999      4.10122    4.101219   -9999      3.477256   -9999     
2398.5     -9999      4.20122    4.20122    -9999      3.252256   -9999     
2398.6     -9999      4.301466   4.302934   -9999      3.029072   -9999     
2398.7     -9999      4.451648   4.6        -9999      2.933956   -9999     
2398.8     -9999      4.6        4.601223   -9999      2.84       -9999     
2398.9     -9999      4.6        4.69878    -9999      2.84       -9999     
2399       -9999      4.59939    4.598781   -9999      2.84       -9999     
2399.1     -9999      4.54945    4.5        -9999      2.84       -9999     
2399.2     -9999      4.498168   4.497561   -9999      2.84       -9999     
2399.3     -9999      4.347985   4.298778   -9999      2.84       -9999     
2399.4     -9999      4.196951   4.197561   -9999      2.84       -9999     
2399.5     -9999      3.946951   3.996341   -9999      2.84       -9999     
2399.6     -9999      3.699512   3.699022   -9999      2.84       -9999     
2399.7     -9999      3.649451   3.6        -9999      2.84       -9999     
