~Version
 VERS              .         2.0                           : CWLS LOG ASCII STANDARD - VERSION 2.0
 WRAP              .         NO                            : ONE LINE PER DEPTH STEP
 DLM               .         SPACE                         : DELIMITING CHARACTER(SPACE TAB OR COMMA)
~Well Information
#_______________________________________________________________________________
#
#PARAMETER_NAME    .UNIT     VALUE                         : DESCRIPTION
#_______________________________________________________________________________
STRT               .M        7.8                           : First reference value
STOP               .M        2645.7                        : Last reference value
STEP               .M        0.1                           : Step increment
NULL               .         -9999                         : Missing value
COMP               .                                       : Company
WELL               .         609                           : Well name
FLD                .                                       : Field
LOC                .                                       : Location
CNTY               .                                       : County
STAT               .                                       : State
CTRY               .                                       : Country
SRVC               .                                       : Service Company
DATE               .                                       : Date
API                .                                       : API number
PROJECT_UPGRADE_TIME .         2021-03-18T21_24_49           : 
group              .         Good                          : 
~Parameter Information Block
#_______________________________________________________________________________
#
#PARAMETER_NAME    .UNIT     VALUE                         : DESCRIPTION
#_______________________________________________________________________________
SET                .         LQC                           : 
TLFamily_GK_D1910_D .         Gamma Ray                     : 
TLFamily_GK_D1911_D .         Gamma Ray                     : 
TLFamily_GK_D1911_D_2 .         Gamma Ray                     : 
TLFamily_GK_D2258_D .         Gamma Ray                     : 
TLFamily_GK_D2265_D .         Gamma Ray                     : 
TLFamily_GK_D2395_D .         Gamma Ray                     : 
TLFamily_MD        .         Measured Depth                : 
~Curve Information
#_______________________________________________________________________________
#
#LOGNAME           .UNIT     LOG_ID                        : DESCRIPTION
#_______________________________________________________________________________
MD                 .M                                      :  
GK_D1910_D         .MKR/H                                  : 10 Гамма-активность, мкр./ч -   53.0 см 
GK_D1911_D         .MKR/H                                  : 10 Гамма-активность, мкр./ч -   53.0 см 
GK_D1911_D_2       .MKR/H                                  : 10 Гамма-активность, мкр./ч -   53.0 см 
GK_D2258_D         .MKR/H                                  : 13 Гамма-активность, мкр./ч -  110.0 см 
GK_D2265_D         .MKR/H                                  : 13 Гамма-активность, мкр./ч -  110.0 см 
GK_D2395_D         .MKR/H                                  : 16 Гамма-активность, мкр./ч -  110.0 см 
~Ascii
# ...
2597.4     6.20061    6.403659   6.403659   4.450122   -9999      -9999     
2597.5     6.25061    6.703659   6.703659   4.460122   -9999      -9999     
2597.6     6.301832   7.001221   7.006113   4.47       -9999      -9999     
2597.7     6.451648   7.101099   7.496341   4.47       -9999      -9999     
2597.8     6.59939    7.196337   7.196332   4.472198   -9999      -9999     
2597.9     6.549328   6.89597    6.89561    4.652418   -9999      -9999     
2598       6.501221   6.60061    6.604878   4.83       -9999      -9999     
2598.1     6.601343   6.650671   6.996333   4.83       -9999      -9999     
2598.2     6.698779   6.70061    6.7        4.83       -9999      -9999     
2598.3     6.598657   6.750671   6.701222   4.83       -9999      -9999     
2598.4     6.501463   6.798537   6.801464   4.83       -9999      -9999     
2598.5     6.601219   6.698781   6.896341   -9999      -9999      -9999     
2598.6     6.701221   6.603663   6.598777   -9999      -9999      -9999     
2598.7     6.801099   6.903296   6.508537   -9999      -9999      -9999     
2598.8     6.898169   7.20061    7.192665   -9999      -9999      -9999     
2598.9     6.747985   7.250671   6.610244   -9999      -9999      -9999     
2599       6.601831   7.3        7.30122    -9999      -9999      -9999     
2599.1     6.752015   7.3        7.398777   -9999      -9999      -9999     
2599.2     6.901221   7.29939    7.3        -9999      -9999      -9999     
2599.3     7.001343   7.249329   7.298778   -9999      -9999      -9999     
2599.4     7.1        7.19561    7.197073   -9999      -9999      -9999     
2599.5     7.1        6.896341   6.995122   -9999      -9999      -9999     
2599.6     7.098779   6.602442   6.597555   -9999      -9999      -9999     
2599.7     6.998901   6.802198   6.407317   -9999      -9999      -9999     
2599.8     6.9        7.001832   6.997555   -9999      -9999      -9999     
2599.9     6.9        7.152015   6.807317   -9999      -9999      -9999     
2600       6.902442   7.3        7.29878    -9999      -9999      -9999     
2600.1     7.102686   7.3        7.201222   -9999      -9999      -9999     
2600.2     7.301221   7.29939    7.3        -9999      -9999      -9999     
2600.3     7.401343   7.249329   7.298778   -9999      -9999      -9999     
2600.4     7.496341   7.2        7.2        -9999      -9999      -9999     
2600.5     7.246951   7.2        7.2        -9999      -9999      -9999     
2600.6     6.99939    7.20061    7.202445   -9999      -9999      -9999     
2600.7     6.94945    7.250549   7.398781   -9999      -9999      -9999     
2600.8     6.90061    7.296337   7.29511    -9999      -9999      -9999     
2600.9     6.950672   6.995971   6.897073   -9999      -9999      -9999     
2601       7.00061    6.702442   6.704878   -9999      -9999      -9999     
2601.1     7.050672   6.902686   7.1        -9999      -9999      -9999     
2601.2     7.098779   7.09939    7.102439   -9999      -9999      -9999     
2601.3     6.998657   7.049328   7.296333   -9999      -9999      -9999     
2601.4     6.901464   7.001463   7          -9999      -9999      -9999     
2601.5     7.00122    7.101219   7.002439   -9999      -9999      -9999     
2601.6     7.10061    7.199389   7.2        -9999      -9999      -9999     
2601.7     7.150549   7.14945    7.19878    -9999      -9999      -9999     
2601.8     7.196947   7.096947   7.09511    -9999      -9999      -9999     
2601.9     6.946642   6.846642   6.698536   -9999      -9999      -9999     
2602       6.697558   6.60061    6.602439   -9999      -9999      -9999     
2602.1     6.497314   6.650671   6.798778   -9999      -9999      -9999     
2602.2     6.304274   6.699389   6.70122    -9999      -9999      -9999     
2602.3     6.654701   6.649328   6.797555   -9999      -9999      -9999     
2602.4     6.999269   6.600732   6.602927   -9999      -9999      -9999     
2602.5     6.94939    6.650609   6.79878    -9999      -9999      -9999     
2602.6     6.895727   6.7        6.697555   -9999      -9999      -9999     
2602.7     6.546154   6.7        6.502439   -9999      -9999      -9999     
2602.8     6.201221   6.696947   6.698777   -9999      -9999      -9999     
2602.9     6.301343   6.446642   6.594146   -9999      -9999      -9999     
2603       6.401221   6.2        6.2        -9999      -9999      -9999     
2603.1     6.501343   6.2        6.2        -9999      -9999      -9999     
2603.2     6.598168   6.201831   6.20122    -9999      -9999      -9999     
2603.3     6.447985   6.352015   6.302445   -9999      -9999      -9999     
2603.4     6.299268   6.494878   6.5        -9999      -9999      -9999     
2603.5     6.24939    6.145732   6.491463   -9999      -9999      -9999     
2603.6     6.199389   5.803053   5.806113   -9999      -9999      -9999     
2603.7     6.14945    6.052747   6.3        -9999      -9999      -9999     
2603.8     6.098779   6.3        6.301223   -9999      -9999      -9999     
2603.9     5.998657   6.3        6.398537   -9999      -9999      -9999     
2604       5.901221   6.300611   6.29878    -9999      -9999      -9999     
2604.1     6.001343   6.350672   6.202445   -9999      -9999      -9999     
2604.2     6.1        6.398779   6.398781   -9999      -9999      -9999     
2604.3     6.1        6.298657   6.298778   -9999      -9999      -9999     
2604.4     6.1        6.2        6.197073   -9999      -9999      -9999     
2604.5     6.1        6.2        6.002439   -9999      -9999      -9999     
2604.6     6.104273   6.201221   6.2        -9999      -9999      -9999     
2604.7     6.453846   6.301099   6.202439   -9999      -9999      -9999     
2604.8     6.796337   6.398779   6.4        -9999      -9999      -9999     
2604.9     6.495971   6.298657   6.397073   -9999      -9999      -9999     
2605       6.2        6.2        6.197561   -9999      -9999      -9999     
2605.1     6.2        6.2        6.002445   -9999      -9999      -9999     
2605.2     6.197558   6.2        6.2        -9999      -9999      -9999     
2605.3     5.997314   6.2        6.2        -9999      -9999      -9999     
2605.4     5.802927   6.197804   6.197073   -9999      -9999      -9999     
2605.5     6.002439   6.048171   5.99878    -9999      -9999      -9999     
2605.6     6.198168   5.901221   5.902445   -9999      -9999      -9999     
2605.7     6.048352   6.001099   6.1        -9999      -9999      -9999     
2605.8     5.901832   6.097558   6.098777   -9999      -9999      -9999     
2605.9     6.052015   5.897314   5.99561    -9999      -9999      -9999     
2606       6.201221   5.7        5.70122    -9999      -9999      -9999     
2606.1     6.301343   5.7        5.798778   -9999      -9999      -9999     
2606.2     6.39939    5.702442   5.703659   -9999      -9999      -9999     
2606.3     6.349329   5.902686   6.001223   -9999      -9999      -9999     
2606.4     6.30439    6.100732   6.098536   -9999      -9999      -9999     
2606.5     6.603659   6.150609   6.002439   -9999      -9999      -9999     
2606.6     6.901832   6.203053   6.203667   -9999      -9999      -9999     
2606.7     7.051648   6.452747   6.502439   -9999      -9999      -9999     
2606.8     7.198779   6.70061    6.697555   -9999      -9999      -9999     
2606.9     7.098657   6.750671   6.50439    -9999      -9999      -9999     
2607       7          6.800611   6.80122    -9999      -9999      -9999     
2607.1     7          6.850672   6.9        -9999      -9999      -9999     
2607.2     7.00061    6.9        6.9        -9999      -9999      -9999     
2607.3     7.050672   6.9        6.9        -9999      -9999      -9999     
2607.4     7.099268   6.902195   6.90439    -9999      -9999      -9999     
2607.5     7.04939    7.051829   7.2        -9999      -9999      -9999     
2607.6     6.99939    7.196947   7.197555   -9999      -9999      -9999     
2607.7     6.94945    6.947253   6.996341   -9999      -9999      -9999     
