~Version
 VERS              .         2.0                           : CWLS LOG ASCII STANDARD - VERSION 2.0
 WRAP              .         NO                            : ONE LINE PER DEPTH STEP
 DLM               .         SPACE                         : DELIMITING CHARACTER(SPACE TAB OR COMMA)
~Well Information
#_______________________________________________________________________________
#
#PARAMETER_NAME    .UNIT     VALUE                         : DESCRIPTION
#_______________________________________________________________________________
STRT               .M        7.8                           : First reference value
STOP               .M        2645.7                        : Last reference value
STEP               .M        0.1                           : Step increment
NULL               .         -9999                         : Missing value
COMP               .                                       : Company
WELL               .         609                           : Well name
FLD                .                                       : Field
LOC                .                                       : Location
CNTY               .                                       : County
STAT               .                                       : State
CTRY               .                                       : Country
SRVC               .                                       : Service Company
DATE               .                                       : Date
API                .                                       : API number
PROJECT_UPGRADE_TIME .         2021-03-18T21_24_49           : 
group              .         Good                          : 
~Parameter Information Block
#_______________________________________________________________________________
#
#PARAMETER_NAME    .UNIT     VALUE                         : DESCRIPTION
#_______________________________________________________________________________
SET                .         LQC                           : 
TLFamily_GK_D1910_D .         Gamma Ray                     : 
TLFamily_GK_D1911_D .         Gamma Ray                     : 
TLFamily_GK_D1911_D_2 .         Gamma Ray                     : 
TLFamily_GK_D2258_D .         Gamma Ray                     : 
TLFamily_GK_D2265_D .         Gamma Ray                     : 
TLFamily_GK_D2395_D .         Gamma Ray                     : 
TLFamily_MD        .         Measured Depth                : 
~Curve Information
#_______________________________________________________________________________
#
#LOGNAME           .UNIT     LOG_ID                        : DESCRIPTION
#_______________________________________________________________________________
MD                 .M                                      :  
GK_D1910_D         .MKR/H                                  : 10 Гамма-активность, мкр./ч -   53.0 см 
GK_D1911_D         .MKR/H                                  : 10 Гамма-активность, мкр./ч -   53.0 см 
GK_D1911_D_2       .MKR/H                                  : 10 Гамма-активность, мкр./ч -   53.0 см 
GK_D2258_D         .MKR/H                                  : 13 Гамма-активность, мкр./ч -  110.0 см 
GK_D2265_D         .MKR/H                                  : 13 Гамма-активность, мкр./ч -  110.0 см 
GK_D2395_D         .MKR/H                                  : 16 Гамма-активность, мкр./ч -  110.0 см 
~Ascii
# ...
694.2      -9999      2.399848   -9999      -9999      1.889908   2.689985  
694.3      -9999      2.349863   -9999      -9999      1.859918   2.684986  
694.4      -9999      2.3        -9999      -9999      1.829847   2.679985  
694.5      -9999      2.3        -9999      -9999      1.779847   2.674985  
694.6      -9999      2.3        -9999      -9999      1.73       2.669863  
694.7      -9999      2.3        -9999      -9999      1.73       2.624849  
694.8      -9999      2.300305   -9999      -9999      1.73       2.579695  
694.9      -9999      2.400336   -9999      -9999      1.73       2.479664  
695        -9999      2.5        -9999      -9999      1.73       2.379817  
695.1      -9999      2.5        -9999      -9999      1.73       2.319835  
695.2      -9999      2.499847   -9999      -9999      1.73       2.259863  
695.3      -9999      2.449863   -9999      -9999      1.73       2.214876  
695.4      -9999      2.399695   -9999      -9999      1.73       2.169924  
695.5      -9999      2.299695   -9999      -9999      1.73       2.144924  
695.6      -9999      2.200153   -9999      -9999      1.729985   2.119939  
695.7      -9999      2.250168   -9999      -9999      1.724983   2.099933  
695.8      -9999      2.300153   -9999      -9999      1.719939   2.079969  
695.9      -9999      2.350168   -9999      -9999      1.699933   2.069966  
696        -9999      2.4        -9999      -9999      1.68       2.06003   
696.1      -9999      2.4        -9999      -9999      1.68       2.070027  
696.2      -9999      2.400153   -9999      -9999      1.68       2.08003   
696.3      -9999      2.450137   -9999      -9999      1.68       2.090027  
696.4      -9999      2.499847   -9999      -9999      1.68       2.10003   
696.5      -9999      2.449847   -9999      -9999      1.68       2.11003   
696.6      -9999      2.399695   -9999      -9999      1.68       2.12      
696.7      -9999      2.299664   -9999      -9999      1.68       2.12      
696.8      -9999      2.199847   -9999      -9999      1.68       2.120015  
696.9      -9999      2.149832   -9999      -9999      1.68       2.125017  
697        -9999      2.1        -9999      -9999      1.68       2.13      
697.1      -9999      2.1        -9999      -9999      1.68       2.13      
697.2      -9999      2.100152   -9999      -9999      1.679771   2.130015  
697.3      -9999      2.150137   -9999      -9999      1.604794   2.135014  
697.4      -9999      2.200153   -9999      -9999      1.529939   2.140061  
697.5      -9999      2.250153   -9999      -9999      1.509939   2.160061  
697.6      -9999      2.300305   -9999      -9999      1.49       2.180031  
697.7      -9999      2.400336   -9999      -9999      1.49       2.190034  
697.8      -9999      2.500153   -9999      -9999      1.49       2.200015  
697.9      -9999      2.550168   -9999      -9999      1.49       2.205017  
698        -9999      2.599847   -9999      -9999      1.49       2.210015  
698.1      -9999      2.549863   -9999      -9999      1.49       2.215014  
698.2      -9999      2.499847   -9999      -9999      1.49       2.220015  
698.3      -9999      2.449863   -9999      -9999      1.49       2.225014  
698.4      -9999      2.4        -9999      -9999      1.49       2.230107  
698.5      -9999      2.4        -9999      -9999      1.49       2.265107  
698.6      -9999      2.4        -9999      -9999      1.490076   2.300183  
698.7      -9999      2.4        -9999      -9999      1.515084   2.360201  
698.8      -9999      2.400153   -9999      -9999      1.54003    2.420122  
698.9      -9999      2.450168   -9999      -9999      1.550034   2.460134  
699        -9999      2.500153   -9999      -9999      1.56       2.500061  
699.1      -9999      2.550137   -9999      -9999      1.56       2.520055  
699.2      -9999      2.599695   -9999      -9999      1.56       2.540046  
699.3      -9999      2.499725   -9999      -9999      1.56       2.555041  
699.4      -9999      2.400153   -9999      -9999      1.56       2.57003   
699.5      -9999      2.450153   -9999      -9999      1.56       2.58003   
699.6      -9999      2.499847   -9999      -9999      1.56       2.59003   
699.7      -9999      2.449832   -9999      -9999      1.56       2.600034  
699.8      -9999      2.400153   -9999      -9999      1.56       2.61003   
699.9      -9999      2.450168   -9999      -9999      1.56       2.620034  
700        -9999      2.500305   -9999      -9999      1.560244   2.630031  
700.1      -9999      2.600275   -9999      -9999      1.64022    2.640028  
700.2      -9999      2.700153   -9999      -9999      1.720336   2.650015  
700.3      -9999      2.750137   -9999      -9999      1.830302   2.655014  
700.4      -9999      2.800153   -9999      -9999      1.94       2.66      
700.5      -9999      2.850153   -9999      -9999      1.94       2.66      
700.6      -9999      2.900458   -9999      -9999      1.94       2.660015  
700.7      -9999      3.050503   -9999      -9999      1.94       2.665017  
700.8      -9999      3.2        -9999      -9999      1.94       2.67      
700.9      -9999      3.2        -9999      -9999      1.94       2.67      
701        -9999      3.200153   -9999      -9999      1.94       2.669909  
701.1      -9999      3.250137   -9999      -9999      1.94       2.639918  
701.2      -9999      3.299695   -9999      -9999      1.94       2.609786  
701.3      -9999      3.199725   -9999      -9999      1.94       2.539808  
701.4      -9999      3.100152   -9999      -9999      1.940137   2.469893  
701.5      -9999      3.150153   -9999      -9999      1.985137   2.434893  
701.6      -9999      3.199847   -9999      -9999      2.030183   2.399924  
701.7      -9999      3.149832   -9999      -9999      2.090201   2.374916  
701.8      -9999      3.100152   -9999      -9999      2.15       2.349954  
701.9      -9999      3.150168   -9999      -9999      2.15       2.334949  
702        -9999      3.199847   -9999      -9999      2.15       2.319969  
702.1      -9999      3.149863   -9999      -9999      2.15       2.309973  
702.2      -9999      3.100152   -9999      -9999      2.15       2.299985  
702.3      -9999      3.150137   -9999      -9999      2.15       2.294986  
702.4      -9999      3.199847   -9999      -9999      2.15       2.289924  
702.5      -9999      3.149847   -9999      -9999      2.15       2.264924  
702.6      -9999      3.1        -9999      -9999      2.15       2.239939  
702.7      -9999      3.1        -9999      -9999      2.15       2.219933  
702.8      -9999      3.1        -9999      -9999      2.150076   2.19997   
702.9      -9999      3.1        -9999      -9999      2.175084   2.189966  
703        -9999      3.100152   -9999      -9999      2.200397   2.179985  
703.1      -9999      3.150137   -9999      -9999      2.330357   2.174986  
703.2      -9999      3.199695   -9999      -9999      2.46       2.169985  
703.3      -9999      3.099725   -9999      -9999      2.46       2.164986  
703.4      -9999      3          -9999      -9999      2.46       2.159985  
703.5      -9999      3          -9999      -9999      2.46       2.154985  
703.6      -9999      3          -9999      -9999      2.46       2.15      
703.7      -9999      3          -9999      -9999      2.46       2.15      
703.8      -9999      3.000305   -9999      -9999      2.46       2.150015  
703.9      -9999      3.100336   -9999      -9999      2.46       2.155017  
704        -9999      3.199695   -9999      -9999      2.46       2.16      
704.1      -9999      3.099725   -9999      -9999      2.46       2.16      
704.2      -9999      3          -9999      -9999      2.46       2.16      
704.3      -9999      3          -9999      -9999      2.46       2.16      
704.4      -9999      3.000305   -9999      -9999      2.460565   2.16      
704.5      -9999      3.100305   -9999      -9999      2.645565   2.16      
