~Version
 VERS              .         2.0                           : CWLS LOG ASCII STANDARD - VERSION 2.0
 WRAP              .         NO                            : ONE LINE PER DEPTH STEP
 DLM               .         SPACE                         : DELIMITING CHARACTER(SPACE TAB OR COMMA)
~Well Information
#_______________________________________________________________________________
#
#PARAMETER_NAME    .UNIT     VALUE                         : DESCRIPTION
#_______________________________________________________________________________
STRT               .M        7.8                           : First reference value
STOP               .M        2645.7                        : Last reference value
STEP               .M        0.1                           : Step increment
NULL               .         -9999                         : Missing value
COMP               .                                       : Company
WELL               .         609                           : Well name
FLD                .                                       : Field
LOC                .                                       : Location
CNTY               .                                       : County
STAT               .                                       : State
CTRY               .                                       : Country
SRVC               .                                       : Service Company
DATE               .                                       : Date
API                .                                       : API number
PROJECT_UPGRADE_TIME .         2021-03-18T21_24_49           : 
group              .         Good                          : 
~Parameter Information Block
#_______________________________________________________________________________
#
#PARAMETER_NAME    .UNIT     VALUE                         : DESCRIPTION
#_______________________________________________________________________________
SET                .         LQC                           : 
TLFamily_GK_D1910_D .         Gamma Ray                     : 
TLFamily_GK_D1911_D .         Gamma Ray                     : 
TLFamily_GK_D1911_D_2 .         Gamma Ray                     : 
TLFamily_GK_D2258_D .         Gamma Ray                     : 
TLFamily_GK_D2265_D .         Gamma Ray                     : 
TLFamily_GK_D2395_D .         Gamma Ray                     : 
TLFamily_MD        .         Measured Depth                : 
~Curve Information
#_______________________________________________________________________________
#
#LOGNAME           .UNIT     LOG_ID                        : DESCRIPTION
#_______________________________________________________________________________
MD                 .M                                      :  
GK_D1910_D         .MKR/H                                  : 10 Гамма-активность, мкр./ч -   53.0 см 
GK_D1911_D         .MKR/H                                  : 10 Гамма-активность, мкр./ч -   53.0 см 
GK_D1911_D_2       .MKR/H                                  : 10 Гамма-активность, мкр./ч -   53.0 см 
GK_D2258_D         .MKR/H                                  : 13 Гамма-активность, мкр./ч -  110.0 см 
GK_D2265_D         .MKR/H                                  : 13 Гамма-активность, мкр./ч -  110.0 см 
GK_D2395_D         .MKR/H                                  : 16 Гамма-активность, мкр./ч -  110.0 см 
~Ascii
# ...
2503.8     -9999      7.699389   7.703667   4.022015   -9999      -9999     
2503.9     -9999      7.64945    7.995122   4.186813   -9999      -9999     
2504       -9999      7.59939    7.595122   4.35       -9999      -9999     
2504.1     -9999      7.549328   7.203667   4.35       -9999      -9999     
2504.2     -9999      7.504273   7.502439   4.353663   -9999      -9999     
2504.3     -9999      7.854701   7.706112   4.654029   -9999      -9999     
2504.4     -9999      8.203049   8.20122    4.95       -9999      -9999     
2504.5     -9999      8.453049   8.304878   4.95       -9999      -9999     
2504.6     -9999      8.698779   8.7        4.947802   -9999      -9999     
2504.7     -9999      8.598901   8.697561   4.768022   -9999      -9999     
2504.8     -9999      8.501831   8.5        4.59       -9999      -9999     
2504.9     -9999      8.651649   8.503658   4.59       -9999      -9999     
2505       -9999      8.796337   8.797562   4.588108   -9999      -9999     
2505.1     -9999      8.495971   8.59511    4.432919   -9999      -9999     
2505.2     -9999      8.20061    8.203658   4.28       -9999      -9999     
2505.3     -9999      8.250671   8.497555   4.28       -9999      -9999     
2505.4     -9999      8.29878    8.30122    4.281586   -9999      -9999     
2505.5     -9999      8.198781   8.396341   4.411585   -9999      -9999     
2505.6     -9999      8.1        8.102446   4.54       -9999      -9999     
2505.7     -9999      8.1        8.297562   4.54       -9999      -9999     
2505.8     -9999      8.094506   8.101223   4.542076   -9999      -9999     
2505.9     -9999      7.645055   8.187804   4.711868   -9999      -9999     
2506       -9999      7.2        7.2        4.881404   -9999      -9999     
2506.1     -9999      7.2        7.2        4.996545   -9999      -9999     
2506.2     -9999      7.199389   7.20122    5.11       -9999      -9999     
2506.3     -9999      7.149328   7.297555   5.11       -9999      -9999     
2506.4     -9999      7.09939    7.097561   5.11       -9999      -9999     
2506.5     -9999      7.04939    6.901219   5.11       -9999      -9999     
2506.6     -9999      7.002442   7.001223   5.109756   -9999      -9999     
2506.7     -9999      7.202198   7.103659   5.08978    -9999      -9999     
2506.8     -9999      7.40061    7.401223   5.069817   -9999      -9999     
2506.9     -9999      7.45055    7.5        5.054835   -9999      -9999     
2507       -9999      7.498168   7.495122   5.04       -9999      -9999     
2507.1     -9999      7.347985   7.101223   5.04       -9999      -9999     
2507.2     -9999      7.2        7.2        5.042442   -9999      -9999     
2507.3     -9999      7.2        7.2        5.242686   -9999      -9999     
2507.4     -9999      7.20122    7.2        5.44       -9999      -9999     
2507.5     -9999      7.301219   7.202439   5.44       -9999      -9999     
2507.6     -9999      7.398779   7.401223   5.436276   -9999      -9999     
2507.7     -9999      7.298901   7.496341   5.131649   -9999      -9999     
2507.8     -9999      7.199389   7.2        4.83       -9999      -9999     
2507.9     -9999      7.14945    7.19878    4.83       -9999      -9999     
2508       -9999      7.1        7.098781   4.828229   -9999      -9999     
2508.1     -9999      7.1        7.001223   4.683053   -9999      -9999     
2508.2     -9999      7.098168   7.095122   4.54       -9999      -9999     
2508.3     -9999      6.947985   6.701222   4.54       -9999      -9999     
2508.4     -9999      6.801829   6.803658   4.545671   -9999      -9999     
2508.5     -9999      6.951829   7.1        5.010671   -9999      -9999     
2508.6     -9999      7.1        7.098777   5.47       -9999      -9999     
2508.7     -9999      7.1        7.00122    5.47       -9999      -9999     
2508.8     -9999      7.09939    7.098777   5.470671   -9999      -9999     
2508.9     -9999      7.04945    7          5.525604   -9999      -9999     
2509       -9999      7.001221   7.004878   5.58       -9999      -9999     
2509.1     -9999      7.101343   7.397555   5.58       -9999      -9999     
2509.2     -9999      7.198779   7.197561   5.578962   -9999      -9999     
2509.3     -9999      7.098657   7          5.493858   -9999      -9999     
2509.4     -9999      7.00061    6.99878    5.407866   -9999      -9999     
2509.5     -9999      7.05061    6.902439   5.232866   -9999      -9999     
2509.6     -9999      7.105494   7.103667   5.059695   -9999      -9999     
2509.7     -9999      7.554945   7.407317   5.034725   -9999      -9999     
2509.8     -9999      7.99939    7.997555   5.008291   -9999      -9999     
2509.9     -9999      7.94945    7.80122    4.868462   -9999      -9999     
2510       -9999      7.898779   7.897561   4.729817   -9999      -9999     
2510.1     -9999      7.798657   7.7        4.714798   -9999      -9999     
2510.2     -9999      7.703663   7.704878   4.699206   -9999      -9999     
2510.3     -9999      8.004029   8.102446   4.634127   -9999      -9999     
2510.4     -9999      8.296951   8.296342   4.57       -9999      -9999     
2510.5     -9999      8.046951   7.997561   4.57       -9999      -9999     
2510.6     -9999      7.79939    7.8        4.57171    -9999      -9999     
2510.7     -9999      7.749451   7.79878    4.711538   -9999      -9999     
2510.8     -9999      7.7        7.701222   4.85       -9999      -9999     
2510.9     -9999      7.7        7.79878    4.85       -9999      -9999     
2511       -9999      7.697558   7.70122    4.85116    -9999      -9999     
2511.1     -9999      7.497314   7.793888   4.946276   -9999      -9999     
2511.2     -9999      7.298169   7.296341   5.04       -9999      -9999     
2511.3     -9999      7.147985   7          5.04       -9999      -9999     
2511.4     -9999      7.00122    7          5.040427   -9999      -9999     
2511.5     -9999      7.101219   7.002439   5.075427   -9999      -9999     
2511.6     -9999      7.199389   7.202445   5.11       -9999      -9999     
2511.7     -9999      7.14945    7.396341   5.11       -9999      -9999     
2511.8     -9999      7.101831   7.101223   5.107863   -9999      -9999     
2511.9     -9999      7.251648   7.202439   4.933077   -9999      -9999     
2512       -9999      7.396947   7.392683   4.76       -9999      -9999     
2512.1     -9999      7.146642   6.801223   4.76       -9999      -9999     
2512.2     -9999      6.901221   6.896341   4.756825   -9999      -9999     
2512.3     -9999      7.001343   6.606112   4.496508   -9999      -9999     
2512.4     -9999      7.101829   7.097561   4.24       -9999      -9999     
2512.5     -9999      7.251829   6.906098   4.24       -9999      -9999     
2512.6     -9999      7.396947   7.393888   4.244761   -9999      -9999     
2512.7     -9999      7.147253   6.9        4.634285   -9999      -9999     
2512.8     -9999      6.89939    6.9        5.02       -9999      -9999     
2512.9     -9999      6.849451   6.898781   5.02       -9999      -9999     
2513       -9999      6.798779   6.797561   5.019084   -9999      -9999     
2513.1     -9999      6.698657   6.6        4.943993   -9999      -9999     
2513.2     -9999      6.601831   6.602439   4.869328   -9999      -9999     
2513.3     -9999      6.752015   6.801223   4.814261   -9999      -9999     
2513.4     -9999      6.89878    6.897561   4.758842   -9999      -9999     
2513.5     -9999      6.79878    6.7        4.663842   -9999      -9999     
2513.6     -9999      6.696947   6.7        4.569268   -9999      -9999     
2513.7     -9999      6.447253   6.693902   4.509341   -9999      -9999     
2513.8     -9999      6.202442   6.2        4.450915   -9999      -9999     
2513.9     -9999      6.402198   6.204878   4.525824   -9999      -9999     
2514       -9999      6.602442   6.6        4.600671   -9999      -9999     
2514.1     -9999      6.802686   6.60489    4.655739   -9999      -9999     
