~Version
 VERS              .         2.0                           : CWLS LOG ASCII STANDARD - VERSION 2.0
 WRAP              .         NO                            : ONE LINE PER DEPTH STEP
 DLM               .         SPACE                         : DELIMITING CHARACTER(SPACE TAB OR COMMA)
~Well Information
#_______________________________________________________________________________
#
#PARAMETER_NAME    .UNIT     VALUE                         : DESCRIPTION
#_______________________________________________________________________________
STRT               .M        7.8                           : First reference value
STOP               .M        2645.7                        : Last reference value
STEP               .M        0.1                           : Step increment
NULL               .         -9999                         : Missing value
COMP               .                                       : Company
WELL               .         609                           : Well name
FLD                .                                       : Field
LOC                .                                       : Location
CNTY               .                                       : County
STAT               .                                       : State
CTRY               .                                       : Country
SRVC               .                                       : Service Company
DATE               .                                       : Date
API                .                                       : API number
PROJECT_UPGRADE_TIME .         2021-03-18T21_24_49           : 
group              .         Good                          : 
~Parameter Information Block
#_______________________________________________________________________________
#
#PARAMETER_NAME    .UNIT     VALUE                         : DESCRIPTION
#_______________________________________________________________________________
SET                .         LQC                           : 
TLFamily_GK_D1910_D .         Gamma Ray                     : 
TLFamily_GK_D1911_D .         Gamma Ray                     : 
TLFamily_GK_D1911_D_2 .         Gamma Ray                     : 
TLFamily_GK_D2258_D .         Gamma Ray                     : 
TLFamily_GK_D2265_D .         Gamma Ray                     : 
TLFamily_GK_D2395_D .         Gamma Ray                     : 
TLFamily_MD        .         Measured Depth                : 
~Curve Information
#_______________________________________________________________________________
#
#LOGNAME           .UNIT     LOG_ID                        : DESCRIPTION
#_______________________________________________________________________________
MD                 .M                                      :  
GK_D1910_D         .MKR/H                                  : 10 Гамма-активность, мкр./ч -   53.0 см 
GK_D1911_D         .MKR/H                                  : 10 Гамма-активность, мкр./ч -   53.0 см 
GK_D1911_D_2       .MKR/H                                  : 10 Гамма-активность, мкр./ч -   53.0 см 
GK_D2258_D         .MKR/H                                  : 13 Гамма-активность, мкр./ч -  110.0 см 
GK_D2265_D         .MKR/H                                  : 13 Гамма-активность, мкр./ч -  110.0 см 
GK_D2395_D         .MKR/H                                  : 16 Гамма-активность, мкр./ч -  110.0 см 
~Ascii
# ...
2472.6     -9999      6.999023   7          -9999      4.470048   -9999     
2472.7     -9999      6.898901   6.997561   -9999      4.475055   -9999     
2472.8     -9999      6.798779   6.797555   -9999      4.480366   -9999     
2472.9     -9999      6.698901   6.6        -9999      4.51033    -9999     
2473       -9999      6.601221   6.602439   -9999      4.54       -9999     
2473.1     -9999      6.701099   6.8        -9999      4.54       -9999     
2473.2     -9999      6.800611   6.803658   -9999      4.54       -9999     
2473.3     -9999      6.850672   7.097555   -9999      4.54       -9999     
2473.4     -9999      6.89878    6.901219   -9999      4.54       -9999     
2473.5     -9999      6.79878    6.996341   -9999      4.54       -9999     
2473.6     -9999      6.700488   6.69511    -9999      4.54       -9999     
2473.7     -9999      6.750549   6.207317   -9999      4.54       -9999     
2473.8     -9999      6.8        6.801223   -9999      4.54       -9999     
2473.9     -9999      6.8        6.898781   -9999      4.54       -9999     
2474       -9999      6.801832   6.8        -9999      4.54       -9999     
2474.1     -9999      6.951648   6.802934   -9999      4.54       -9999     
2474.2     -9999      7.095116   7.096341   -9999      4.540122   -9999     
2474.3     -9999      6.694628   6.793888   -9999      4.550134   -9999     
2474.4     -9999      6.302439   6.303658   -9999      4.560183   -9999     
2474.5     -9999      6.502439   6.601219   -9999      4.575183   -9999     
2474.6     -9999      6.700977   6.7        -9999      4.59       -9999     
2474.7     -9999      6.801099   6.702439   -9999      4.59       -9999     
2474.8     -9999      6.904274   6.901223   -9999      4.59       -9999     
2474.9     -9999      7.253846   7.007317   -9999      4.59       -9999     
2475       -9999      7.598168   7.602439   -9999      4.59       -9999     
2475.1     -9999      7.448352   7.79511    -9999      4.59       -9999     
2475.2     -9999      7.300611   7.29878    -9999      4.59       -9999     
2475.3     -9999      7.350672   7.202445   -9999      4.59       -9999     
2475.4     -9999      7.393902   7.391463   -9999      4.59       -9999     
2475.5     -9999      6.893902   6.696342   -9999      4.59       -9999     
2475.6     -9999      6.4        6.4        -9999      4.589805   -9999     
2475.7     -9999      6.4        6.4        -9999      4.56978    -9999     
2475.8     -9999      6.40061    6.402445   -9999      4.549939   -9999     
2475.9     -9999      6.45055    6.598781   -9999      4.544945   -9999     
2476       -9999      6.498779   6.497561   -9999      4.54       -9999     
2476.1     -9999      6.398901   6.3        -9999      4.54       -9999     
2476.2     -9999      6.298169   6.29878    -9999      4.54       -9999     
2476.3     -9999      6.147985   6.197555   -9999      4.54       -9999     
2476.4     -9999      5.996951   5.993902   -9999      4.54       -9999     
2476.5     -9999      5.746951   5.5        -9999      4.54       -9999     
2476.6     -9999      5.500488   5.5        -9999      4.54       -9999     
2476.7     -9999      5.55055    5.50122    -9999      4.54       -9999     
2476.8     -9999      5.604273   5.607335   -9999      4.54       -9999     
2476.9     -9999      5.953846   6.20122    -9999      4.54       -9999     
2477       -9999      6.302442   6.30122    -9999      4.541038   -9999     
2477.1     -9999      6.502198   6.402934   -9999      4.625934   -9999     
2477.2     -9999      6.7        6.70122    -9999      4.711893   -9999     
2477.3     -9999      6.7        6.798778   -9999      4.867082   -9999     
2477.4     -9999      6.697561   6.69878    -9999      5.02       -9999     
2477.5     -9999      6.497561   6.596341   -9999      5.02       -9999     
2477.6     -9999      6.3        6.300978   -9999      5.02       -9999     
2477.7     -9999      6.3        6.398781   -9999      5.02       -9999     
2477.8     -9999      6.301221   6.301223   -9999      5.02       -9999     
2477.9     -9999      6.401099   6.401219   -9999      5.02       -9999     
2478       -9999      6.503053   6.502439   -9999      5.02       -9999     
2478.1     -9999      6.752747   6.702934   -9999      5.02       -9999     
2478.2     -9999      6.998779   7          -9999      5.02       -9999     
2478.3     -9999      6.898657   6.997555   -9999      5.02       -9999     
2478.4     -9999      6.797561   6.80122    -9999      5.020854   -9999     
2478.5     -9999      6.597561   6.893902   -9999      5.090854   -9999     
2478.6     -9999      6.399023   6.397066   -9999      5.160244   -9999     
2478.7     -9999      6.298901   6.101219   -9999      5.185275   -9999     
2478.8     -9999      6.198779   6.201222   -9999      5.21       -9999     
2478.9     -9999      6.098901   6.296341   -9999      5.21       -9999     
2479       -9999      6          6.002439   -9999      5.21       -9999     
2479.1     -9999      6          6.198044   -9999      5.21       -9999     
2479.2     -9999      6.002442   6.002439   -9999      5.21       -9999     
2479.3     -9999      6.202686   6.202445   -9999      5.21       -9999     
2479.4     -9999      6.401219   6.397561   -9999      5.21       -9999     
2479.5     -9999      6.50122    6.204878   -9999      5.21       -9999     
2479.6     -9999      6.6        6.602934   -9999      5.21       -9999     
2479.7     -9999      6.6        6.896341   -9999      5.21       -9999     
2479.8     -9999      6.598168   6.601223   -9999      5.209573   -9999     
2479.9     -9999      6.448352   6.695122   -9999      5.174615   -9999     
2480       -9999      6.300611   6.303658   -9999      5.138657   -9999     
2480.1     -9999      6.35055    6.598044   -9999      5.028791   -9999     
2480.2     -9999      6.4        6.397561   -9999      4.92       -9999     
2480.3     -9999      6.4        6.202445   -9999      4.92       -9999     
2480.4     -9999      6.4        6.402439   -9999      4.92       -9999     
2480.5     -9999      6.4        6.597561   -9999      4.92       -9999     
2480.6     -9999      6.399512   6.401956   -9999      4.92       -9999     
2480.7     -9999      6.349451   6.596341   -9999      4.92       -9999     
2480.8     -9999      6.296337   6.293888   -9999      4.92       -9999     
2480.9     -9999      5.996703   5.79878    -9999      4.92       -9999     
2481       -9999      5.702442   5.704878   -9999      4.92       -9999     
2481.1     -9999      5.902198   6.1        -9999      4.92       -9999     
2481.2     -9999      6.10061    6.097561   -9999      4.921343   -9999     
2481.3     -9999      6.150671   5.903667   -9999      5.031477   -9999     
2481.4     -9999      6.20061    6.20122    -9999      5.140244   -9999     
2481.5     -9999      6.25061    6.3        -9999      5.160244   -9999     
2481.6     -9999      6.301954   6.3        -9999      5.18       -9999     
2481.7     -9999      6.502198   6.304878   -9999      5.18       -9999     
2481.8     -9999      6.7        6.697555   -9999      5.18       -9999     
2481.9     -9999      6.7        6.502439   -9999      5.18       -9999     
2482       -9999      6.698168   6.7        -9999      5.18       -9999     
2482.1     -9999      6.548352   6.697066   -9999      5.18       -9999     
2482.2     -9999      6.39939    6.401219   -9999      5.18       -9999     
2482.3     -9999      6.349329   6.497555   -9999      5.18       -9999     
2482.4     -9999      6.298171   6.293902   -9999      5.18       -9999     
2482.5     -9999      6.148171   5.802439   -9999      5.18       -9999     
2482.6     -9999      5.999023   5.998044   -9999      5.180244   -9999     
2482.7     -9999      5.898901   5.8        -9999      5.205275   -9999     
2482.8     -9999      5.803053   5.801223   -9999      5.232442   -9999     
2482.9     -9999      6.052747   5.904878   -9999      5.432198   -9999     
