~Version
 VERS              .         2.0                           : CWLS LOG ASCII STANDARD - VERSION 2.0
 WRAP              .         NO                            : ONE LINE PER DEPTH STEP
 DLM               .         SPACE                         : DELIMITING CHARACTER(SPACE TAB OR COMMA)
~Well Information
#_______________________________________________________________________________
#
#PARAMETER_NAME    .UNIT     VALUE                         : DESCRIPTION
#_______________________________________________________________________________
STRT               .M        7.8                           : First reference value
STOP               .M        2645.7                        : Last reference value
STEP               .M        0.1                           : Step increment
NULL               .         -9999                         : Missing value
COMP               .                                       : Company
WELL               .         609                           : Well name
FLD                .                                       : Field
LOC                .                                       : Location
CNTY               .                                       : County
STAT               .                                       : State
CTRY               .                                       : Country
SRVC               .                                       : Service Company
DATE               .                                       : Date
API                .                                       : API number
PROJECT_UPGRADE_TIME .         2021-03-18T21_24_49           : 
group              .         Good                          : 
~Parameter Information Block
#_______________________________________________________________________________
#
#PARAMETER_NAME    .UNIT     VALUE                         : DESCRIPTION
#_______________________________________________________________________________
SET                .         LQC                           : 
TLFamily_GK_D1910_D .         Gamma Ray                     : 
TLFamily_GK_D1911_D .         Gamma Ray                     : 
TLFamily_GK_D1911_D_2 .         Gamma Ray                     : 
TLFamily_GK_D2258_D .         Gamma Ray                     : 
TLFamily_GK_D2265_D .         Gamma Ray                     : 
TLFamily_GK_D2395_D .         Gamma Ray                     : 
TLFamily_MD        .         Measured Depth                : 
~Curve Information
#_______________________________________________________________________________
#
#LOGNAME           .UNIT     LOG_ID                        : DESCRIPTION
#_______________________________________________________________________________
MD                 .M                                      :  
GK_D1910_D         .MKR/H                                  : 10 Гамма-активность, мкр./ч -   53.0 см 
GK_D1911_D         .MKR/H                                  : 10 Гамма-активность, мкр./ч -   53.0 см 
GK_D1911_D_2       .MKR/H                                  : 10 Гамма-активность, мкр./ч -   53.0 см 
GK_D2258_D         .MKR/H                                  : 13 Гамма-активность, мкр./ч -  110.0 см 
GK_D2265_D         .MKR/H                                  : 13 Гамма-активность, мкр./ч -  110.0 см 
GK_D2395_D         .MKR/H                                  : 16 Гамма-активность, мкр./ч -  110.0 см 
~Ascii
# ...
2410.2     -9999      5.003663   5.002439   -9999      4.449267   -9999     
2410.3     -9999      5.304029   5.20489    -9999      4.389194   -9999     
2410.4     -9999      5.601829   5.602439   -9999      4.33       -9999     
2410.5     -9999      5.751829   5.80122    -9999      4.33       -9999     
2410.6     -9999      5.900488   5.901956   -9999      4.33       -9999     
2410.7     -9999      5.95055    6.098781   -9999      4.33       -9999     
2410.8     -9999      6.001832   5.997555   -9999      4.33       -9999     
2410.9     -9999      6.151649   5.806098   -9999      4.33       -9999     
2411       -9999      6.301832   6.303658   -9999      4.33       -9999     
2411.1     -9999      6.451648   6.6        -9999      4.33       -9999     
2411.2     -9999      6.598168   6.602439   -9999      4.33       -9999     
2411.3     -9999      6.447985   6.793888   -9999      4.33       -9999     
2411.4     -9999      6.30122    6.3        -9999      4.33       -9999     
2411.5     -9999      6.401219   6.302439   -9999      4.33       -9999     
2411.6     -9999      6.5        6.5        -9999      4.330537   -9999     
2411.7     -9999      6.5        6.5        -9999      4.385604   -9999     
2411.8     -9999      6.5        6.498777   -9999      4.440061   -9999     
2411.9     -9999      6.5        6.401219   -9999      4.445055   -9999     
2412       -9999      6.503053   6.504878   -9999      4.45       -9999     
2412.1     -9999      6.752747   6.900978   -9999      4.45       -9999     
2412.2     -9999      7.001221   6.99878    -9999      4.45       -9999     
2412.3     -9999      7.101343   6.903667   -9999      4.45       -9999     
2412.4     -9999      7.2        7.19878    -9999      4.45       -9999     
2412.5     -9999      7.2        7.101219   -9999      4.45       -9999     
2412.6     -9999      7.198534   7.198044   -9999      4.45       -9999     
2412.7     -9999      7.048352   6.99878    -9999      4.45       -9999     
2412.8     -9999      6.898169   6.898777   -9999      4.450549   -9999     
2412.9     -9999      6.748352   6.797561   -9999      4.495494   -9999     
2413       -9999      6.60061    6.6        -9999      4.54116    -9999     
2413.1     -9999      6.650549   6.600978   -9999      4.636044   -9999     
2413.2     -9999      6.698779   6.703659   -9999      4.73       -9999     
2413.3     -9999      6.598657   6.993887   -9999      4.73       -9999     
2413.4     -9999      6.501829   6.503659   -9999      4.73       -9999     
2413.5     -9999      6.651829   6.8        -9999      4.73       -9999     
2413.6     -9999      6.800488   6.8        -9999      4.73       -9999     
2413.7     -9999      6.85055    6.80122    -9999      4.73       -9999     
2413.8     -9999      6.896947   6.9        -9999      4.73       -9999     
2413.9     -9999      6.647253   6.893902   -9999      4.73       -9999     
2414       -9999      6.401221   6.398781   -9999      4.73       -9999     
2414.1     -9999      6.501099   6.302934   -9999      4.73       -9999     
2414.2     -9999      6.6        6.6        -9999      4.73       -9999     
2414.3     -9999      6.6        6.6        -9999      4.73       -9999     
2414.4     -9999      6.59939    6.598781   -9999      4.730366   -9999     
2414.5     -9999      6.54939    6.5        -9999      4.760366   -9999     
2414.6     -9999      6.499512   6.501956   -9999      4.790195   -9999     
2414.7     -9999      6.44945    6.696342   -9999      4.81022    -9999     
2414.8     -9999      6.39939    6.397555   -9999      4.83       -9999     
2414.9     -9999      6.349451   6.20122    -9999      4.83       -9999     
2415       -9999      6.29939    6.302439   -9999      4.83       -9999     
2415.1     -9999      6.249451   6.497066   -9999      4.83       -9999     
2415.2     -9999      6.20061    6.2        -9999      4.83       -9999     
2415.3     -9999      6.250671   6.201222   -9999      4.83       -9999     
2415.4     -9999      6.30122    6.29878    -9999      4.83       -9999     
2415.5     -9999      6.401219   6.203659   -9999      4.83       -9999     
2415.6     -9999      6.500488   6.499022   -9999      4.829902   -9999     
2415.7     -9999      6.55055    6.402439   -9999      4.81989    -9999     
2415.8     -9999      6.6        6.601223   -9999      4.809206   -9999     
2415.9     -9999      6.6        6.69878    -9999      4.744286   -9999     
2416       -9999      6.60061    6.598781   -9999      4.679878   -9999     
2416.1     -9999      6.650549   6.501956   -9999      4.66989    -9999     
2416.2     -9999      6.702442   6.704878   -9999      4.66       -9999     
2416.3     -9999      6.902686   7.1        -9999      4.66       -9999     
2416.4     -9999      7.098171   7.095122   -9999      4.66       -9999     
2416.5     -9999      6.948171   6.70122    -9999      4.66       -9999     
2416.6     -9999      6.799512   6.799022   -9999      4.66       -9999     
2416.7     -9999      6.749451   6.7        -9999      4.66       -9999     
2416.8     -9999      6.701221   6.707335   -9999      4.66       -9999     
2416.9     -9999      6.801099   7.295122   -9999      4.66       -9999     
2417       -9999      6.898169   6.897561   -9999      4.66       -9999     
2417.1     -9999      6.748352   6.699022   -9999      4.66       -9999     
2417.2     -9999      6.598779   6.601219   -9999      4.660244   -9999     
2417.3     -9999      6.498657   6.696332   -9999      4.680268   -9999     
2417.4     -9999      6.403049   6.404878   -9999      4.700488   -9999     
2417.5     -9999      6.653049   6.80122    -9999      4.740488   -9999     
2417.6     -9999      6.902442   6.9        -9999      4.78       -9999     
2417.7     -9999      7.152747   6.906098   -9999      4.78       -9999     
2417.8     -9999      7.398169   7.397555   -9999      4.78       -9999     
2417.9     -9999      7.248352   7.19878    -9999      4.78       -9999     
2418       -9999      7.1        7.102439   -9999      4.78       -9999     
2418.1     -9999      7.1        7.298044   -9999      4.78       -9999     
2418.2     -9999      7.098168   7.096341   -9999      4.78       -9999     
2418.3     -9999      6.947985   6.8        -9999      4.78       -9999     
2418.4     -9999      6.802439   6.802439   -9999      4.78       -9999     
2418.5     -9999      7.002439   7.002439   -9999      4.78       -9999     
2418.6     -9999      7.200977   7.198044   -9999      4.781124   -9999     
2418.7     -9999      7.301099   7.004878   -9999      4.896264   -9999     
2418.8     -9999      7.40061    7.398777   -9999      5.010733   -9999     
2418.9     -9999      7.45055    7.302439   -9999      5.07066    -9999     
2419       -9999      7.50061    7.5        -9999      5.13       -9999     
2419.1     -9999      7.55055    7.500978   -9999      5.13       -9999     
2419.2     -9999      7.596947   7.6        -9999      5.13       -9999     
2419.3     -9999      7.346642   7.593887   -9999      5.13       -9999     
2419.4     -9999      7.098171   7.102439   -9999      5.13       -9999     
2419.5     -9999      6.948171   7.293902   -9999      5.13       -9999     
2419.6     -9999      6.801466   6.801956   -9999      5.13       -9999     
2419.7     -9999      6.951648   7.00122    -9999      5.13       -9999     
2419.8     -9999      7.101831   7.103667   -9999      5.13       -9999     
2419.9     -9999      7.251648   7.4        -9999      5.13       -9999     
2420       -9999      7.401221   7.403659   -9999      5.130122   -9999     
2420.1     -9999      7.501099   7.699022   -9999      5.14011    -9999     
2420.2     -9999      7.603053   7.604878   -9999      5.152259   -9999     
2420.3     -9999      7.853358   8.001223   -9999      5.337485   -9999     
2420.4     -9999      8.096342   8.092683   -9999      5.520244   -9999     
2420.5     -9999      7.796341   7.5        -9999      5.540244   -9999     
