~Version
 VERS              .         2.0                           : CWLS LOG ASCII STANDARD - VERSION 2.0
 WRAP              .         NO                            : ONE LINE PER DEPTH STEP
 DLM               .         SPACE                         : DELIMITING CHARACTER(SPACE TAB OR COMMA)
~Well Information
#_______________________________________________________________________________
#
#PARAMETER_NAME    .UNIT     VALUE                         : DESCRIPTION
#_______________________________________________________________________________
STRT               .M        7.8                           : First reference value
STOP               .M        2645.7                        : Last reference value
STEP               .M        0.1                           : Step increment
NULL               .         -9999                         : Missing value
COMP               .                                       : Company
WELL               .         609                           : Well name
FLD                .                                       : Field
LOC                .                                       : Location
CNTY               .                                       : County
STAT               .                                       : State
CTRY               .                                       : Country
SRVC               .                                       : Service Company
DATE               .                                       : Date
API                .                                       : API number
PROJECT_UPGRADE_TIME .         2021-03-18T21_24_49           : 
group              .         Good                          : 
~Parameter Information Block
#_______________________________________________________________________________
#
#PARAMETER_NAME    .UNIT     VALUE                         : DESCRIPTION
#_______________________________________________________________________________
SET                .         LQC                           : 
TLFamily_GK_D1910_D .         Gamma Ray                     : 
TLFamily_GK_D1911_D .         Gamma Ray                     : 
TLFamily_GK_D1911_D_2 .         Gamma Ray                     : 
TLFamily_GK_D2258_D .         Gamma Ray                     : 
TLFamily_GK_D2265_D .         Gamma Ray                     : 
TLFamily_GK_D2395_D .         Gamma Ray                     : 
TLFamily_MD        .         Measured Depth                : 
~Curve Information
#_______________________________________________________________________________
#
#LOGNAME           .UNIT     LOG_ID                        : DESCRIPTION
#_______________________________________________________________________________
MD                 .M                                      :  
GK_D1910_D         .MKR/H                                  : 10 Гамма-активность, мкр./ч -   53.0 см 
GK_D1911_D         .MKR/H                                  : 10 Гамма-активность, мкр./ч -   53.0 см 
GK_D1911_D_2       .MKR/H                                  : 10 Гамма-активность, мкр./ч -   53.0 см 
GK_D2258_D         .MKR/H                                  : 13 Гамма-активность, мкр./ч -  110.0 см 
GK_D2265_D         .MKR/H                                  : 13 Гамма-активность, мкр./ч -  110.0 см 
GK_D2395_D         .MKR/H                                  : 16 Гамма-активность, мкр./ч -  110.0 см 
~Ascii
# ...
2535       -9999      5.501221   5.502439   3.638596   -9999      -9999     
2535.1     -9999      5.601343   5.7        3.523456   -9999      -9999     
2535.2     -9999      5.705494   5.706098   3.41       -9999      -9999     
2535.3     -9999      6.156044   6.20489    3.41       -9999      -9999     
2535.4     -9999      6.6        6.6        3.409573   -9999      -9999     
2535.5     -9999      6.6        6.6        3.374573   -9999      -9999     
2535.6     -9999      6.59939    6.598777   3.34       -9999      -9999     
2535.7     -9999      6.54945    6.5        3.34       -9999      -9999     
2535.8     -9999      6.5        6.5        3.341282   -9999      -9999     
2535.9     -9999      6.5        6.5        3.446154   -9999      -9999     
2536       -9999      6.498779   6.496341   3.55       -9999      -9999     
2536.1     -9999      6.398657   6.201222   3.55       -9999      -9999     
2536.2     -9999      6.300611   6.306098   3.549939   -9999      -9999     
2536.3     -9999      6.350672   6.79511    3.544933   -9999      -9999     
2536.4     -9999      6.39939    6.401219   3.539756   -9999      -9999     
2536.5     -9999      6.349391   6.497561   3.519756   -9999      -9999     
2536.6     -9999      6.302442   6.30489    3.501709   -9999      -9999     
2536.7     -9999      6.502198   6.7        3.641538   -9999      -9999     
2536.8     -9999      6.698779   6.702445   3.78232    -9999      -9999     
2536.9     -9999      6.598901   6.895122   3.972088   -9999      -9999     
2537       -9999      6.502442   6.502439   4.160244   -9999      -9999     
2537.1     -9999      6.702686   6.702445   4.180268   -9999      -9999     
2537.2     -9999      6.898169   6.896341   4.200488   -9999      -9999     
2537.3     -9999      6.747985   6.6        4.240537   -9999      -9999     
2537.4     -9999      6.598781   6.597561   4.28       -9999      -9999     
2537.5     -9999      6.49878    6.4        4.28       -9999      -9999     
2537.6     -9999      6.398779   6.397555   4.27768    -9999      -9999     
2537.7     -9999      6.298901   6.2        4.087912   -9999      -9999     
2537.8     -9999      6.20061    6.198777   3.9        -9999      -9999     
2537.9     -9999      6.250549   6.102439   3.9        -9999      -9999     
2538       -9999      6.303053   6.302439   3.900611   -9999      -9999     
2538.1     -9999      6.553358   6.503667   3.950672   -9999      -9999     
2538.2     -9999      6.8        6.795122   4          -9999      -9999     
2538.3     -9999      6.8        6.40489    4          -9999      -9999     
2538.4     -9999      6.798171   6.8        3.997134   -9999      -9999     
2538.5     -9999      6.648171   6.796341   3.762134   -9999      -9999     
2538.6     -9999      6.49939    6.5        3.53       -9999      -9999     
2538.7     -9999      6.44945    6.49878    3.53       -9999      -9999     
2538.8     -9999      6.39939    6.396333   3.528107   -9999      -9999     
2538.9     -9999      6.349451   6.102439   3.373297   -9999      -9999     
2539       -9999      6.296947   6.297561   3.22       -9999      -9999     
2539.1     -9999      6.046642   6.096333   3.22       -9999      -9999     
2539.2     -9999      5.801221   5.8        3.225922   -9999      -9999     
2539.3     -9999      5.901343   5.802445   3.711514   -9999      -9999     
2539.4     -9999      6.00122    6.002439   4.19       -9999      -9999     
2539.5     -9999      6.101219   6.2        4.19       -9999      -9999     
2539.6     -9999      6.201831   6.206112   4.192747   -9999      -9999     
2539.7     -9999      6.351648   6.697561   4.417472   -9999      -9999     
2539.8     -9999      6.502442   6.501223   4.64       -9999      -9999     
2539.9     -9999      6.702198   6.603659   4.64       -9999      -9999     
2540       -9999      6.897558   6.898781   4.639145   -9999      -9999     
2540.1     -9999      6.697314   6.796333   4.56906    -9999      -9999     
2540.2     -9999      6.501221   6.497561   4.497924   -9999      -9999     
2540.3     -9999      6.601343   6.30489    4.327717   -9999      -9999     
2540.4     -9999      6.697561   6.696342   4.160183   -9999      -9999     
2540.5     -9999      6.497561   6.398781   4.175183   -9999      -9999     
2540.6     -9999      6.300611   6.302445   4.190305   -9999      -9999     
2540.7     -9999      6.35055    6.49878    4.215275   -9999      -9999     
2540.8     -9999      6.4        6.402445   4.24116    -9999      -9999     
2540.9     -9999      6.4        6.597561   4.336044   -9999      -9999     
2541       -9999      6.401832   6.402439   4.431587   -9999      -9999     
2541.1     -9999      6.552015   6.601223   4.561746   -9999      -9999     
2541.2     -9999      6.701221   6.7        4.69       -9999      -9999     
2541.3     -9999      6.801343   6.702445   4.69       -9999      -9999     
2541.4     -9999      6.89939    6.897561   4.690671   -9999      -9999     
2541.5     -9999      6.849391   6.70122    4.745671   -9999      -9999     
2541.6     -9999      6.800611   6.8        4.8        -9999      -9999     
2541.7     -9999      6.85055    6.80122    4.8        -9999      -9999     
2541.8     -9999      6.896947   6.89511    4.799329   -9999      -9999     
2541.9     -9999      6.647253   6.49878    4.744396   -9999      -9999     
2542       -9999      6.398169   6.398781   4.69       -9999      -9999     
2542.1     -9999      6.247985   6.297555   4.69       -9999      -9999     
2542.2     -9999      6.101221   6.1        4.690549   -9999      -9999     
2542.3     -9999      6.201343   6.102445   4.735605   -9999      -9999     
2542.4     -9999      6.303659   6.307317   4.78       -9999      -9999     
2542.5     -9999      6.603659   6.9        4.78       -9999      -9999     
2542.6     -9999      6.902442   6.901223   4.78055    -9999      -9999     
2542.7     -9999      7.102198   7.003659   4.825495   -9999      -9999     
2542.8     -9999      7.29939    7.297555   4.87       -9999      -9999     
2542.9     -9999      7.249451   7.101219   4.87       -9999      -9999     
2543       -9999      7.198168   7.2        4.868596   -9999      -9999     
2543.1     -9999      7.047985   7.196332   4.753455   -9999      -9999     
2543.2     -9999      6.901832   6.903659   4.64       -9999      -9999     
2543.3     -9999      7.052015   7.2        4.64       -9999      -9999     
2543.4     -9999      7.20061    7.20122    4.639146   -9999      -9999     
2543.5     -9999      7.25061    7.3        4.569146   -9999      -9999     
2543.6     -9999      7.29939    7.29511    4.499817   -9999      -9999     
2543.7     -9999      7.249451   6.903659   4.484835   -9999      -9999     
2543.8     -9999      7.20061    7.2        4.470915   -9999      -9999     
2543.9     -9999      7.250549   7.20122    4.545824   -9999      -9999     
2544       -9999      7.297558   7.29878    4.620427   -9999      -9999     
2544.1     -9999      7.097314   7.196332   4.65547    -9999      -9999     
2544.2     -9999      6.902442   6.901219   4.688107   -9999      -9999     
2544.3     -9999      7.102686   7.003667   4.532918   -9999      -9999     
2544.4     -9999      7.3        7.29878    4.379269   -9999      -9999     
2544.5     -9999      7.3        7.20122    4.319268   -9999      -9999     
2544.6     -9999      7.301832   7.30489    4.26       -9999      -9999     
2544.7     -9999      7.451648   7.69878    4.26       -9999      -9999     
2544.8     -9999      7.59939    7.603667   4.259878   -9999      -9999     
2544.9     -9999      7.54945    7.895122   4.24989    -9999      -9999     
2545       -9999      7.501832   7.49878    4.24       -9999      -9999     
2545.1     -9999      7.652015   7.40489    4.24       -9999      -9999     
2545.2     -9999      7.798779   7.79878    4.243419   -9999      -9999     
2545.3     -9999      7.698657   7.698777   4.523761   -9999      -9999     
