~Version
 VERS              .         2.0                           : CWLS LOG ASCII STANDARD - VERSION 2.0
 WRAP              .         NO                            : ONE LINE PER DEPTH STEP
 DLM               .         SPACE                         : DELIMITING CHARACTER(SPACE TAB OR COMMA)
~Well Information
#_______________________________________________________________________________
#
#PARAMETER_NAME    .UNIT     VALUE                         : DESCRIPTION
#_______________________________________________________________________________
STRT               .M        7.8                           : First reference value
STOP               .M        2645.7                        : Last reference value
STEP               .M        0.1                           : Step increment
NULL               .         -9999                         : Missing value
COMP               .                                       : Company
WELL               .         609                           : Well name
FLD                .                                       : Field
LOC                .                                       : Location
CNTY               .                                       : County
STAT               .                                       : State
CTRY               .                                       : Country
SRVC               .                                       : Service Company
DATE               .                                       : Date
API                .                                       : API number
PROJECT_UPGRADE_TIME .         2021-03-18T21_24_49           : 
group              .         Good                          : 
~Parameter Information Block
#_______________________________________________________________________________
#
#PARAMETER_NAME    .UNIT     VALUE                         : DESCRIPTION
#_______________________________________________________________________________
SET                .         LQC                           : 
TLFamily_GK_D1910_D .         Gamma Ray                     : 
TLFamily_GK_D1911_D .         Gamma Ray                     : 
TLFamily_GK_D1911_D_2 .         Gamma Ray                     : 
TLFamily_GK_D2258_D .         Gamma Ray                     : 
TLFamily_GK_D2265_D .         Gamma Ray                     : 
TLFamily_GK_D2395_D .         Gamma Ray                     : 
TLFamily_MD        .         Measured Depth                : 
~Curve Information
#_______________________________________________________________________________
#
#LOGNAME           .UNIT     LOG_ID                        : DESCRIPTION
#_______________________________________________________________________________
MD                 .M                                      :  
GK_D1910_D         .MKR/H                                  : 10 Гамма-активность, мкр./ч -   53.0 см 
GK_D1911_D         .MKR/H                                  : 10 Гамма-активность, мкр./ч -   53.0 см 
GK_D1911_D_2       .MKR/H                                  : 10 Гамма-активность, мкр./ч -   53.0 см 
GK_D2258_D         .MKR/H                                  : 13 Гамма-активность, мкр./ч -  110.0 см 
GK_D2265_D         .MKR/H                                  : 13 Гамма-активность, мкр./ч -  110.0 см 
GK_D2395_D         .MKR/H                                  : 16 Гамма-активность, мкр./ч -  110.0 см 
~Ascii
# ...
725.4      -9999      2.3        -9999      -9999      1.14       2.999832  
725.5      -9999      2.3        -9999      -9999      1.14       2.944832  
725.6      -9999      2.3        -9999      -9999      1.14       2.88978   
725.7      -9999      2.3        -9999      -9999      1.14       2.829799  
725.8      -9999      2.3        -9999      -9999      1.140168   2.769863  
725.9      -9999      2.3        -9999      -9999      1.195185   2.724849  
726        -9999      2.299847   -9999      -9999      1.250046   2.679924  
726.1      -9999      2.249832   -9999      -9999      1.26505    2.654916  
726.2      -9999      2.2        -9999      -9999      1.28       2.629954  
726.3      -9999      2.2        -9999      -9999      1.28       2.614959  
726.4      -9999      2.200305   -9999      -9999      1.28       2.599954  
726.5      -9999      2.300305   -9999      -9999      1.28       2.584954  
726.6      -9999      2.399634   -9999      -9999      1.28       2.569982  
726.7      -9999      2.299664   -9999      -9999      1.28       2.564983  
726.8      -9999      2.200305   -9999      -9999      1.28       2.560015  
726.9      -9999      2.300336   -9999      -9999      1.28       2.565017  
727        -9999      2.399848   -9999      -9999      1.28       2.570015  
727.1      -9999      2.349832   -9999      -9999      1.28       2.575017  
727.2      -9999      2.300305   -9999      -9999      1.28032    2.580015  
727.3      -9999      2.400275   -9999      -9999      1.385288   2.585014  
727.4      -9999      2.499847   -9999      -9999      1.49026    2.59      
727.5      -9999      2.449847   -9999      -9999      1.575259   2.59      
727.6      -9999      2.4        -9999      -9999      1.66       2.590018  
727.7      -9999      2.4        -9999      -9999      1.66       2.595017  
727.8      -9999      2.400153   -9999      -9999      1.66       2.6       
727.9      -9999      2.450168   -9999      -9999      1.66       2.6       
728        -9999      2.500153   -9999      -9999      1.66       2.60003   
728.1      -9999      2.550168   -9999      -9999      1.66       2.610034  
728.2      -9999      2.6        -9999      -9999      1.66       2.620061  
728.3      -9999      2.6        -9999      -9999      1.66       2.640055  
728.4      -9999      2.599847   -9999      -9999      1.66       2.660046  
728.5      -9999      2.549847   -9999      -9999      1.66       2.675046  
728.6      -9999      2.500183   -9999      -9999      1.660128   2.690037  
728.7      -9999      2.550168   -9999      -9999      1.695117   2.700034  
728.8      -9999      2.600305   -9999      -9999      1.730214   2.710031  
728.9      -9999      2.700336   -9999      -9999      1.800235   2.720034  
729        -9999      2.799847   -9999      -9999      1.87       2.73      
729.1      -9999      2.749832   -9999      -9999      1.87       2.73      
729.2      -9999      2.7        -9999      -9999      1.87       2.729908  
729.3      -9999      2.7        -9999      -9999      1.87       2.699918  
729.4      -9999      2.699695   -9999      -9999      1.87       2.669893  
729.5      -9999      2.599695   -9999      -9999      1.87       2.634893  
729.6      -9999      2.499268   -9999      -9999      1.87       2.599927  
729.7      -9999      2.299329   -9999      -9999      1.87       2.579933  
729.8      -9999      2.099695   -9999      -9999      1.87       2.559954  
729.9      -9999      1.999664   -9999      -9999      1.87       2.54495   
730        -9999      1.9        -9999      -9999      1.869954   2.529969  
730.1      -9999      1.9        -9999      -9999      1.85495    2.519966  
730.2      -9999      1.900153   -9999      -9999      1.839573   2.509985  
730.3      -9999      1.950137   -9999      -9999      1.699615   2.504986  
730.4      -9999      2          -9999      -9999      1.56       2.499985  
730.5      -9999      2          -9999      -9999      1.56       2.494985  
730.6      -9999      2          -9999      -9999      1.56       2.489908  
730.7      -9999      2          -9999      -9999      1.56       2.464916  
730.8      -9999      2.000153   -9999      -9999      1.56       2.439954  
730.9      -9999      2.050168   -9999      -9999      1.56       2.42495   
731        -9999      2.1        -9999      -9999      1.56       2.40997   
731.1      -9999      2.1        -9999      -9999      1.56       2.399966  
731.2      -9999      2.1        -9999      -9999      1.56       2.389985  
731.3      -9999      2.1        -9999      -9999      1.56       2.384986  
731.4      -9999      2.100305   -9999      -9999      1.559985   2.379985  
731.5      -9999      2.200305   -9999      -9999      1.554985   2.374985  
731.6      -9999      2.299817   -9999      -9999      1.549414   2.37      
731.7      -9999      2.249832   -9999      -9999      1.389463   2.37      
731.8      -9999      2.200153   -9999      -9999      1.23       2.369954  
731.9      -9999      2.250168   -9999      -9999      1.23       2.354949  
732        -9999      2.299847   -9999      -9999      1.23       2.339939  
732.1      -9999      2.249832   -9999      -9999      1.23       2.319933  
732.2      -9999      2.2        -9999      -9999      1.23       2.299969  
732.3      -9999      2.2        -9999      -9999      1.23       2.289973  
732.4      -9999      2.199695   -9999      -9999      1.23       2.279969  
732.5      -9999      2.099695   -9999      -9999      1.23       2.269969  
732.6      -9999      2.000183   -9999      -9999      1.23       2.259982  
732.7      -9999      2.050168   -9999      -9999      1.23       2.254983  
732.8      -9999      2.099695   -9999      -9999      1.23       2.25      
732.9      -9999      1.999664   -9999      -9999      1.23       2.25      
733        -9999      1.9        -9999      -9999      1.229924   2.250015  
733.1      -9999      1.9        -9999      -9999      1.204916   2.255017  
733.2      -9999      1.9        -9999      -9999      1.179969   2.260153  
733.3      -9999      1.9        -9999      -9999      1.169973   2.310137  
733.4      -9999      1.899847   -9999      -9999      1.16       2.360107  
733.5      -9999      1.849847   -9999      -9999      1.16       2.395107  
733.6      -9999      1.800183   -9999      -9999      1.16       2.430092  
733.7      -9999      1.850168   -9999      -9999      1.16       2.455084  
733.8      -9999      1.899695   -9999      -9999      1.16       2.480031  
733.9      -9999      1.799664   -9999      -9999      1.16       2.490034  
734        -9999      1.7        -9999      -9999      1.16       2.500031  
734.1      -9999      1.7        -9999      -9999      1.16       2.510034  
734.2      -9999      1.700153   -9999      -9999      1.16       2.520015  
734.3      -9999      1.750137   -9999      -9999      1.16       2.525014  
734.4      -9999      1.8        -9999      -9999      1.160153   2.53      
734.5      -9999      1.8        -9999      -9999      1.210153   2.53      
734.6      -9999      1.800549   -9999      -9999      1.260165   2.529963  
734.7      -9999      1.950503   -9999      -9999      1.305151   2.519966  
734.8      -9999      2.1        -9999      -9999      1.35       2.509982  
734.9      -9999      2.1        -9999      -9999      1.35       2.504983  
735        -9999      2.099695   -9999      -9999      1.35       2.499985  
735.1      -9999      1.999664   -9999      -9999      1.35       2.494983  
735.2      -9999      1.899847   -9999      -9999      1.35       2.49      
735.3      -9999      1.849832   -9999      -9999      1.35       2.49      
735.4      -9999      1.8        -9999      -9999      1.35       2.49      
735.5      -9999      1.8        -9999      -9999      1.35       2.49      
735.6      -9999      1.8        -9999      -9999      1.35       2.489982  
735.7      -9999      1.8        -9999      -9999      1.35       2.484983  
