~Version
 VERS              .         2.0                           : CWLS LOG ASCII STANDARD - VERSION 2.0
 WRAP              .         NO                            : ONE LINE PER DEPTH STEP
 DLM               .         SPACE                         : DELIMITING CHARACTER(SPACE TAB OR COMMA)
~Well Information
#_______________________________________________________________________________
#
#PARAMETER_NAME    .UNIT     VALUE                         : DESCRIPTION
#_______________________________________________________________________________
STRT               .M        7.8                           : First reference value
STOP               .M        2645.7                        : Last reference value
STEP               .M        0.1                           : Step increment
NULL               .         -9999                         : Missing value
COMP               .                                       : Company
WELL               .         609                           : Well name
FLD                .                                       : Field
LOC                .                                       : Location
CNTY               .                                       : County
STAT               .                                       : State
CTRY               .                                       : Country
SRVC               .                                       : Service Company
DATE               .                                       : Date
API                .                                       : API number
PROJECT_UPGRADE_TIME .         2021-03-18T21_24_49           : 
group              .         Good                          : 
~Parameter Information Block
#_______________________________________________________________________________
#
#PARAMETER_NAME    .UNIT     VALUE                         : DESCRIPTION
#_______________________________________________________________________________
SET                .         LQC                           : 
TLFamily_GK_D1910_D .         Gamma Ray                     : 
TLFamily_GK_D1911_D .         Gamma Ray                     : 
TLFamily_GK_D1911_D_2 .         Gamma Ray                     : 
TLFamily_GK_D2258_D .         Gamma Ray                     : 
TLFamily_GK_D2265_D .         Gamma Ray                     : 
TLFamily_GK_D2395_D .         Gamma Ray                     : 
TLFamily_MD        .         Measured Depth                : 
~Curve Information
#_______________________________________________________________________________
#
#LOGNAME           .UNIT     LOG_ID                        : DESCRIPTION
#_______________________________________________________________________________
MD                 .M                                      :  
GK_D1910_D         .MKR/H                                  : 10 Гамма-активность, мкр./ч -   53.0 см 
GK_D1911_D         .MKR/H                                  : 10 Гамма-активность, мкр./ч -   53.0 см 
GK_D1911_D_2       .MKR/H                                  : 10 Гамма-активность, мкр./ч -   53.0 см 
GK_D2258_D         .MKR/H                                  : 13 Гамма-активность, мкр./ч -  110.0 см 
GK_D2265_D         .MKR/H                                  : 13 Гамма-активность, мкр./ч -  110.0 см 
GK_D2395_D         .MKR/H                                  : 16 Гамма-активность, мкр./ч -  110.0 см 
~Ascii
# ...
756.6      -9999      2.4        -9999      -9999      1.87       2.690073  
756.7      -9999      2.4        -9999      -9999      1.87       2.710067  
756.8      -9999      2.4        -9999      -9999      1.87       2.730037  
756.9      -9999      2.4        -9999      -9999      1.87       2.740034  
757        -9999      2.4        -9999      -9999      1.87       2.750031  
757.1      -9999      2.4        -9999      -9999      1.87       2.760034  
757.2      -9999      2.400305   -9999      -9999      1.87       2.770015  
757.3      -9999      2.500336   -9999      -9999      1.87       2.775017  
757.4      -9999      2.599847   -9999      -9999      1.87       2.779969  
757.5      -9999      2.549847   -9999      -9999      1.87       2.769969  
757.6      -9999      2.500183   -9999      -9999      1.87       2.759817  
757.7      -9999      2.550168   -9999      -9999      1.87       2.709832  
757.8      -9999      2.600183   -9999      -9999      1.87       2.65989   
757.9      -9999      2.650168   -9999      -9999      1.87       2.629899  
758        -9999      2.700153   -9999      -9999      1.87       2.599939  
758.1      -9999      2.750168   -9999      -9999      1.87       2.579933  
758.2      -9999      2.8        -9999      -9999      1.87       2.559954  
758.3      -9999      2.8        -9999      -9999      1.87       2.54495   
758.4      -9999      2.799847   -9999      -9999      1.87       2.529969  
758.5      -9999      2.749847   -9999      -9999      1.87       2.519969  
758.6      -9999      2.7        -9999      -9999      1.869872   2.509982  
758.7      -9999      2.7        -9999      -9999      1.834882   2.504983  
758.8      -9999      2.699817   -9999      -9999      1.799744   2.499817  
758.9      -9999      2.649832   -9999      -9999      1.729765   2.449832  
759        -9999      2.599695   -9999      -9999      1.66       2.399832  
759.1      -9999      2.499664   -9999      -9999      1.66       2.344815  
759.2      -9999      2.400153   -9999      -9999      1.66       2.289893  
759.3      -9999      2.450168   -9999      -9999      1.66       2.254883  
759.4      -9999      2.499847   -9999      -9999      1.66       2.219939  
759.5      -9999      2.449847   -9999      -9999      1.66       2.199939  
759.6      -9999      2.4        -9999      -9999      1.66       2.179927  
759.7      -9999      2.4        -9999      -9999      1.66       2.159933  
759.8      -9999      2.400183   -9999      -9999      1.66       2.139963  
759.9      -9999      2.450168   -9999      -9999      1.66       2.129966  
760        -9999      2.5        -9999      -9999      1.660076   2.12      
760.1      -9999      2.5        -9999      -9999      1.685084   2.12      
760.2      -9999      2.500153   -9999      -9999      1.710534   2.120015  
760.3      -9999      2.550168   -9999      -9999      1.885587   2.125017  
760.4      -9999      2.599847   -9999      -9999      2.06       2.130015  
760.5      -9999      2.549847   -9999      -9999      2.06       2.135015  
760.6      -9999      2.500183   -9999      -9999      2.06       2.140018  
760.7      -9999      2.550168   -9999      -9999      2.06       2.145017  
760.8      -9999      2.599634   -9999      -9999      2.06       2.150018  
760.9      -9999      2.499664   -9999      -9999      2.06       2.155017  
761        -9999      2.400183   -9999      -9999      2.06       2.16      
761.1      -9999      2.450168   -9999      -9999      2.06       2.16      
761.2      -9999      2.500153   -9999      -9999      2.06       2.160092  
761.3      -9999      2.550168   -9999      -9999      2.06       2.190101  
761.4      -9999      2.599847   -9999      -9999      2.06       2.220137  
761.5      -9999      2.549817   -9999      -9999      2.06       2.265165  
761.6      -9999      2.5        -9999      -9999      2.060293   2.310091  
761.7      -9999      2.5        -9999      -9999      2.140269   2.335084  
761.8      -9999      2.5        -9999      -9999      2.22       2.360055  
761.9      -9999      2.5        -9999      -9999      2.22       2.37505   
762        -9999      2.5        -9999      -9999      2.22       2.390055  
762.1      -9999      2.5        -9999      -9999      2.22       2.405051  
762.2      -9999      2.499847   -9999      -9999      2.22       2.420015  
762.3      -9999      2.449832   -9999      -9999      2.22       2.425017  
762.4      -9999      2.400153   -9999      -9999      2.22       2.430015  
762.5      -9999      2.450183   -9999      -9999      2.22       2.435018  
762.6      -9999      2.500366   -9999      -9999      2.22       2.439945  
762.7      -9999      2.600336   -9999      -9999      2.22       2.42495   
762.8      -9999      2.700183   -9999      -9999      2.219835   2.409945  
762.9      -9999      2.750168   -9999      -9999      2.174849   2.39495   
763        -9999      2.799817   -9999      -9999      2.129909   2.379963  
763.1      -9999      2.749832   -9999      -9999      2.104916   2.369967  
763.2      -9999      2.7        -9999      -9999      2.08       2.359985  
763.3      -9999      2.7        -9999      -9999      2.08       2.354983  
763.4      -9999      2.700153   -9999      -9999      2.08       2.35      
763.5      -9999      2.750183   -9999      -9999      2.08       2.35      
763.6      -9999      2.799817   -9999      -9999      2.08       2.349982  
763.7      -9999      2.749832   -9999      -9999      2.08       2.344983  
763.8      -9999      2.7        -9999      -9999      2.08       2.340073  
763.9      -9999      2.7        -9999      -9999      2.08       2.360067  
764        -9999      2.7        -9999      -9999      2.08       2.380128  
764.1      -9999      2.7        -9999      -9999      2.08       2.415118  
764.2      -9999      2.700305   -9999      -9999      2.079924   2.450061  
764.3      -9999      2.800336   -9999      -9999      2.054916   2.470067  
764.4      -9999      2.899542   -9999      -9999      2.029863   2.490046  
764.5      -9999      2.74945    -9999      -9999      1.984835   2.505055  
764.6      -9999      2.600732   -9999      -9999      1.94       2.520037  
764.7      -9999      2.800671   -9999      -9999      1.94       2.530034  
764.8      -9999      3.000366   -9999      -9999      1.94       2.540037  
764.9      -9999      3.100336   -9999      -9999      1.94       2.550034  
765        -9999      3.2        -9999      -9999      1.94       2.56      
765.1      -9999      3.2        -9999      -9999      1.94       2.56      
765.2      -9999      3.2        -9999      -9999      1.94       2.560046  
765.3      -9999      3.2        -9999      -9999      1.94       2.57505   
765.4      -9999      3.200153   -9999      -9999      1.94       2.59003   
765.5      -9999      3.250183   -9999      -9999      1.94       2.600037  
765.6      -9999      3.3        -9999      -9999      1.939945   2.610037  
765.7      -9999      3.3        -9999      -9999      1.92495    2.620034  
765.8      -9999      3.300366   -9999      -9999      1.909799   2.630018  
765.9      -9999      3.400336   -9999      -9999      1.854815   2.635017  
766        -9999      3.499084   -9999      -9999      1.8        2.64      
766.1      -9999      3.249161   -9999      -9999      1.8        2.64      
766.2      -9999      2.999847   -9999      -9999      1.8        2.640015  
766.3      -9999      2.949832   -9999      -9999      1.8        2.645017  
766.4      -9999      2.9        -9999      -9999      1.8        2.650015  
766.5      -9999      2.9        -9999      -9999      1.8        2.655018  
766.6      -9999      2.900733   -9999      -9999      1.8        2.660073  
766.7      -9999      3.100671   -9999      -9999      1.8        2.680067  
766.8      -9999      3.300549   -9999      -9999      1.8        2.700055  
766.9      -9999      3.450503   -9999      -9999      1.8        2.71505   
