~Version
 VERS              .         2.0                           : CWLS LOG ASCII STANDARD - VERSION 2.0
 WRAP              .         NO                            : ONE LINE PER DEPTH STEP
 DLM               .         SPACE                         : DELIMITING CHARACTER(SPACE TAB OR COMMA)
~Well Information
#_______________________________________________________________________________
#
#PARAMETER_NAME    .UNIT     VALUE                         : DESCRIPTION
#_______________________________________________________________________________
STRT               .M        7.8                           : First reference value
STOP               .M        2645.7                        : Last reference value
STEP               .M        0.1                           : Step increment
NULL               .         -9999                         : Missing value
COMP               .                                       : Company
WELL               .         609                           : Well name
FLD                .                                       : Field
LOC                .                                       : Location
CNTY               .                                       : County
STAT               .                                       : State
CTRY               .                                       : Country
SRVC               .                                       : Service Company
DATE               .                                       : Date
API                .                                       : API number
PROJECT_UPGRADE_TIME .         2021-03-18T21_24_49           : 
group              .         Good                          : 
~Parameter Information Block
#_______________________________________________________________________________
#
#PARAMETER_NAME    .UNIT     VALUE                         : DESCRIPTION
#_______________________________________________________________________________
SET                .         LQC                           : 
TLFamily_GK_D1910_D .         Gamma Ray                     : 
TLFamily_GK_D1911_D .         Gamma Ray                     : 
TLFamily_GK_D1911_D_2 .         Gamma Ray                     : 
TLFamily_GK_D2258_D .         Gamma Ray                     : 
TLFamily_GK_D2265_D .         Gamma Ray                     : 
TLFamily_GK_D2395_D .         Gamma Ray                     : 
TLFamily_MD        .         Measured Depth                : 
~Curve Information
#_______________________________________________________________________________
#
#LOGNAME           .UNIT     LOG_ID                        : DESCRIPTION
#_______________________________________________________________________________
MD                 .M                                      :  
GK_D1910_D         .MKR/H                                  : 10 Гамма-активность, мкр./ч -   53.0 см 
GK_D1911_D         .MKR/H                                  : 10 Гамма-активность, мкр./ч -   53.0 см 
GK_D1911_D_2       .MKR/H                                  : 10 Гамма-активность, мкр./ч -   53.0 см 
GK_D2258_D         .MKR/H                                  : 13 Гамма-активность, мкр./ч -  110.0 см 
GK_D2265_D         .MKR/H                                  : 13 Гамма-активность, мкр./ч -  110.0 см 
GK_D2395_D         .MKR/H                                  : 16 Гамма-активность, мкр./ч -  110.0 см 
~Ascii
# ...
2358.2     -9999      7.901832   7.902439   -9999      5.889451   -9999     
2358.3     -9999      8.051648   8.100978   -9999      5.844505   -9999     
2358.4     -9999      8.198171   8.19878    -9999      5.798537   -9999     
2358.5     -9999      8.048171   8.097561   -9999      5.678536   -9999     
2358.6     -9999      7.902442   7.901956   -9999      5.56       -9999     
2358.7     -9999      8.152747   8.103659   -9999      5.56       -9999     
2358.8     -9999      8.396581   8.395109   -9999      5.56       -9999     
2358.9     -9999      8.046154   7.897561   -9999      5.56       -9999     
2359       -9999      7.701831   7.704878   -9999      5.56       -9999     
2359.1     -9999      7.851648   8.099022   -9999      5.56       -9999     
2359.2     -9999      7.99939    8.00122    -9999      5.56       -9999     
2359.3     -9999      7.94945    8.098044   -9999      5.56       -9999     
2359.4     -9999      7.90061    7.896341   -9999      5.56       -9999     
2359.5     -9999      7.95061    7.604878   -9999      5.56       -9999     
2359.6     -9999      7.999512   8          -9999      5.55956    -9999     
2359.7     -9999      7.94945    7.99878    -9999      5.514505   -9999     
2359.8     -9999      7.898535   7.899022   -9999      5.47       -9999     
2359.9     -9999      7.748352   7.797561   -9999      5.47       -9999     
2360       -9999      7.59939    7.601219   -9999      5.47       -9999     
2360.1     -9999      7.54945    7.698044   -9999      5.47       -9999     
2360.2     -9999      7.496947   7.495122   -9999      5.47       -9999     
2360.3     -9999      7.247253   7.099022   -9999      5.47       -9999     
2360.4     -9999      7          6.995122   -9999      5.47       -9999     
2360.5     -9999      7          6.604878   -9999      5.47       -9999     
2360.6     -9999      6.996581   6.997066   -9999      5.47       -9999     
2360.7     -9999      6.646154   6.695122   -9999      5.47       -9999     
2360.8     -9999      6.301954   6.300978   -9999      5.47       -9999     
2360.9     -9999      6.502198   6.403659   -9999      5.47       -9999     
2361       -9999      6.703053   6.702439   -9999      5.470854   -9999     
2361.1     -9999      6.952747   6.902934   -9999      5.540769   -9999     
2361.2     -9999      7.199389   7.2        -9999      5.61       -9999     
2361.3     -9999      7.14945    7.199022   -9999      5.61       -9999     
2361.4     -9999      7.10122    7.103659   -9999      5.61       -9999     
2361.5     -9999      7.20122    7.398781   -9999      5.61       -9999     
2361.6     -9999      7.299023   7.3        -9999      5.61       -9999     
2361.7     -9999      7.198901   7.297561   -9999      5.61       -9999     
2361.8     -9999      7.100977   7.099022   -9999      5.61       -9999     
2361.9     -9999      7.201099   7.003659   -9999      5.61       -9999     
2362       -9999      7.301221   7.30122    -9999      5.61       -9999     
2362.1     -9999      7.401099   7.400978   -9999      5.61       -9999     
2362.2     -9999      7.5        7.5        -9999      5.605788   -9999     
2362.3     -9999      7.5        7.5        -9999      5.261209   -9999     
2362.4     -9999      7.504268   7.503659   -9999      4.919269   -9999     
2362.5     -9999      7.854268   7.804878   -9999      4.859268   -9999     
2362.6     -9999      8.198047   8.198044   -9999      4.8        -9999     
2362.7     -9999      7.997802   7.997561   -9999      4.8        -9999     
2362.8     -9999      7.797558   7.799022   -9999      4.8        -9999     
2362.9     -9999      7.547253   7.695122   -9999      4.8        -9999     
2363       -9999      7.29939    7.297561   -9999      4.8        -9999     
2363.1     -9999      7.249451   7.100978   -9999      4.8        -9999     
2363.2     -9999      7.196947   7.193902   -9999      4.8        -9999     
2363.3     -9999      6.947253   6.7        -9999      4.8        -9999     
2363.4     -9999      6.70122    6.7        -9999      4.8        -9999     
2363.5     -9999      6.801219   6.702439   -9999      4.8        -9999     
2363.6     -9999      6.900977   6.9        -9999      4.800538   -9999     
2363.7     -9999      7.001099   6.902439   -9999      4.855605   -9999     
2363.8     -9999      7.101954   7.1        -9999      4.910293   -9999     
2363.9     -9999      7.302198   7.104878   -9999      4.94033    -9999     
2364       -9999      7.50061    7.502439   -9999      4.97       -9999     
2364.1     -9999      7.55055    7.699022   -9999      4.97       -9999     
2364.2     -9999      7.594505   7.590244   -9999      4.97       -9999     
2364.3     -9999      7.145055   6.799022   -9999      4.97       -9999     
2364.4     -9999      6.70122    6.702439   -9999      4.97       -9999     
2364.5     -9999      6.801219   6.9        -9999      4.97       -9999     
2364.6     -9999      6.896093   6.897066   -9999      4.97       -9999     
2364.7     -9999      6.495605   6.593902   -9999      4.97       -9999     
2364.8     -9999      6.099512   6.1        -9999      4.970635   -9999     
2364.9     -9999      6.04945    6.098781   -9999      5.035714   -9999     
2365       -9999      6.001832   6.002439   -9999      5.100915   -9999     
2365.1     -9999      6.151649   6.200978   -9999      5.175824   -9999     
2365.2     -9999      6.301221   6.302439   -9999      5.25       -9999     
2365.3     -9999      6.401099   6.5        -9999      5.25       -9999     
2365.4     -9999      6.498171   6.49878    -9999      5.25       -9999     
2365.5     -9999      6.348171   6.397561   -9999      5.25       -9999     
2365.6     -9999      6.198534   6.2        -9999      5.25       -9999     
2365.7     -9999      6.048352   6.196342   -9999      5.25       -9999     
2365.8     -9999      5.901465   5.899022   -9999      5.25       -9999     
2365.9     -9999      6.051648   5.804878   -9999      5.25       -9999     
2366       -9999      6.201221   6.203659   -9999      5.25       -9999     
2366.1     -9999      6.301099   6.499022   -9999      5.25       -9999     
2366.2     -9999      6.402442   6.404878   -9999      5.249146   -9999     
2366.3     -9999      6.602198   6.8        -9999      5.179231   -9999     
2366.4     -9999      6.80122    6.80122    -9999      5.107683   -9999     
2366.5     -9999      6.901219   6.901219   -9999      4.917683   -9999     
2366.6     -9999      6.998046   6.999022   -9999      4.73       -9999     
2366.7     -9999      6.797802   6.896341   -9999      4.73       -9999     
2366.8     -9999      6.596581   6.597066   -9999      4.73       -9999     
2366.9     -9999      6.246154   6.295122   -9999      4.73       -9999     
2367       -9999      5.903053   5.902439   -9999      4.73       -9999     
2367.1     -9999      6.152747   6.102934   -9999      4.73       -9999     
2367.2     -9999      6.402442   6.406098   -9999      4.73       -9999     
2367.3     -9999      6.602198   6.899022   -9999      4.73       -9999     
2367.4     -9999      6.802439   6.803658   -9999      4.730061   -9999     
2367.5     -9999      7.002439   7.101219   -9999      4.735061   -9999     
2367.6     -9999      7.199512   7.203912   -9999      4.740537   -9999     
2367.7     -9999      7.14945    7.593902   -9999      4.795604   -9999     
2367.8     -9999      7.09707    7.100978   -9999      4.85       -9999     
2367.9     -9999      6.796703   7.191463   -9999      4.85       -9999     
2368       -9999      6.495116   6.49878    -9999      4.85       -9999     
2368.1     -9999      6.095604   6.393154   -9999      4.85       -9999     
2368.2     -9999      5.699389   5.7        -9999      4.85       -9999     
2368.3     -9999      5.64945    5.699022   -9999      4.85       -9999     
2368.4     -9999      5.6        5.597561   -9999      4.85       -9999     
2368.5     -9999      5.6        5.402439   -9999      4.85       -9999     
