~Version
 VERS              .         2.0                           : CWLS LOG ASCII STANDARD - VERSION 2.0
 WRAP              .         NO                            : ONE LINE PER DEPTH STEP
 DLM               .         SPACE                         : DELIMITING CHARACTER(SPACE TAB OR COMMA)
~Well Information
#_______________________________________________________________________________
#
#PARAMETER_NAME    .UNIT     VALUE                         : DESCRIPTION
#_______________________________________________________________________________
STRT               .M        7.8                           : First reference value
STOP               .M        2645.7                        : Last reference value
STEP               .M        0.1                           : Step increment
NULL               .         -9999                         : Missing value
COMP               .                                       : Company
WELL               .         609                           : Well name
FLD                .                                       : Field
LOC                .                                       : Location
CNTY               .                                       : County
STAT               .                                       : State
CTRY               .                                       : Country
SRVC               .                                       : Service Company
DATE               .                                       : Date
API                .                                       : API number
PROJECT_UPGRADE_TIME .         2021-03-18T21_24_49           : 
group              .         Good                          : 
~Parameter Information Block
#_______________________________________________________________________________
#
#PARAMETER_NAME    .UNIT     VALUE                         : DESCRIPTION
#_______________________________________________________________________________
SET                .         LQC                           : 
TLFamily_GK_D1910_D .         Gamma Ray                     : 
TLFamily_GK_D1911_D .         Gamma Ray                     : 
TLFamily_GK_D1911_D_2 .         Gamma Ray                     : 
TLFamily_GK_D2258_D .         Gamma Ray                     : 
TLFamily_GK_D2265_D .         Gamma Ray                     : 
TLFamily_GK_D2395_D .         Gamma Ray                     : 
TLFamily_MD        .         Measured Depth                : 
~Curve Information
#_______________________________________________________________________________
#
#LOGNAME           .UNIT     LOG_ID                        : DESCRIPTION
#_______________________________________________________________________________
MD                 .M                                      :  
GK_D1910_D         .MKR/H                                  : 10 Гамма-активность, мкр./ч -   53.0 см 
GK_D1911_D         .MKR/H                                  : 10 Гамма-активность, мкр./ч -   53.0 см 
GK_D1911_D_2       .MKR/H                                  : 10 Гамма-активность, мкр./ч -   53.0 см 
GK_D2258_D         .MKR/H                                  : 13 Гамма-активность, мкр./ч -  110.0 см 
GK_D2265_D         .MKR/H                                  : 13 Гамма-активность, мкр./ч -  110.0 см 
GK_D2395_D         .MKR/H                                  : 16 Гамма-активность, мкр./ч -  110.0 см 
~Ascii
# ...
600.6      -9999      4.6        -9999      -9999      3.24       6.340199  
600.7      -9999      4.6        -9999      -9999      3.24       6.405179  
600.8      -9999      4.600366   -9999      -9999      3.24       6.470085  
600.9      -9999      4.750412   -9999      -9999      3.24       6.505096  
601        -9999      4.900366   -9999      -9999      3.240427   6.540049  
601.1      -9999      5.050412   -9999      -9999      3.415481   6.560055  
601.2      -9999      5.200122   -9999      -9999      3.590329   6.579854  
601.3      -9999      5.250107   -9999      -9999      3.725288   6.519872  
601.4      -9999      5.299878   -9999      -9999      3.86       6.45978   
601.5      -9999      5.249878   -9999      -9999      3.86       6.369781  
601.6      -9999      5.200305   -9999      -9999      3.86       6.279832  
601.7      -9999      5.300274   -9999      -9999      3.86       6.224849  
601.8      -9999      5.399634   -9999      -9999      3.86       6.169927  
601.9      -9999      5.249588   -9999      -9999      3.86       6.139918  
602        -9999      5.1        -9999      -9999      3.86       6.109951  
602.1      -9999      5.1        -9999      -9999      3.86       6.089945  
602.2      -9999      5.100122   -9999      -9999      3.86       6.069939  
602.3      -9999      5.150106   -9999      -9999      3.86       6.044947  
602.4      -9999      5.199634   -9999      -9999      3.859902   6.019878  
602.5      -9999      5.049634   -9999      -9999      3.819902   5.969878  
602.6      -9999      4.899695   -9999      -9999      3.779893   5.919847  
602.7      -9999      4.799726   -9999      -9999      3.744904   5.869863  
602.8      -9999      4.699695   -9999      -9999      3.71       5.819832  
602.9      -9999      4.599725   -9999      -9999      3.71       5.764849  
603        -9999      4.5        -9999      -9999      3.71       5.709915  
603.1      -9999      4.5        -9999      -9999      3.71       5.674904  
603.2      -9999      4.50061    -9999      -9999      3.71       5.639939  
603.3      -9999      4.750687   -9999      -9999      3.71       5.614932  
603.4      -9999      5.000122   -9999      -9999      3.71       5.589963  
603.5      -9999      5.050122   -9999      -9999      3.71       5.574964  
603.6      -9999      5.1        -9999      -9999      3.71       5.560076  
603.7      -9999      5.1        -9999      -9999      3.71       5.585069  
603.8      -9999      5.100152   -9999      -9999      3.709695   5.610168  
603.9      -9999      5.150137   -9999      -9999      3.609725   5.665151  
604        -9999      5.199756   -9999      -9999      3.509707   5.720085  
604.1      -9999      5.099725   -9999      -9999      3.38967    5.755096  
604.2      -9999      5          -9999      -9999      3.27       5.790049  
604.3      -9999      5          -9999      -9999      3.27       5.810055  
604.4      -9999      5          -9999      -9999      3.27       5.830037  
604.5      -9999      5          -9999      -9999      3.27       5.845037  
604.6      -9999      4.999847   -9999      -9999      3.27       5.860031  
604.7      -9999      4.949863   -9999      -9999      3.27       5.870028  
604.8      -9999      4.9        -9999      -9999      3.27       5.880015  
604.9      -9999      4.9        -9999      -9999      3.27       5.885014  
605        -9999      4.899878   -9999      -9999      3.27       5.890073  
605.1      -9999      4.849863   -9999      -9999      3.27       5.920082  
605.2      -9999      4.800122   -9999      -9999      3.27022    5.950061  
605.3      -9999      4.850137   -9999      -9999      3.360247   5.975069  
605.4      -9999      4.900122   -9999      -9999      3.450354   6.000037  
605.5      -9999      4.950122   -9999      -9999      3.595354   6.015037  
605.6      -9999      4.999542   -9999      -9999      3.74       6.030031  
605.7      -9999      4.849588   -9999      -9999      3.74       6.040028  
605.8      -9999      4.699847   -9999      -9999      3.74       6.050015  
605.9      -9999      4.649863   -9999      -9999      3.74       6.055014  
606        -9999      4.600366   -9999      -9999      3.74       6.060012  
606.1      -9999      4.750412   -9999      -9999      3.74       6.065014  
606.2      -9999      4.900244   -9999      -9999      3.74       6.069988  
606.3      -9999      5.000275   -9999      -9999      3.74       6.064986  
606.4      -9999      5.099878   -9999      -9999      3.74       6.059963  
606.5      -9999      5.049878   -9999      -9999      3.74       6.044963  
606.6      -9999      4.999695   -9999      -9999      3.739985   6.029954  
606.7      -9999      4.899725   -9999      -9999      3.734986   6.014959  
606.8      -9999      4.800305   -9999      -9999      3.72997    5.999985  
606.9      -9999      4.900275   -9999      -9999      3.719973   5.994986  
607        -9999      4.999756   -9999      -9999      3.71       5.989987  
607.1      -9999      4.899725   -9999      -9999      3.71       5.984986  
607.2      -9999      4.8        -9999      -9999      3.71       5.979988  
607.3      -9999      4.8        -9999      -9999      3.71       5.974986  
607.4      -9999      4.8        -9999      -9999      3.71       5.97      
607.5      -9999      4.8        -9999      -9999      3.71       5.97      
607.6      -9999      4.800458   -9999      -9999      3.71       5.969832  
607.7      -9999      4.950412   -9999      -9999      3.71       5.914849  
607.8      -9999      5.099847   -9999      -9999      3.71       5.85971   
607.9      -9999      5.049863   -9999      -9999      3.71       5.764739  
608        -9999      5.000366   -9999      -9999      3.709988   5.669854  
608.1      -9999      5.150412   -9999      -9999      3.704986   5.609835  
608.2      -9999      5.299634   -9999      -9999      3.699927   5.549902  
608.3      -9999      5.149588   -9999      -9999      3.669918   5.50989   
608.4      -9999      4.999878   -9999      -9999      3.64       5.469939  
608.5      -9999      4.949878   -9999      -9999      3.64       5.444939  
608.6      -9999      4.899848   -9999      -9999      3.64       5.419954  
608.7      -9999      4.849863   -9999      -9999      3.64       5.404959  
608.8      -9999      4.799848   -9999      -9999      3.64       5.389969  
608.9      -9999      4.749863   -9999      -9999      3.64       5.379972  
609        -9999      4.7        -9999      -9999      3.64       5.369939  
609.1      -9999      4.7        -9999      -9999      3.64       5.344932  
609.2      -9999      4.7        -9999      -9999      3.64       5.319952  
609.3      -9999      4.7        -9999      -9999      3.64       5.299945  
609.4      -9999      4.7        -9999      -9999      3.640024   5.279963  
609.5      -9999      4.7        -9999      -9999      3.650024   5.264964  
609.6      -9999      4.699695   -9999      -9999      3.660153   5.249985  
609.7      -9999      4.599725   -9999      -9999      3.710137   5.244986  
609.8      -9999      4.500458   -9999      -9999      3.76       5.239985  
609.9      -9999      4.650412   -9999      -9999      3.76       5.234986  
610        -9999      4.800122   -9999      -9999      3.76       5.229988  
610.1      -9999      4.850137   -9999      -9999      3.76       5.224986  
610.2      -9999      4.899756   -9999      -9999      3.76       5.220317  
610.3      -9999      4.799726   -9999      -9999      3.76       5.350357  
610.4      -9999      4.700244   -9999      -9999      3.76       5.480244  
610.5      -9999      4.800244   -9999      -9999      3.76       5.580244  
610.6      -9999      4.899695   -9999      -9999      3.76       5.680137  
610.7      -9999      4.799726   -9999      -9999      3.76       5.725123  
610.8      -9999      4.700152   -9999      -9999      3.76       5.770107  
610.9      -9999      4.750137   -9999      -9999      3.76       5.805096  
