~Version
 VERS              .         2.0                           : CWLS LOG ASCII STANDARD - VERSION 2.0
 WRAP              .         NO                            : ONE LINE PER DEPTH STEP
 DLM               .         SPACE                         : DELIMITING CHARACTER(SPACE TAB OR COMMA)
~Well Information
#_______________________________________________________________________________
#
#PARAMETER_NAME    .UNIT     VALUE                         : DESCRIPTION
#_______________________________________________________________________________
STRT               .M        7.8                           : First reference value
STOP               .M        2645.7                        : Last reference value
STEP               .M        0.1                           : Step increment
NULL               .         -9999                         : Missing value
COMP               .                                       : Company
WELL               .         609                           : Well name
FLD                .                                       : Field
LOC                .                                       : Location
CNTY               .                                       : County
STAT               .                                       : State
CTRY               .                                       : Country
SRVC               .                                       : Service Company
DATE               .                                       : Date
API                .                                       : API number
PROJECT_UPGRADE_TIME .         2021-03-18T21_24_49           : 
group              .         Good                          : 
~Parameter Information Block
#_______________________________________________________________________________
#
#PARAMETER_NAME    .UNIT     VALUE                         : DESCRIPTION
#_______________________________________________________________________________
SET                .         LQC                           : 
TLFamily_GK_D1910_D .         Gamma Ray                     : 
TLFamily_GK_D1911_D .         Gamma Ray                     : 
TLFamily_GK_D1911_D_2 .         Gamma Ray                     : 
TLFamily_GK_D2258_D .         Gamma Ray                     : 
TLFamily_GK_D2265_D .         Gamma Ray                     : 
TLFamily_GK_D2395_D .         Gamma Ray                     : 
TLFamily_MD        .         Measured Depth                : 
~Curve Information
#_______________________________________________________________________________
#
#LOGNAME           .UNIT     LOG_ID                        : DESCRIPTION
#_______________________________________________________________________________
MD                 .M                                      :  
GK_D1910_D         .MKR/H                                  : 10 Гамма-активность, мкр./ч -   53.0 см 
GK_D1911_D         .MKR/H                                  : 10 Гамма-активность, мкр./ч -   53.0 см 
GK_D1911_D_2       .MKR/H                                  : 10 Гамма-активность, мкр./ч -   53.0 см 
GK_D2258_D         .MKR/H                                  : 13 Гамма-активность, мкр./ч -  110.0 см 
GK_D2265_D         .MKR/H                                  : 13 Гамма-активность, мкр./ч -  110.0 см 
GK_D2395_D         .MKR/H                                  : 16 Гамма-активность, мкр./ч -  110.0 см 
~Ascii
# ...
663        -9999      2.900153   -9999      -9999      2.340107   2.709893  
663.1      -9999      2.950137   -9999      -9999      2.375096   2.674904  
663.2      -9999      2.999847   -9999      -9999      2.41       2.639924  
663.3      -9999      2.949863   -9999      -9999      2.41       2.614931  
663.4      -9999      2.899878   -9999      -9999      2.41       2.589963  
663.5      -9999      2.849847   -9999      -9999      2.41       2.574954  
663.6      -9999      2.799847   -9999      -9999      2.41       2.559969  
663.7      -9999      2.749832   -9999      -9999      2.41       2.549966  
663.8      -9999      2.7        -9999      -9999      2.41       2.539893  
663.9      -9999      2.7        -9999      -9999      2.41       2.504904  
664        -9999      2.700153   -9999      -9999      2.41       2.469908  
664.1      -9999      2.750137   -9999      -9999      2.41       2.439918  
664.2      -9999      2.8        -9999      -9999      2.410092   2.409924  
664.3      -9999      2.8        -9999      -9999      2.440083   2.384931  
664.4      -9999      2.8        -9999      -9999      2.470049   2.359976  
664.5      -9999      2.8        -9999      -9999      2.490061   2.349969  
664.6      -9999      2.800305   -9999      -9999      2.51       2.339969  
664.7      -9999      2.900336   -9999      -9999      2.51       2.329966  
664.8      -9999      2.999695   -9999      -9999      2.51       2.319985  
664.9      -9999      2.899725   -9999      -9999      2.51       2.314986  
665        -9999      2.800153   -9999      -9999      2.51       2.309985  
665.1      -9999      2.850137   -9999      -9999      2.51       2.304986  
665.2      -9999      2.899848   -9999      -9999      2.51       2.30003   
665.3      -9999      2.849863   -9999      -9999      2.51       2.310027  
665.4      -9999      2.8        -9999      -9999      2.51       2.320012  
665.5      -9999      2.8        -9999      -9999      2.51       2.325015  
665.6      -9999      2.800153   -9999      -9999      2.509771   2.330015  
665.7      -9999      2.850168   -9999      -9999      2.434748   2.335017  
665.8      -9999      2.899695   -9999      -9999      2.359649   2.340015  
665.9      -9999      2.799726   -9999      -9999      2.244684   2.345014  
666        -9999      2.700153   -9999      -9999      2.13       2.35      
666.1      -9999      2.750137   -9999      -9999      2.13       2.35      
666.2      -9999      2.8        -9999      -9999      2.13       2.350015  
666.3      -9999      2.8        -9999      -9999      2.13       2.355014  
666.4      -9999      2.799634   -9999      -9999      2.13       2.360024  
666.5      -9999      2.649542   -9999      -9999      2.13       2.370031  
666.6      -9999      2.499695   -9999      -9999      2.13       2.380137  
666.7      -9999      2.399664   -9999      -9999      2.13       2.425151  
666.8      -9999      2.300305   -9999      -9999      2.13       2.470092  
666.9      -9999      2.400275   -9999      -9999      2.13       2.500082  
667        -9999      2.500153   -9999      -9999      2.129939   2.530046  
667.1      -9999      2.550137   -9999      -9999      2.109945   2.545041  
667.2      -9999      2.600152   -9999      -9999      2.089634   2.56003   
667.3      -9999      2.650137   -9999      -9999      1.96967    2.570027  
667.4      -9999      2.699756   -9999      -9999      1.85       2.580024  
667.5      -9999      2.599695   -9999      -9999      1.85       2.59003   
667.6      -9999      2.500153   -9999      -9999      1.85       2.600015  
667.7      -9999      2.550168   -9999      -9999      1.85       2.605017  
667.8      -9999      2.599847   -9999      -9999      1.85       2.610091  
667.9      -9999      2.549863   -9999      -9999      1.85       2.640082  
668        -9999      2.5        -9999      -9999      1.85       2.670122  
668.1      -9999      2.5        -9999      -9999      1.85       2.71011   
668.2      -9999      2.500153   -9999      -9999      1.85       2.750076  
668.3      -9999      2.550137   -9999      -9999      1.85       2.775069  
668.4      -9999      2.600244   -9999      -9999      1.85       2.800037  
668.5      -9999      2.700305   -9999      -9999      1.85       2.815046  
668.6      -9999      2.799695   -9999      -9999      1.850336   2.83003   
668.7      -9999      2.699664   -9999      -9999      1.960369   2.840034  
668.8      -9999      2.599695   -9999      -9999      2.070015   2.85003   
668.9      -9999      2.499725   -9999      -9999      2.075014   2.860027  
669        -9999      2.399695   -9999      -9999      2.08       2.870244  
669.1      -9999      2.299726   -9999      -9999      2.08       2.95022   
669.2      -9999      2.199847   -9999      -9999      2.08       3.030229  
669.3      -9999      2.149863   -9999      -9999      2.08       3.105206  
669.4      -9999      2.100122   -9999      -9999      2.08       3.180122  
669.5      -9999      2.150153   -9999      -9999      2.08       3.230153  
669.6      -9999      2.200458   -9999      -9999      2.08       3.280092  
669.7      -9999      2.350503   -9999      -9999      2.08       3.310101  
669.8      -9999      2.5        -9999      -9999      2.08       3.340061  
669.9      -9999      2.5        -9999      -9999      2.08       3.360055  
670        -9999      2.500153   -9999      -9999      2.08       3.380046  
670.1      -9999      2.550137   -9999      -9999      2.08       3.395041  
670.2      -9999      2.600152   -9999      -9999      2.08       3.410015  
670.3      -9999      2.650137   -9999      -9999      2.08       3.415014  
670.4      -9999      2.699512   -9999      -9999      2.08       3.419927  
670.5      -9999      2.499389   -9999      -9999      2.08       3.389908  
670.6      -9999      2.300153   -9999      -9999      2.08       3.359954  
670.7      -9999      2.350168   -9999      -9999      2.08       3.344949  
670.8      -9999      2.399848   -9999      -9999      2.08       3.329954  
670.9      -9999      2.349863   -9999      -9999      2.08       3.314959  
671        -9999      2.300153   -9999      -9999      2.08       3.299985  
671.1      -9999      2.350137   -9999      -9999      2.08       3.294986  
671.2      -9999      2.400153   -9999      -9999      2.08       3.289985  
671.3      -9999      2.450137   -9999      -9999      2.08       3.284986  
671.4      -9999      2.5        -9999      -9999      2.079573   3.279988  
671.5      -9999      2.5        -9999      -9999      1.904466   3.274985  
671.6      -9999      2.499847   -9999      -9999      1.729786   3.269893  
671.7      -9999      2.449832   -9999      -9999      1.659765   3.234883  
671.8      -9999      2.399695   -9999      -9999      1.59       3.199786  
671.9      -9999      2.299726   -9999      -9999      1.59       3.129808  
672        -9999      2.2        -9999      -9999      1.59       3.059863  
672.1      -9999      2.2        -9999      -9999      1.59       3.014876  
672.2      -9999      2.200153   -9999      -9999      1.59       2.969908  
672.3      -9999      2.250137   -9999      -9999      1.59       2.939918  
672.4      -9999      2.3        -9999      -9999      1.59       2.909951  
672.5      -9999      2.3        -9999      -9999      1.59       2.889939  
672.6      -9999      2.299695   -9999      -9999      1.59       2.869954  
672.7      -9999      2.199664   -9999      -9999      1.59       2.854949  
672.8      -9999      2.099847   -9999      -9999      1.589924   2.839985  
672.9      -9999      2.049863   -9999      -9999      1.564931   2.834986  
673        -9999      2.000305   -9999      -9999      1.539924   2.83      
673.1      -9999      2.100275   -9999      -9999      1.514931   2.83      
673.2      -9999      2.199847   -9999      -9999      1.49       2.830015  
673.3      -9999      2.149863   -9999      -9999      1.49       2.835014  
