~Version
 VERS              .         2.0                           : CWLS LOG ASCII STANDARD - VERSION 2.0
 WRAP              .         NO                            : ONE LINE PER DEPTH STEP
 DLM               .         SPACE                         : DELIMITING CHARACTER(SPACE TAB OR COMMA)
~Well Information
#_______________________________________________________________________________
#
#PARAMETER_NAME    .UNIT     VALUE                         : DESCRIPTION
#_______________________________________________________________________________
STRT               .M        7.8                           : First reference value
STOP               .M        2645.7                        : Last reference value
STEP               .M        0.1                           : Step increment
NULL               .         -9999                         : Missing value
COMP               .                                       : Company
WELL               .         609                           : Well name
FLD                .                                       : Field
LOC                .                                       : Location
CNTY               .                                       : County
STAT               .                                       : State
CTRY               .                                       : Country
SRVC               .                                       : Service Company
DATE               .                                       : Date
API                .                                       : API number
PROJECT_UPGRADE_TIME .         2021-03-18T21_24_49           : 
group              .         Good                          : 
~Parameter Information Block
#_______________________________________________________________________________
#
#PARAMETER_NAME    .UNIT     VALUE                         : DESCRIPTION
#_______________________________________________________________________________
SET                .         LQC                           : 
TLFamily_GK_D1910_D .         Gamma Ray                     : 
TLFamily_GK_D1911_D .         Gamma Ray                     : 
TLFamily_GK_D1911_D_2 .         Gamma Ray                     : 
TLFamily_GK_D2258_D .         Gamma Ray                     : 
TLFamily_GK_D2265_D .         Gamma Ray                     : 
TLFamily_GK_D2395_D .         Gamma Ray                     : 
TLFamily_MD        .         Measured Depth                : 
~Curve Information
#_______________________________________________________________________________
#
#LOGNAME           .UNIT     LOG_ID                        : DESCRIPTION
#_______________________________________________________________________________
MD                 .M                                      :  
GK_D1910_D         .MKR/H                                  : 10 Гамма-активность, мкр./ч -   53.0 см 
GK_D1911_D         .MKR/H                                  : 10 Гамма-активность, мкр./ч -   53.0 см 
GK_D1911_D_2       .MKR/H                                  : 10 Гамма-активность, мкр./ч -   53.0 см 
GK_D2258_D         .MKR/H                                  : 13 Гамма-активность, мкр./ч -  110.0 см 
GK_D2265_D         .MKR/H                                  : 13 Гамма-активность, мкр./ч -  110.0 см 
GK_D2395_D         .MKR/H                                  : 16 Гамма-активность, мкр./ч -  110.0 см 
~Ascii
# ...
2628.6     7.2        7.397558   7.391443   -9999      -9999      -9999     
2628.7     7.2        7.197802   6.703659   -9999      -9999      -9999     
2628.8     7.201221   7.004884   7.00489    -9999      -9999      -9999     
2628.9     7.301343   7.405373   7.405854   -9999      -9999      -9999     
2629       7.403053   7.796947   7.796341   -9999      -9999      -9999     
2629.1     7.653358   7.546642   7.497555   -9999      -9999      -9999     
2629.2     7.896337   7.300611   7.303658   -9999      -9999      -9999     
2629.3     7.595971   7.350672   7.597555   -9999      -9999      -9999     
2629.4     7.300732   7.396341   7.4        -9999      -9999      -9999     
2629.5     7.35061    7.146951   7.393902   -9999      -9999      -9999     
2629.6     7.398169   6.901832   6.898777   -9999      -9999      -9999     
2629.7     7.248352   7.051648   6.804878   -9999      -9999      -9999     
2629.8     7.09939    7.198779   7.201222   -9999      -9999      -9999     
2629.9     7.049328   7.098657   7.29561    -9999      -9999      -9999     
2630       6.998168   7.00061    6.997561   -9999      -9999      -9999     
2630.1     6.847985   7.050672   6.803668   -9999      -9999      -9999     
2630.2     6.703663   7.101221   7.097561   -9999      -9999      -9999     
2630.3     7.004029   7.201343   6.90489    -9999      -9999      -9999     
2630.4     7.302927   7.302927   7.302927   -9999      -9999      -9999     
2630.5     7.502439   7.502439   7.502439   -9999      -9999      -9999     
2630.6     7.701831   7.696947   7.69511    -9999      -9999      -9999     
2630.7     7.851648   7.447253   7.29878    -9999      -9999      -9999     
2630.8     7.998168   7.198779   7.19511    -9999      -9999      -9999     
2630.9     7.847985   7.098657   6.802927   -9999      -9999      -9999     
2631       7.70061    7          7.004878   -9999      -9999      -9999     
2631.1     7.750671   7          7.39511    -9999      -9999      -9999     
2631.2     7.796947   7.001221   6.99878    -9999      -9999      -9999     
2631.3     7.546642   7.101343   6.903667   -9999      -9999      -9999     
2631.4     7.301464   7.203659   7.201463   -9999      -9999      -9999     
2631.5     7.401219   7.453049   7.304878   -9999      -9999      -9999     
2631.6     7.50061    7.696947   7.697555   -9999      -9999      -9999     
2631.7     7.55055    7.447253   7.496341   -9999      -9999      -9999     
2631.8     7.603053   7.204273   7.203667   -9999      -9999      -9999     
2631.9     7.853358   7.554701   7.505854   -9999      -9999      -9999     
2632       8.09878    7.89939    7.901219   -9999      -9999      -9999     
2632.1     7.998657   7.849329   7.997555   -9999      -9999      -9999     
2632.2     7.9        7.800611   7.80122    -9999      -9999      -9999     
2632.3     7.9        7.850672   7.9        -9999      -9999      -9999     
2632.4     7.9        7.897073   7.898537   -9999      -9999      -9999     
2632.5     7.9        7.697561   7.796341   -9999      -9999      -9999     
2632.6     7.9        7.501221   7.5        -9999      -9999      -9999     
2632.7     7.9        7.601099   7.502439   -9999      -9999      -9999     
2632.8     7.898169   7.7        7.7        -9999      -9999      -9999     
2632.9     7.747985   7.7        7.7        -9999      -9999      -9999     
2633       7.6        7.699389   7.697561   -9999      -9999      -9999     
2633.1     7.6        7.649328   7.501223   -9999      -9999      -9999     
2633.2     7.601221   7.602442   7.6        -9999      -9999      -9999     
2633.3     7.701343   7.802686   7.60489    -9999      -9999      -9999     
2633.4     7.797805   8          8.004391   -9999      -9999      -9999     
2633.5     7.648171   8          8.296342   -9999      -9999      -9999     
2633.6     7.501221   8.002442   8.006112   -9999      -9999      -9999     
2633.7     7.601099   8.202198   8.49878    -9999      -9999      -9999     
2633.8     7.699389   8.395116   8.39022    -9999      -9999      -9999     
2633.9     7.649328   7.994627   7.6        -9999      -9999      -9999     
2634       7.603053   7.59939    7.602439   -9999      -9999      -9999     
2634.1     7.853358   7.549328   7.796333   -9999      -9999      -9999     
2634.2     8.102443   7.503053   7.504878   -9999      -9999      -9999     
2634.3     8.302687   7.753358   7.901223   -9999      -9999      -9999     
2634.4     8.497805   7.998537   8.001464   -9999      -9999      -9999     
2634.5     8.34817    7.898781   8.096342   -9999      -9999      -9999     
2634.6     8.194506   7.79939    7.802445   -9999      -9999      -9999     
2634.7     7.745055   7.749451   7.996341   -9999      -9999      -9999     
2634.8     7.29939    7.698779   7.697555   -9999      -9999      -9999     
2634.9     7.249329   7.598657   7.5        -9999      -9999      -9999     
2635       7.2        7.50061    7.5        -9999      -9999      -9999     
2635.1     7.2        7.550672   7.501223   -9999      -9999      -9999     
2635.2     7.20061    7.59939    7.597561   -9999      -9999      -9999     
2635.3     7.250671   7.549328   7.401223   -9999      -9999      -9999     
2635.4     7.303659   7.50439    7.50878    -9999      -9999      -9999     
2635.5     7.553049   7.803659   8.1        -9999      -9999      -9999     
2635.6     7.800611   8.09939    8.097555   -9999      -9999      -9999     
2635.7     7.85055    8.049451   7.901219   -9999      -9999      -9999     
2635.8     7.89939    7.998168   8.001223   -9999      -9999      -9999     
2635.9     7.849329   7.847985   8.094147   -9999      -9999      -9999     
2636       7.797558   7.697558   7.7        -9999      -9999      -9999     
2636.1     7.597314   7.497314   7.69511    -9999      -9999      -9999     
2636.2     7.396947   7.302442   7.304878   -9999      -9999      -9999     
2636.3     7.146642   7.502686   7.7        -9999      -9999      -9999     
2636.4     6.900732   7.697804   7.69561    -9999      -9999      -9999     
2636.5     6.95061    7.548171   7.4        -9999      -9999      -9999     
2636.6     7          7.397558   7.398777   -9999      -9999      -9999     
2636.7     7          7.197802   7.296341   -9999      -9999      -9999     
2636.8     7.001832   7.00061    6.99511    -9999      -9999      -9999     
2636.9     7.152015   7.050672   6.607317   -9999      -9999      -9999     
2637       7.301221   7.10061    7.102439   -9999      -9999      -9999     
2637.1     7.401343   7.150671   7.298778   -9999      -9999      -9999     
2637.2     7.498779   7.2        7.197561   -9999      -9999      -9999     
2637.3     7.398657   7.2        7.002445   -9999      -9999      -9999     
2637.4     7.298537   7.200732   7.201463   -9999      -9999      -9999     
2637.5     7.198781   7.25061    7.3        -9999      -9999      -9999     
2637.6     7.102442   7.300611   7.303668   -9999      -9999      -9999     
2637.7     7.302198   7.35055    7.597561   -9999      -9999      -9999     
2637.8     7.497558   7.4        7.398777   -9999      -9999      -9999     
2637.9     7.297314   7.4        7.301464   -9999      -9999      -9999     
2638       7.10061    7.40061    7.403659   -9999      -9999      -9999     
2638.1     7.150671   7.450672   7.697555   -9999      -9999      -9999     
2638.2     7.202442   7.498168   7.5        -9999      -9999      -9999     
2638.3     7.402686   7.347985   7.496333   -9999      -9999      -9999     
2638.4     7.59561    7.202927   7.202927   -9999      -9999      -9999     
2638.5     7.296341   7.402439   7.402439   -9999      -9999      -9999     
2638.6     7.003053   7.60061    7.602445   -9999      -9999      -9999     
2638.7     7.252747   7.650549   7.79878    -9999      -9999      -9999     
2638.8     7.5        7.697558   7.697555   -9999      -9999      -9999     
2638.9     7.5        7.497314   7.497073   -9999      -9999      -9999     
