~Version
 VERS              .         2.0                           : CWLS LOG ASCII STANDARD - VERSION 2.0
 WRAP              .         NO                            : ONE LINE PER DEPTH STEP
 DLM               .         SPACE                         : DELIMITING CHARACTER(SPACE TAB OR COMMA)
~Well Information
#_______________________________________________________________________________
#
#PARAMETER_NAME    .UNIT     VALUE                         : DESCRIPTION
#_______________________________________________________________________________
STRT               .M        7.8                           : First reference value
STOP               .M        2645.7                        : Last reference value
STEP               .M        0.1                           : Step increment
NULL               .         -9999                         : Missing value
COMP               .                                       : Company
WELL               .         609                           : Well name
FLD                .                                       : Field
LOC                .                                       : Location
CNTY               .                                       : County
STAT               .                                       : State
CTRY               .                                       : Country
SRVC               .                                       : Service Company
DATE               .                                       : Date
API                .                                       : API number
PROJECT_UPGRADE_TIME .         2021-03-18T21_24_49           : 
group              .         Good                          : 
~Parameter Information Block
#_______________________________________________________________________________
#
#PARAMETER_NAME    .UNIT     VALUE                         : DESCRIPTION
#_______________________________________________________________________________
SET                .         LQC                           : 
TLFamily_GK_D1910_D .         Gamma Ray                     : 
TLFamily_GK_D1911_D .         Gamma Ray                     : 
TLFamily_GK_D1911_D_2 .         Gamma Ray                     : 
TLFamily_GK_D2258_D .         Gamma Ray                     : 
TLFamily_GK_D2265_D .         Gamma Ray                     : 
TLFamily_GK_D2395_D .         Gamma Ray                     : 
TLFamily_MD        .         Measured Depth                : 
~Curve Information
#_______________________________________________________________________________
#
#LOGNAME           .UNIT     LOG_ID                        : DESCRIPTION
#_______________________________________________________________________________
MD                 .M                                      :  
GK_D1910_D         .MKR/H                                  : 10 Гамма-активность, мкр./ч -   53.0 см 
GK_D1911_D         .MKR/H                                  : 10 Гамма-активность, мкр./ч -   53.0 см 
GK_D1911_D_2       .MKR/H                                  : 10 Гамма-активность, мкр./ч -   53.0 см 
GK_D2258_D         .MKR/H                                  : 13 Гамма-активность, мкр./ч -  110.0 см 
GK_D2265_D         .MKR/H                                  : 13 Гамма-активность, мкр./ч -  110.0 см 
GK_D2395_D         .MKR/H                                  : 16 Гамма-активность, мкр./ч -  110.0 см 
~Ascii
# ...
2566.2     -9999      5.298169   5.30122    5.042015   -9999      -9999     
2566.3     -9999      5.147985   5.39511    5.207216   -9999      -9999     
2566.4     -9999      4.998171   5.002439   5.37       -9999      -9999     
2566.5     -9999      4.848171   5.193902   5.37       -9999      -9999     
2566.6     -9999      4.703053   4.701222   5.369878   -9999      -9999     
2566.7     -9999      4.952747   4.804878   5.35989    -9999      -9999     
2566.8     -9999      5.203053   5.201222   5.349145   -9999      -9999     
2566.9     -9999      5.452747   5.304878   5.279231   -9999      -9999     
2567       -9999      5.702442   5.704878   5.209878   -9999      -9999     
2567.1     -9999      5.902686   6.1        5.199866   -9999      -9999     
2567.2     -9999      6.101831   6.102439   5.18939    -9999      -9999     
2567.3     -9999      6.252015   6.301223   5.139328   -9999      -9999     
2567.4     -9999      6.398171   6.396341   5.089817   -9999      -9999     
2567.5     -9999      6.248171   6.1        5.074817   -9999      -9999     
2567.6     -9999      6.10061    6.1        5.059329   -9999      -9999     
2567.7     -9999      6.150549   6.101219   5.004395   -9999      -9999     
2567.8     -9999      6.205494   6.208557   4.95       -9999      -9999     
2567.9     -9999      6.654945   6.902439   4.95       -9999      -9999     
2568       -9999      7.096337   7.095122   4.946642   -9999      -9999     
2568.1     -9999      6.79597    6.697555   4.671307   -9999      -9999     
2568.2     -9999      6.496947   6.497561   4.4        -9999      -9999     
2568.3     -9999      6.246642   6.296333   4.4        -9999      -9999     
2568.4     -9999      6          5.99878    4.396281   -9999      -9999     
2568.5     -9999      6          5.901219   4.09128    -9999      -9999     
2568.6     -9999      6.001832   6.002445   3.79       -9999      -9999     
2568.7     -9999      6.151649   6.20122    3.79       -9999      -9999     
2568.8     -9999      6.296947   6.297555   3.789084   -9999      -9999     
2568.9     -9999      6.047253   6.096341   3.714176   -9999      -9999     
2569       -9999      5.79939    5.797561   3.64       -9999      -9999     
2569.1     -9999      5.749329   5.601223   3.64       -9999      -9999     
2569.2     -9999      5.703663   5.706098   3.638718   -9999      -9999     
2569.3     -9999      6.004029   6.201222   3.53359    -9999      -9999     
2569.4     -9999      6.29878    6.3        3.43       -9999      -9999     
2569.5     -9999      6.198781   6.297561   3.43       -9999      -9999     
2569.6     -9999      6.095726   6.09511    3.42884    -9999      -9999     
2569.7     -9999      5.746154   5.696342   3.333956   -9999      -9999     
2569.8     -9999      5.401221   5.398777   3.24       -9999      -9999     
2569.9     -9999      5.501099   5.303658   3.24       -9999      -9999     
2570       -9999      5.604273   5.604878   3.244212   -9999      -9999     
2570.1     -9999      5.954701   6.003667   3.589634   -9999      -9999     
2570.2     -9999      6.301221   6.29878    3.93       -9999      -9999     
2570.3     -9999      6.401343   6.203667   3.93       -9999      -9999     
2570.4     -9999      6.502439   6.5        3.930183   -9999      -9999     
2570.5     -9999      6.702439   6.504878   3.945183   -9999      -9999     
2570.6     -9999      6.89939    6.897555   3.960977   -9999      -9999     
2570.7     -9999      6.849451   6.70122    4.040879   -9999      -9999     
2570.8     -9999      6.798169   6.801223   4.119206   -9999      -9999     
2570.9     -9999      6.648352   6.895122   4.054286   -9999      -9999     
2571       -9999      6.498779   6.496341   3.988046   -9999      -9999     
2571.1     -9999      6.398657   6.201222   3.827851   -9999      -9999     
2571.2     -9999      6.301832   6.297561   3.671771   -9999      -9999     
2571.3     -9999      6.452015   6.106112   3.816947   -9999      -9999     
2571.4     -9999      6.604268   6.604878   3.960366   -9999      -9999     
2571.5     -9999      6.954268   7.003659   3.990366   -9999      -9999     
2571.6     -9999      7.298779   7.301223   4.02       -9999      -9999     
2571.7     -9999      7.198901   7.396341   4.02       -9999      -9999     
2571.8     -9999      7.101831   7.103667   4.01884    -9999      -9999     
2571.9     -9999      7.251648   7.4        3.923956   -9999      -9999     
2572       -9999      7.394506   7.395122   3.83       -9999      -9999     
2572.1     -9999      6.943956   6.993887   3.83       -9999      -9999     
2572.2     -9999      6.493895   6.497561   3.830916   -9999      -9999     
2572.3     -9999      5.993285   6.29022    3.906007   -9999      -9999     
2572.4     -9999      5.490854   5.491463   3.98       -9999      -9999     
2572.5     -9999      4.740854   4.790244   3.98       -9999      -9999     
2572.6     -9999      3.999389   3.997555   3.983175   -9999      -9999     
2572.7     -9999      3.94945    3.801219   4.242857   -9999      -9999     
2572.8     -9999      3.900611   3.902445   4.5        -9999      -9999     
2572.9     -9999      3.95055    4.098781   4.5        -9999      -9999     
2573       -9999      4.001221   3.99878    4.500549   -9999      -9999     
2573.1     -9999      4.101343   3.903668   4.545605   -9999      -9999     
2573.2     -9999      4.199389   4.19878    4.59       -9999      -9999     
2573.3     -9999      4.149328   4.1        4.59       -9999      -9999     
2573.4     -9999      4.10061    4.1        4.588537   -9999      -9999     
2573.5     -9999      4.150609   4.101219   4.468536   -9999      -9999     
2573.6     -9999      4.2        4.201222   4.35       -9999      -9999     
2573.7     -9999      4.2        4.29878    4.35       -9999      -9999     
2573.8     -9999      4.197558   4.196332   4.345849   -9999      -9999     
2573.9     -9999      3.997802   3.898781   4.006264   -9999      -9999     
2574       -9999      3.8        3.8        3.67       -9999      -9999     
2574.1     -9999      3.8        3.8        3.67       -9999      -9999     
2574.2     -9999      3.800611   3.802439   3.670794   -9999      -9999     
2574.3     -9999      3.850672   3.998777   3.735873   -9999      -9999     
2574.4     -9999      3.898781   3.9        3.80061    -9999      -9999     
2574.5     -9999      3.79878    3.897561   3.85061    -9999      -9999     
2574.6     -9999      3.698169   3.7        3.90171    -9999      -9999     
2574.7     -9999      3.548352   3.696342   4.041538   -9999      -9999     
2574.8     -9999      3.401221   3.402445   4.181038   -9999      -9999     
2574.9     -9999      3.501099   3.6        4.265934   -9999      -9999     
2575       -9999      3.60061    3.59878    4.348413   -9999      -9999     
2575.1     -9999      3.650671   3.502445   4.218254   -9999      -9999     
2575.2     -9999      3.695727   3.693902   4.089146   -9999      -9999     
2575.3     -9999      3.345299   3.197555   4.01906    -9999      -9999     
2575.4     -9999      3          2.99878    3.95       -9999      -9999     
2575.5     -9999      3          2.90122    3.95       -9999      -9999     
2575.6     -9999      3.001221   3          3.948718   -9999      -9999     
2575.7     -9999      3.101099   3.002439   3.843846   -9999      -9999     
2575.8     -9999      3.199389   3.2        3.74       -9999      -9999     
2575.9     -9999      3.149451   3.198781   3.74       -9999      -9999     
2576       -9999      3.1        3.101219   3.742015   -9999      -9999     
2576.1     -9999      3.1        3.198777   3.907216   -9999      -9999     
2576.2     -9999      3.1        3.09878    4.07       -9999      -9999     
2576.3     -9999      3.1        3.001223   4.07       -9999      -9999     
2576.4     -9999      3.103049   3.103658   4.073049   -9999      -9999     
2576.5     -9999      3.353049   3.402439   4.323049   -9999      -9999     
