~Version
 VERS              .         2.0                           : CWLS LOG ASCII STANDARD - VERSION 2.0
 WRAP              .         NO                            : ONE LINE PER DEPTH STEP
 DLM               .         SPACE                         : DELIMITING CHARACTER(SPACE TAB OR COMMA)
~Well Information
#_______________________________________________________________________________
#
#PARAMETER_NAME    .UNIT     VALUE                         : DESCRIPTION
#_______________________________________________________________________________
STRT               .M        7.8                           : First reference value
STOP               .M        2645.7                        : Last reference value
STEP               .M        0.1                           : Step increment
NULL               .         -9999                         : Missing value
COMP               .                                       : Company
WELL               .         609                           : Well name
FLD                .                                       : Field
LOC                .                                       : Location
CNTY               .                                       : County
STAT               .                                       : State
CTRY               .                                       : Country
SRVC               .                                       : Service Company
DATE               .                                       : Date
API                .                                       : API number
PROJECT_UPGRADE_TIME .         2021-03-18T21_24_49           : 
group              .         Good                          : 
~Parameter Information Block
#_______________________________________________________________________________
#
#PARAMETER_NAME    .UNIT     VALUE                         : DESCRIPTION
#_______________________________________________________________________________
SET                .         LQC                           : 
TLFamily_GK_D1910_D .         Gamma Ray                     : 
TLFamily_GK_D1911_D .         Gamma Ray                     : 
TLFamily_GK_D1911_D_2 .         Gamma Ray                     : 
TLFamily_GK_D2258_D .         Gamma Ray                     : 
TLFamily_GK_D2265_D .         Gamma Ray                     : 
TLFamily_GK_D2395_D .         Gamma Ray                     : 
TLFamily_MD        .         Measured Depth                : 
~Curve Information
#_______________________________________________________________________________
#
#LOGNAME           .UNIT     LOG_ID                        : DESCRIPTION
#_______________________________________________________________________________
MD                 .M                                      :  
GK_D1910_D         .MKR/H                                  : 10 Гамма-активность, мкр./ч -   53.0 см 
GK_D1911_D         .MKR/H                                  : 10 Гамма-активность, мкр./ч -   53.0 см 
GK_D1911_D_2       .MKR/H                                  : 10 Гамма-активность, мкр./ч -   53.0 см 
GK_D2258_D         .MKR/H                                  : 13 Гамма-активность, мкр./ч -  110.0 см 
GK_D2265_D         .MKR/H                                  : 13 Гамма-активность, мкр./ч -  110.0 см 
GK_D2395_D         .MKR/H                                  : 16 Гамма-активность, мкр./ч -  110.0 см 
~Ascii
# ...
631.8      -9999      3.800305   -9999      -9999      2.86       5.07      
631.9      -9999      3.900275   -9999      -9999      2.86       5.07      
632        -9999      4.000305   -9999      -9999      2.86       5.069985  
632.1      -9999      4.100275   -9999      -9999      2.86       5.064986  
632.2      -9999      4.199878   -9999      -9999      2.86       5.06      
632.3      -9999      4.149863   -9999      -9999      2.86       5.06      
632.4      -9999      4.100366   -9999      -9999      2.86       5.059988  
632.5      -9999      4.250458   -9999      -9999      2.86       5.054985  
632.6      -9999      4.399848   -9999      -9999      2.860015   5.04997   
632.7      -9999      4.349863   -9999      -9999      2.865014   5.039973  
632.8      -9999      4.300153   -9999      -9999      2.87003    5.02997   
632.9      -9999      4.350137   -9999      -9999      2.880028   5.019973  
633        -9999      4.399542   -9999      -9999      2.89       5.009985  
633.1      -9999      4.249588   -9999      -9999      2.89       5.004986  
633.2      -9999      4.1        -9999      -9999      2.89       5         
633.3      -9999      4.1        -9999      -9999      2.89       5         
633.4      -9999      4.100122   -9999      -9999      2.89       4.999988  
633.5      -9999      4.150153   -9999      -9999      2.89       4.994985  
633.6      -9999      4.199542   -9999      -9999      2.89       4.99      
633.7      -9999      4.049588   -9999      -9999      2.89       4.99      
633.8      -9999      3.899848   -9999      -9999      2.89       4.990015  
633.9      -9999      3.849863   -9999      -9999      2.89       4.995014  
634        -9999      3.800153   -9999      -9999      2.89       5.000031  
634.1      -9999      3.850137   -9999      -9999      2.89       5.010027  
634.2      -9999      3.900244   -9999      -9999      2.889939   5.02      
634.3      -9999      4.000275   -9999      -9999      2.864931   5.02      
634.4      -9999      4.099878   -9999      -9999      2.839976   5.020012  
634.5      -9999      4.049847   -9999      -9999      2.829969   5.025015  
634.6      -9999      3.999847   -9999      -9999      2.82       5.03      
634.7      -9999      3.949863   -9999      -9999      2.82       5.03      
634.8      -9999      3.899848   -9999      -9999      2.82       5.03      
634.9      -9999      3.849863   -9999      -9999      2.82       5.03      
635        -9999      3.799542   -9999      -9999      2.82       5.029878  
635.1      -9999      3.649588   -9999      -9999      2.82       4.98989   
635.2      -9999      3.499878   -9999      -9999      2.82       4.949926  
635.3      -9999      3.449863   -9999      -9999      2.82       4.919918  
635.4      -9999      3.400122   -9999      -9999      2.82       4.889963  
635.5      -9999      3.450153   -9999      -9999      2.82       4.874954  
635.6      -9999      3.499695   -9999      -9999      2.819863   4.859954  
635.7      -9999      3.399725   -9999      -9999      2.774876   4.844959  
635.8      -9999      3.3        -9999      -9999      2.729771   4.829985  
635.9      -9999      3.3        -9999      -9999      2.654794   4.824986  
636        -9999      3.3        -9999      -9999      2.58       4.819985  
636.1      -9999      3.3        -9999      -9999      2.58       4.814986  
636.2      -9999      3.3        -9999      -9999      2.58       4.809951  
636.3      -9999      3.3        -9999      -9999      2.58       4.789945  
636.4      -9999      3.300122   -9999      -9999      2.58       4.76989   
636.5      -9999      3.350153   -9999      -9999      2.58       4.724863  
636.6      -9999      3.400305   -9999      -9999      2.58       4.679924  
636.7      -9999      3.500275   -9999      -9999      2.58       4.654932  
636.8      -9999      3.6        -9999      -9999      2.58       4.629939  
636.9      -9999      3.6        -9999      -9999      2.58       4.609945  
637        -9999      3.600305   -9999      -9999      2.58       4.58997   
637.1      -9999      3.700274   -9999      -9999      2.58       4.579973  
637.2      -9999      3.799878   -9999      -9999      2.579805   4.569976  
637.3      -9999      3.749863   -9999      -9999      2.49978    4.559973  
637.4      -9999      3.699756   -9999      -9999      2.419988   4.549988  
637.5      -9999      3.599695   -9999      -9999      2.414985   4.544985  
637.6      -9999      3.499847   -9999      -9999      2.41       4.540061  
637.7      -9999      3.449863   -9999      -9999      2.41       4.560055  
637.8      -9999      3.400153   -9999      -9999      2.41       4.580091  
637.9      -9999      3.450137   -9999      -9999      2.41       4.610082  
638        -9999      3.5        -9999      -9999      2.41       4.640061  
638.1      -9999      3.5        -9999      -9999      2.41       4.660055  
638.2      -9999      3.499634   -9999      -9999      2.41       4.680024  
638.3      -9999      3.349588   -9999      -9999      2.41       4.690027  
638.4      -9999      3.200488   -9999      -9999      2.409792   4.700012  
638.5      -9999      3.40061    -9999      -9999      2.324741   4.705015  
638.6      -9999      3.6        -9999      -9999      2.239863   4.710031  
638.7      -9999      3.6        -9999      -9999      2.194876   4.720027  
638.8      -9999      3.6        -9999      -9999      2.15       4.73      
638.9      -9999      3.6        -9999      -9999      2.15       4.73      
639        -9999      3.600305   -9999      -9999      2.15       4.730229  
639.1      -9999      3.700274   -9999      -9999      2.15       4.805206  
639.2      -9999      3.799756   -9999      -9999      2.15       4.880147  
639.3      -9999      3.699725   -9999      -9999      2.15       4.940165  
639.4      -9999      3.600122   -9999      -9999      2.15       5.000098  
639.5      -9999      3.650153   -9999      -9999      2.15       5.040122  
639.6      -9999      3.699847   -9999      -9999      2.15       5.080091  
639.7      -9999      3.649863   -9999      -9999      2.15       5.110082  
639.8      -9999      3.600458   -9999      -9999      2.150137   5.140046  
639.9      -9999      3.750412   -9999      -9999      2.195124   5.155041  
640        -9999      3.899542   -9999      -9999      2.240336   5.170031  
640.1      -9999      3.749588   -9999      -9999      2.350302   5.180027  
640.2      -9999      3.599756   -9999      -9999      2.46       5.189988  
640.3      -9999      3.499725   -9999      -9999      2.46       5.184986  
640.4      -9999      3.4        -9999      -9999      2.46       5.17989   
640.5      -9999      3.4        -9999      -9999      2.46       5.134862  
640.6      -9999      3.399848   -9999      -9999      2.46       5.089909  
640.7      -9999      3.349863   -9999      -9999      2.46       5.059918  
640.8      -9999      3.300305   -9999      -9999      2.46       5.029939  
640.9      -9999      3.400275   -9999      -9999      2.46       5.009945  
641        -9999      3.499847   -9999      -9999      2.46       4.989954  
641.1      -9999      3.449863   -9999      -9999      2.46       4.974959  
641.2      -9999      3.399878   -9999      -9999      2.460134   4.959976  
641.3      -9999      3.349863   -9999      -9999      2.515151   4.949973  
641.4      -9999      3.3        -9999      -9999      2.570623   4.939988  
641.5      -9999      3.3        -9999      -9999      2.825778   4.934985  
641.6      -9999      3.3        -9999      -9999      3.08       4.929832  
641.7      -9999      3.3        -9999      -9999      3.08       4.874849  
641.8      -9999      3.300153   -9999      -9999      3.08       4.819771  
641.9      -9999      3.350137   -9999      -9999      3.08       4.744794  
642        -9999      3.4        -9999      -9999      3.08       4.669863  
642.1      -9999      3.4        -9999      -9999      3.08       4.624876  
