~Version
 VERS              .         2.0                           : CWLS LOG ASCII STANDARD - VERSION 2.0
 WRAP              .         NO                            : ONE LINE PER DEPTH STEP
 DLM               .         SPACE                         : DELIMITING CHARACTER(SPACE TAB OR COMMA)
~Well Information
#_______________________________________________________________________________
#
#PARAMETER_NAME    .UNIT     VALUE                         : DESCRIPTION
#_______________________________________________________________________________
STRT               .ft       7350                          : First reference value
STOP               .ft       7915                          : Last reference value
STEP               .ft       0.5                           : Step increment
NULL               .         -9999                         : Missing value
COMP               .         COMPANY1                      : Company
WELL               .         Well1                         : Well name
FLD                .         FIELD1                        : Field
LOC                .                                       : Location
PROV               .                                       : Province
SRVC               .                                       : Service Company
DATE               .                                       : Date
UWI                .                                       : Unique Well ID
API                .                                       : 
CNTY               .                                       : 
COMMENT            .                                       : 
COMMENT2           .                                       : 
COMPANY            .         Unknown                       : 
COMPLETION_DATE    .                                       : 
COUNTRY            .         COUNTRY1                      : 
COUNTY             .         UNKNOWN                       : 
CREATION-TIME      .         2009/11/18 14_51              : 
CTRY               .         CO                            : 
DERRICK_FLOOR      .                                       : 
DRILLING_MEASURED_FROM_FIELD .                                       : 
ELEVATION          .                                       : 
ELEVATION_DATUM    .                                       : 
EREF               .FT       90                            : 
FIELD-NAME         .         FIELD1                        : 
FIELD_API          .                                       : 
FIELD_PWI          .                                       : 
FILE-ID            .         Well1                         : 
FILE-NUMBER        .         1                             : 
FILE-SET-NAME      .         WELL1                         : 
FILE-SET-NUMBER    .         2171                          : 
FILE-TYPE          .         EXPORT                        : 
GDAT               .                                       : 
GROUND_LEVEL       .                                       : 
GROUP              .                                       :  
HORIZONTAL_COORDINATE_SYSTEM .                                       : 
JOURNAL_FILENAME   .         22_6A-9_JOURNAL.DAT           : 
KB                 .m        90.                           : 
LIC                .                                       : 
LOCATION1          .                                       : 
LOCATION2          .                                       : 
LOG_MEASURE_FROM_FIELD .         KB                            : 
LONG_WELL_NAME     .                                       : 
LATI               .         30.684311                     : 
LONG               .         64.165074                     : 
NAME-SPACE-VERSION .         0                             : 
ORIGINALWELLNAME   .         Well1                         : 
PERMANENT_DATUM    .                                       : 
PRODUCER-CODE      .         999                           : 
PRODUCER-NAME      .         Techsia                       : 
PRODUCT            .         Techlog                       : 
PROGRAMS           .         WELL-Well1                    : 
RANGE              .                                       : 
SECTION            .                                       : 
SHORT_WELL_NAME    .                                       : 
SPUD_DATE          .                                       : 
SURVEY_DEPTH       .                                       : 
STAT               .         Test Well                     : 
TOWNSHIP           .                                       : 
TYPE               .                                       : 
TD                 .                                       : 
VERSION            .         2009.2.2                      : 
WELL-NAME          .         Well1                         : 
X                  .km       6129.9                        : 
Y                  .km       68827.8                       : 
~Parameter Information Block
#_______________________________________________________________________________
#
#PARAMETER_NAME    .UNIT     VALUE                         : DESCRIPTION
#_______________________________________________________________________________
SET                .         LQC                           : 
REAL_CREATION_DATE .         Mon Feb 8 2010-17_05_16       : 
REAL_CREATION_DATE .         Tue Aug 25 2009-09_34_50      : 
TLFamily_BVW_AR    .         Bulk Fluid Volume             : 
TLFamily_MD        .         Measured Depth                : 
TLFamily_PHIT_DUK  .         Porosity                      : 
TLFamily_RT_DUK    .         Formation Resistivity         : 
TLFamily_SH_AR     .         Oil Saturation                : 
TLFamily_SW_AR     .         Water Saturation              : 
TLFamily_SW_AR_UNCL .         Water Saturation Unclipped    : 
~Curve Information
#_______________________________________________________________________________
#
#LOGNAME           .UNIT     LOG_ID                        : DESCRIPTION
#_______________________________________________________________________________
MD                 .ft                                     :  
BVW_AR_TRUE        .v/v                                    :
PHIT_DUK           .v/v                                    : dukpet - total porosity [74] 
RT_DUK             .OHMM                                   : dukpet - true resistivity [76] 
SH_AR_TRUE         .v/v                                    :
SW_AR_TRUE         .v/v                                    :  
SW_AR_UNCL_TRUE    .v/v                                    :  
~Ascii
# ...
7454       0.149813   0.149813   0.6117     0          1          1.47823   
7454.5     0.133427   0.133427   0.6102     0          1          1.661808  
7455       0.122659   0.122659   0.601      0          1          1.821478  
7455.5     0.129682   0.129682   0.5849     0          1          1.746385  
7456       0.142322   0.142322   0.563      0          1          1.621938  
7456.5     0.143727   0.143727   0.5389     0          1          1.641603  
7457       0.138577   0.138577   0.5171     0          1          1.73813   
7457.5     0.139045   0.139045   0.499      0          1          1.763417  
7458       0.146067   0.146067   0.4851     0          1          1.702523  
7458.5     0.152153   0.152153   0.4762     0          1          1.649626  
7459       0.155899   0.155899   0.4708     0          1          1.619195  
7459.5     0.157303   0.157303   0.4685     0          1          1.608677  
7460       0.154026   0.154026   0.47       0          1          1.640279  
7460.5     0.147004   0.147004   0.4755     0          1          1.708662  
7461       0.139981   0.139981   0.4844     0          1          1.777827  
7461.5     0.1353     0.1353     0.495      0          1          1.819534  
7462       0.1353     0.1353     0.5054     0          1          1.800716  
7462.5     0.140449   0.140449   0.5153     0          1          1.717955  
7463       0.149345   0.149345   0.5259     0          1          1.599257  
7463.5     0.156367   0.156367   0.5392     0          1          1.508484  
7464       0.156835   0.156835   0.5555     0          1          1.481752  
7464.5     0.154026   0.154026   0.5734     0          1          1.485039  
7465       0.151685   0.151685   0.5901     0          1          1.486467  
7465.5     0.150749   0.150749   0.6027     0          1          1.479979  
7466       0.150749   0.150749   0.61       0          1          1.471097  
7466.5     0.152622   0.152622   0.6129     0          1          1.449602  
7467       0.154962   0.154962   0.6115     0          1          1.429345  
7467.5     0.156835   0.156835   0.6041     0          1          1.420899  
7468       0.159644   0.159644   0.5905     0          1          1.411881  
7468.5     0.162453   0.162453   0.5736     0          1          1.407759  
7469       0.163858   0.163858   0.558      0          1          1.415063  
7469.5     0.16339    0.16339    0.5468     0          1          1.433577  
7470       0.16339    0.16339    0.5402     0          1          1.442308  
7470.5     0.160581   0.160581   0.5368     0          1          1.472178  
7471       0.152622   0.152622   0.5345     0          1          1.552278  
7471.5     0.143258   0.143258   0.5332     0          1          1.655757  
7472       0.138109   0.138109   0.5339     0          1          1.716361  
7472.5     0.138109   0.138109   0.5368     0          1          1.711719  
7473       0.139513   0.139513   0.5408     0          1          1.688214  
7473.5     0.139981   0.139981   0.545      0          1          1.676074  
7474       0.140918   0.140918   0.5492     0          1          1.658551  
7474.5     0.14279    0.14279    0.5536     0          1          1.63029   
7475       0.146067   0.146067   0.5585     0          1          1.586708  
7475.5     0.14794    0.14794    0.5634     0          1          1.559792  
7476       0.147004   0.147004   0.5684     0          1          1.562804  
7476.5     0.144195   0.144195   0.5745     0          1          1.584767  
7477       0.141386   0.141386   0.5832     0          1          1.604152  
7477.5     0.140449   0.140449   0.5948     0          1          1.59903   
7478       0.140918   0.140918   0.6076     0          1          1.576831  
7478.5     0.138109   0.138109   0.619      0          1          1.594018  
7479       0.131554   0.131554   0.628      0          1          1.66141   
7479.5     0.123127   0.123127   0.6354     0          1          1.764752  
7480       0.117977   0.117977   0.6433     0          1          1.830444  
7480.5     0.118446   0.118446   0.652      0          1          1.810992  
7481       0.127341   0.127341   0.6596     0          1          1.674758  
7481.5     0.138109   0.138109   0.6635     0          1          1.539636  
7482       0.142322   0.142322   0.663      0          1          1.494624  
7482.5     0.139981   0.139981   0.6607     0          1          1.522262  
7483       0.134831   0.134831   0.6591     0          1          1.582323  
7483.5     0.132022   0.132022   0.6589     0          1          1.616235  
7484       0.133427   0.133427   0.6592     0          1          1.598852  
7484.5     0.135768   0.135768   0.6599     0          1          1.57045   
7485       0.134831   0.134831   0.662      0          1          1.578854  
7485.5     0.131086   0.131086   0.6666     0          1          1.618347  
7486       0.129682   0.129682   0.6736     0          1          1.627346  
7486.5     0.131086   0.131086   0.6808     0          1          1.60138   
7487       0.133895   0.133895   0.6862     0          1          1.561604  
7487.5     0.1353     0.1353     0.6886     0          1          1.542692  
7488       0.136236   0.136236   0.6882     0          1          1.532539  
7488.5     0.139981   0.139981   0.6844     0          1          1.495673  
7489       0.144663   0.144663   0.6762     0          1          1.456014  
7489.5     0.144195   0.144195   0.6627     0          1          1.475543  
7490       0.139981   0.139981   0.6445     0          1          1.541275  
7490.5     0.138577   0.138577   0.6243     0          1          1.581877  
7491       0.143258   0.143258   0.6031     0          1          1.556851  
7491.5     0.14794    0.14794    0.5812     0          1          1.535721  
7492       0.14794    0.14794    0.559      0          1          1.565918  
7492.5     0.143727   0.143727   0.5386     0          1          1.64206   
7493       0.139513   0.139513   0.5239     0          1          1.715228  
7493.5     0.13764    0.13764    0.5182     0          1          1.748104  
7494       0.13764    0.13764    0.5236     0          1          1.739066  
7494.5     0.138577   0.138577   0.5384     0          1          1.703401  
7495       0.139513   0.139513   0.5592     0          1          1.660208  
7495.5     0.140918   0.140918   0.5838     0          1          1.608652  
7496       0.139981   0.139981   0.6158     0          1          1.576782  
7496.5     0.1353     0.1353     0.6642     0          1          1.570773  
7497       0.129682   0.129682   0.7431     0          1          1.549378  
7497.5     0.126873   0.126873   0.8663     0          1          1.466754  
7498       0.129213   0.129213   1.0538     0          1          1.305796  
7498.5     0.141386   0.141386   1.3093     0          1          1.070618  
7499       0.1340662  0.164794   1.6691     0.1864616  0.8135384  0.8135384 
7499.5     0.1161483  0.194288   2.2238     0.402185   0.597815   0.597815  
7500       0.09841039 0.220506   3.0977     0.5537065  0.4462935  0.4462935 
7500.5     0.08175328 0.235019   4.4886     0.6521418  0.3478582  0.3478582 
7501       0.068756   0.239232   6.346      0.712597   0.287403   0.287403  
7501.5     0.05940117 0.240637   8.5022     0.7531503  0.2468497  0.2468497 
7502       0.05262648 0.24485    10.8321    0.7850665  0.2149335  0.2149335 
7502.5     0.04794082 0.248595   13.053     0.8071529  0.1928471  0.1928471 
7503       0.04480852 0.248127   14.9417    0.8194129  0.1805871  0.1805871 
7503.5     0.04264285 0.242509   16.4979    0.8241597  0.1758403  0.1758403 
7504       0.04093951 0.234551   17.8993    0.8254558  0.1745442  0.1745442 
7504.5     0.03947095 0.228464   19.256     0.8272334  0.1727666  0.1727666 
7505       0.03815979 0.226124   20.602     0.831244   0.168756   0.168756  
7505.5     0.03693685 0.228464   21.9888    0.8383253  0.1616747  0.1616747 
