~Version
 VERS              .         2.0                           : CWLS LOG ASCII STANDARD - VERSION 2.0
 WRAP              .         NO                            : ONE LINE PER DEPTH STEP
 DLM               .         SPACE                         : DELIMITING CHARACTER(SPACE TAB OR COMMA)
~Well Information
#_______________________________________________________________________________
#
#PARAMETER_NAME    .UNIT     VALUE                         : DESCRIPTION
#_______________________________________________________________________________
STRT               .ft       7350                          : First reference value
STOP               .ft       7915                          : Last reference value
STEP               .ft       0.5                           : Step increment
NULL               .         -9999                         : Missing value
COMP               .         COMPANY1                      : Company
WELL               .         Well1                         : Well name
FLD                .         FIELD1                        : Field
LOC                .                                       : Location
PROV               .                                       : Province
SRVC               .                                       : Service Company
DATE               .                                       : Date
UWI                .                                       : Unique Well ID
API                .                                       : 
CNTY               .                                       : 
COMMENT            .                                       : 
COMMENT2           .                                       : 
COMPANY            .         Unknown                       : 
COMPLETION_DATE    .                                       : 
COUNTRY            .         COUNTRY1                      : 
COUNTY             .         UNKNOWN                       : 
CREATION-TIME      .         2009/11/18 14_51              : 
CTRY               .         CO                            : 
DERRICK_FLOOR      .                                       : 
DRILLING_MEASURED_FROM_FIELD .                                       : 
ELEVATION          .                                       : 
ELEVATION_DATUM    .                                       : 
EREF               .FT       90                            : 
FIELD-NAME         .         FIELD1                        : 
FIELD_API          .                                       : 
FIELD_PWI          .                                       : 
FILE-ID            .         Well1                         : 
FILE-NUMBER        .         1                             : 
FILE-SET-NAME      .         WELL1                         : 
FILE-SET-NUMBER    .         2171                          : 
FILE-TYPE          .         EXPORT                        : 
GDAT               .                                       : 
GROUND_LEVEL       .                                       : 
GROUP              .                                       :  
HORIZONTAL_COORDINATE_SYSTEM .                                       : 
JOURNAL_FILENAME   .         22_6A-9_JOURNAL.DAT           : 
KB                 .m        90.                           : 
LIC                .                                       : 
LOCATION1          .                                       : 
LOCATION2          .                                       : 
LOG_MEASURE_FROM_FIELD .         KB                            : 
LONG_WELL_NAME     .                                       : 
LATI               .         30.684311                     : 
LONG               .         64.165074                     : 
NAME-SPACE-VERSION .         0                             : 
ORIGINALWELLNAME   .         Well1                         : 
PERMANENT_DATUM    .                                       : 
PRODUCER-CODE      .         999                           : 
PRODUCER-NAME      .         Techsia                       : 
PRODUCT            .         Techlog                       : 
PROGRAMS           .         WELL-Well1                    : 
RANGE              .                                       : 
SECTION            .                                       : 
SHORT_WELL_NAME    .                                       : 
SPUD_DATE          .                                       : 
SURVEY_DEPTH       .                                       : 
STAT               .         Test Well                     : 
TOWNSHIP           .                                       : 
TYPE               .                                       : 
TD                 .                                       : 
VERSION            .         2009.2.2                      : 
WELL-NAME          .         Well1                         : 
X                  .km       6129.9                        : 
Y                  .km       68827.8                       : 
~Parameter Information Block
#_______________________________________________________________________________
#
#PARAMETER_NAME    .UNIT     VALUE                         : DESCRIPTION
#_______________________________________________________________________________
SET                .         LQC                           : 
REAL_CREATION_DATE .         Mon Feb 8 2010-17_05_16       : 
REAL_CREATION_DATE .         Tue Aug 25 2009-09_34_50      : 
TLFamily_BVW_AR    .         Bulk Fluid Volume             : 
TLFamily_MD        .         Measured Depth                : 
TLFamily_PHIT_DUK  .         Porosity                      : 
TLFamily_RT_DUK    .         Formation Resistivity         : 
TLFamily_SH_AR     .         Oil Saturation                : 
TLFamily_SW_AR     .         Water Saturation              : 
TLFamily_SW_AR_UNCL .         Water Saturation Unclipped    : 
~Curve Information
#_______________________________________________________________________________
#
#LOGNAME           .UNIT     LOG_ID                        : DESCRIPTION
#_______________________________________________________________________________
MD                 .ft                                     :  
BVW_AR_TRUE        .v/v                                    :
PHIT_DUK           .v/v                                    : dukpet - total porosity [74] 
RT_DUK             .OHMM                                   : dukpet - true resistivity [76] 
SH_AR_TRUE         .v/v                                    :
SW_AR_TRUE         .v/v                                    :  
SW_AR_UNCL_TRUE    .v/v                                    :  
~Ascii
# ...
7662       0.07230826 0.223315   5.7378     0.6762051  0.3237949  0.3237949 
7662.5     0.07419903 0.224719   5.4491     0.6698142  0.3301858  0.3301858 
7663       0.07668673 0.227528   5.1013     0.662957   0.337043   0.337043  
7663.5     0.08000086 0.227996   4.6874     0.6491129  0.3508871  0.3508871 
7664       0.08452348 0.223315   4.1992     0.6215056  0.3784944  0.3784944 
7664.5     0.09132135 0.218633   3.5973     0.5823076  0.4176924  0.4176924 
7665       0.1004598  0.217697   2.9726     0.5385337  0.4614663  0.4614663 
7665.5     0.1103934  0.213015   2.4617     0.4817577  0.5182423  0.5182423 
7666       0.1194291  0.191947   2.1033     0.3778019  0.6221981  0.6221981 
7666.5     0.1263665  0.160112   1.8787     0.2107619  0.7892381  0.7892381 
7667       0.1304582  0.137172   1.7627     0.04894429 0.9510557  0.9510557 
7667.5     0.131554   0.131554   1.7187     0          1          1.004284  
7668       0.1324068  0.13764    1.7112     0.03802103 0.961979   0.961979  
7668.5     0.1318455  0.154494   1.7258     0.1465978  0.8534022  0.8534022 
7669       0.1302367  0.183989   1.7687     0.2921493  0.7078507  0.7078507 
7669.5     0.1270309  0.212079   1.8591     0.401021   0.598979   0.598979  
7670       0.1216981  0.223783   2.0256     0.4561781  0.5438219  0.5438219 
7670.5     0.1148641  0.217228   2.2738     0.4712277  0.5287723  0.5287723 
7671       0.1072503  0.205056   2.6081     0.4769707  0.5230293  0.5230293 
7671.5     0.1004446  0.202247   2.9735     0.5033567  0.4966433  0.4966433 
7672       0.09595592 0.21161    3.2582     0.5465436  0.4534564  0.4534564 
7672.5     0.09413458 0.223783   3.3855     0.5793488  0.4206512  0.4206512 
7673       0.09435922 0.231273   3.3694     0.5920007  0.4079993  0.4079993 
7673.5     0.09553752 0.234082   3.2868     0.591863   0.408137   0.408137  
7674       0.09674752 0.229401   3.2051     0.5782603  0.4217397  0.4217397 
7674.5     0.09738463 0.213015   3.1633     0.5428274  0.4571726  0.4571726 
7675       0.09741543 0.195693   3.1613     0.5022027  0.4977972  0.4977972 
7675.5     0.0974972  0.19382    3.156      0.4969704  0.5030296  0.5030296 
7676       0.09835643 0.208801   3.1011     0.5289466  0.4710534  0.4710534 
7676.5     0.09995337 0.223315   3.0028     0.5524108  0.4475891  0.4475891 
7677       0.1014475  0.229401   2.915      0.5577722  0.4422278  0.4422278 
7677.5     0.102009   0.230337   2.883      0.5571316  0.4428683  0.4428683 
7678       0.1012843  0.229401   2.9244     0.5584835  0.4415165  0.4415165 
7678.5     0.09919482 0.223315   3.0489     0.5558076  0.4441924  0.4441924 
7679       0.09634853 0.212079   3.2317     0.5456951  0.4543049  0.4543049 
7679.5     0.09449534 0.205056   3.3597     0.539173   0.460827   0.460827  
7680       0.09539252 0.212547   3.2968     0.5511933  0.4488067  0.4488067 
7680.5     0.09893073 0.226592   3.0652     0.563397   0.4366029  0.4366029 
7681       0.103197   0.229869   2.817      0.5510615  0.4489385  0.4489385 
7681.5     0.1062448  0.218165   2.6577     0.5130072  0.4869928  0.4869928 
7682       0.1073677  0.199438   2.6024     0.4616488  0.5383512  0.5383512 
7682.5     0.1068984  0.183052   2.6253     0.4160218  0.5839782  0.5839782 
7683       0.1057112  0.176966   2.6846     0.4026471  0.5973529  0.5973529 
7683.5     0.1046638  0.183052   2.7386     0.4282294  0.5717706  0.5717706 
7684       0.1039189  0.197566   2.778      0.4740042  0.5259958  0.5259958 
7684.5     0.1027476  0.210206   2.8417     0.5112054  0.4887946  0.4887946 
7685       0.1002829  0.214419   2.9831     0.5323042  0.4676958  0.4676958 
7685.5     0.09644108 0.213483   3.2255     0.5482494  0.4517506  0.4517506 
7686       0.09207828 0.213951   3.5384     0.5696292  0.4303708  0.4303708 
7686.5     0.08905999 0.216292   3.7823     0.5882419  0.4117581  0.4117581 
7687       0.08900001 0.216292   3.7874     0.5885192  0.4114808  0.4114808 
7687.5     0.09168141 0.215824   3.5691     0.5752029  0.4247971  0.4247971 
7688       0.09546059 0.214888   3.2921     0.5557659  0.4442342  0.4442342 
7688.5     0.0988244  0.209738   3.0718     0.5288198  0.4711802  0.4711802 
7689       0.101203   0.199438   2.9291     0.492559   0.507441   0.507441  
7689.5     0.1027331  0.191011   2.8425     0.4621614  0.5378386  0.5378386 
7690       0.103777   0.191479   2.7856     0.458024   0.541976   0.541976  
7690.5     0.1044181  0.199906   2.7515     0.4776639  0.5223361  0.5223361 
7691       0.1040013  0.205524   2.7736     0.4939701  0.5060299  0.5060299 
7691.5     0.1016552  0.204588   2.9031     0.5031223  0.4968777  0.4968777 
7692       0.09737232 0.201311   3.1641     0.516309   0.483691   0.483691  
7692.5     0.0921434  0.200843   3.5334     0.5412168  0.4587832  0.4587832 
7693       0.08701136 0.199438   3.9625     0.5637172  0.4362828  0.4362828 
7693.5     0.0824123  0.183989   4.4171     0.5520803  0.4479197  0.4479197 
7694       0.07800449 0.148408   4.9304     0.4743916  0.5256084  0.5256084 
7694.5     0.07372098 0.10206    5.52       0.2776702  0.7223298  0.7223298 
7695       0.06882    0.06882    6.1273     0          1          1.016743  
7695.5     0.060861   0.060861   6.5082     0          1          1.115555  
7696       0.064139   0.064139   6.3326     0          1          1.073118  
7696.5     0.06367    0.06367    5.6282     0          1          1.146677  
7697       0.066479   0.066479   4.8015     0          1          1.189016  
7697.5     0.08553989 0.088951   4.1        0.03834814 0.9616519  0.9616519 
7698       0.09261774 0.132022   3.4973     0.2984673  0.7015327  0.7015327 
7698.5     0.1001671  0.17603    2.99       0.4309658  0.5690342  0.5690342 
7699       0.1085653  0.201311   2.5453     0.4607084  0.5392916  0.5392916 
7699.5     0.1173093  0.201311   2.18       0.4172734  0.5827266  0.5827266 
7700       0.1251402  0.186798   1.9157     0.3300774  0.6699226  0.6699226 
7700.5     0.1309682  0.177434   1.749      0.2618768  0.7381232  0.7381232 
7701       0.1349095  0.185393   1.6483     0.2723054  0.7276946  0.7276946 
7701.5     0.1380482  0.201779   1.5742     0.3158447  0.6841553  0.6841553 
7702       0.1406267  0.21161    1.517      0.3354439  0.6645561  0.6645561 
7702.5     0.1424074  0.20927    1.4793     0.3195041  0.6804959  0.6804959 
7703       0.1437646  0.205056   1.4515     0.2989005  0.7010995  0.7010995 
7703.5     0.1456122  0.207865   1.4149     0.2994867  0.7005133  0.7005133 
7704       0.1484566  0.213015   1.3612     0.3030695  0.6969305  0.6969305 
7704.5     0.1519752  0.206461   1.2989     0.2639035  0.7360965  0.7360965 
7705       0.1554989  0.187734   1.2407     0.1717064  0.8282936  0.8282936 
7705.5     0.1586769  0.169007   1.1915     0.06112254 0.9388775  0.9388775 
7706       0.161049   0.161049   1.1543     0          1          1.001021  
7706.5     0.161985   0.161985   1.1243     0          1          1.008428  
7707       0.164794   0.164794   1.0978     0          1          1.003131  
7707.5     0.16573    0.16573    1.071      0          1          1.009868  
7708       0.161517   0.161517   1.0433     0          1          1.049875  
7708.5     0.154962   0.154962   1.019      0          1          1.107257  
7709       0.154026   0.154026   1.0025     0          1          1.123115  
7709.5     0.162453   0.162453   0.9898     0          1          1.071665  
7710       0.169944   0.169944   0.9727     0          1          1.033393  
7710.5     0.168539   0.168539   0.9389     0          1          1.060597  
7711       0.158708   0.158708   0.8829     0          1          1.161465  
7711.5     0.151685   0.151685   0.8148     0          1          1.265006  
7712       0.155431   0.155431   0.7474     0          1          1.288981  
7712.5     0.167135   0.167135   0.6844     0          1          1.252674  
7713       0.189899   0.189899   0.6228     0          1          1.155749  
7713.5     0.19899    0.19899    0.565      0          1          1.157991  
