~Version
 VERS              .         2.0                           : CWLS LOG ASCII STANDARD - VERSION 2.0
 WRAP              .         NO                            : ONE LINE PER DEPTH STEP
 DLM               .         SPACE                         : DELIMITING CHARACTER(SPACE TAB OR COMMA)
~Well Information
#_______________________________________________________________________________
#
#PARAMETER_NAME    .UNIT     VALUE                         : DESCRIPTION
#_______________________________________________________________________________
STRT               .ft       7350                          : First reference value
STOP               .ft       7915                          : Last reference value
STEP               .ft       0.5                           : Step increment
NULL               .         -9999                         : Missing value
COMP               .         COMPANY1                      : Company
WELL               .         Well1                         : Well name
FLD                .         FIELD1                        : Field
LOC                .                                       : Location
PROV               .                                       : Province
SRVC               .                                       : Service Company
DATE               .                                       : Date
UWI                .                                       : Unique Well ID
API                .                                       : 
CNTY               .                                       : 
COMMENT            .                                       : 
COMMENT2           .                                       : 
COMPANY            .         Unknown                       : 
COMPLETION_DATE    .                                       : 
COUNTRY            .         COUNTRY1                      : 
COUNTY             .         UNKNOWN                       : 
CREATION-TIME      .         2009/11/18 14_51              : 
CTRY               .         CO                            : 
DERRICK_FLOOR      .                                       : 
DRILLING_MEASURED_FROM_FIELD .                                       : 
ELEVATION          .                                       : 
ELEVATION_DATUM    .                                       : 
EREF               .FT       90                            : 
FIELD-NAME         .         FIELD1                        : 
FIELD_API          .                                       : 
FIELD_PWI          .                                       : 
FILE-ID            .         Well1                         : 
FILE-NUMBER        .         1                             : 
FILE-SET-NAME      .         WELL1                         : 
FILE-SET-NUMBER    .         2171                          : 
FILE-TYPE          .         EXPORT                        : 
GDAT               .                                       : 
GROUND_LEVEL       .                                       : 
GROUP              .                                       :  
HORIZONTAL_COORDINATE_SYSTEM .                                       : 
JOURNAL_FILENAME   .         22_6A-9_JOURNAL.DAT           : 
KB                 .m        90.                           : 
LIC                .                                       : 
LOCATION1          .                                       : 
LOCATION2          .                                       : 
LOG_MEASURE_FROM_FIELD .         KB                            : 
LONG_WELL_NAME     .                                       : 
LATI               .         30.684311                     : 
LONG               .         64.165074                     : 
NAME-SPACE-VERSION .         0                             : 
ORIGINALWELLNAME   .         Well1                         : 
PERMANENT_DATUM    .                                       : 
PRODUCER-CODE      .         999                           : 
PRODUCER-NAME      .         Techsia                       : 
PRODUCT            .         Techlog                       : 
PROGRAMS           .         WELL-Well1                    : 
RANGE              .                                       : 
SECTION            .                                       : 
SHORT_WELL_NAME    .                                       : 
SPUD_DATE          .                                       : 
SURVEY_DEPTH       .                                       : 
STAT               .         Test Well                     : 
TOWNSHIP           .                                       : 
TYPE               .                                       : 
TD                 .                                       : 
VERSION            .         2009.2.2                      : 
WELL-NAME          .         Well1                         : 
X                  .km       6129.9                        : 
Y                  .km       68827.8                       : 
~Parameter Information Block
#_______________________________________________________________________________
#
#PARAMETER_NAME    .UNIT     VALUE                         : DESCRIPTION
#_______________________________________________________________________________
SET                .         LQC                           : 
REAL_CREATION_DATE .         Mon Feb 8 2010-17_05_16       : 
REAL_CREATION_DATE .         Tue Aug 25 2009-09_34_50      : 
TLFamily_BVW_AR    .         Bulk Fluid Volume             : 
TLFamily_MD        .         Measured Depth                : 
TLFamily_PHIT_DUK  .         Porosity                      : 
TLFamily_RT_DUK    .         Formation Resistivity         : 
TLFamily_SH_AR     .         Oil Saturation                : 
TLFamily_SW_AR     .         Water Saturation              : 
TLFamily_SW_AR_UNCL .         Water Saturation Unclipped    : 
~Curve Information
#_______________________________________________________________________________
#
#LOGNAME           .UNIT     LOG_ID                        : DESCRIPTION
#_______________________________________________________________________________
MD                 .ft                                     :  
BVW_AR_TRUE        .v/v                                    :
PHIT_DUK           .v/v                                    : dukpet - total porosity [74] 
RT_DUK             .OHMM                                   : dukpet - true resistivity [76] 
SH_AR_TRUE         .v/v                                    :
SW_AR_TRUE         .v/v                                    :  
SW_AR_UNCL_TRUE    .v/v                                    :  
~Ascii
# ...
7870       0.214141   0.214141   0.3712     0          1          1.327568  
7870.5     0.213131   0.213131   0.3741     0          1          1.328679  
7871       0.211111   0.211111   0.3757     0          1          1.338533  
7871.5     0.210606   0.210606   0.3769     0          1          1.339605  
7872       0.215152   0.215152   0.3785     0          1          1.308526  
7872.5     0.220202   0.220202   0.38       0          1          1.275991  
7873       0.219192   0.219192   0.3804     0          1          1.281196  
7873.5     0.213636   0.213636   0.3792     0          1          1.316594  
7874       0.211111   0.211111   0.3777     0          1          1.334985  
7874.5     0.214141   0.214141   0.3771     0          1          1.317142  
7875       0.218687   0.218687   0.3777     0          1          1.288737  
7875.5     0.221212   0.221212   0.3785     0          1          1.272679  
7876       0.220707   0.220707   0.3784     0          1          1.27576   
7876.5     0.219697   0.219697   0.3771     0          1          1.283832  
7877       0.222222   0.222222   0.3744     0          1          1.273813  
7877.5     0.225758   0.225758   0.3707     0          1          1.260103  
7878       0.226263   0.226263   0.3669     0          1          1.263785  
7878.5     0.222727   0.222727   0.3657     0          1          1.285954  
7879       0.221717   0.221717   0.3702     0          1          1.283936  
7879.5     0.224242   0.224242   0.3837     0          1          1.246946  
7880       0.221717   0.221717   0.4058     0          1          1.226325  
7880.5     0.204546   0.204546   0.4305     0          1          1.290574  
7881       0.175758   0.175758   0.4564     0          1          1.458722  
7881.5     0.15202    0.15202    0.4815     0          1          1.641957  
7882       0.14697    0.14697    0.5045     0          1          1.65921   
7882.5     0.155556   0.155556   0.5209     0          1          1.542754  
7883       0.167677   0.167677   0.5224     0          1          1.429175  
7883.5     0.182828   0.182828   0.5047     0          1          1.333525  
7884       0.20404    0.20404    0.4739     0          1          1.23311   
7884.5     0.225253   0.225253   0.4405     0          1          1.158556  
7885       0.236364   0.236364   0.4102     0          1          1.144146  
7885.5     0.231818   0.231818   0.3815     0          1          1.209668  
7886       0.218182   0.218182   0.3572     0          1          1.328269  
7886.5     0.205556   0.205556   0.3404     0          1          1.444228  
7887       0.199495   0.199495   0.3331     0          1          1.504324  
7887.5     0.19798    0.19798    0.3363     0          1          1.508606  
7888       0.198485   0.198485   0.3476     0          1          1.480107  
7888.5     0.2        0.2        0.3626     0          1          1.438192  
7889       0.202525   0.202525   0.3795     0          1          1.388277  
7889.5     0.207576   0.207576   0.3992     0          1          1.320651  
7890       0.210101   0.210101   0.4204     0          1          1.271456  
7890.5     0.203535   0.203535   0.4476     0          1          1.271969  
7891       0.185859   0.185859   0.4837     0          1          1.339951  
7891.5     0.163636   0.163636   0.5306     0          1          1.453109  
7892       0.143939   0.143939   0.5875     0          1          1.569922  
7892.5     0.131313   0.131313   0.6474     0          1          1.639331  
7893       0.125758   0.125758   0.707      0          1          1.638005  
7893.5     0.125253   0.125253   0.7694     0          1          1.576509  
7894       0.127273   0.127273   0.8274     0          1          1.496121  
7894.5     0.133838   0.133838   0.8673     0          1          1.389621  
7895       0.139394   0.139394   0.8803     0          1          1.324345  
7895.5     0.138384   0.138384   0.8693     0          1          1.342425  
7896       0.134849   0.134849   0.8406     0          1          1.400936  
7896.5     0.135859   0.135859   0.8002     0          1          1.425191  
7897       0.148485   0.148485   0.754      0          1          1.34336   
7897.5     0.172727   0.172727   0.7062     0          1          1.193264  
7898       0.200505   0.200505   0.6606     0          1          1.062836  
7898.5     0.218182   0.218182   0.6191     0          1          1.008931  
7899       0.220202   0.220202   0.5826     0          1          1.030515  
7899.5     0.214141   0.214141   0.5549     0          1          1.085809  
7900       0.207576   0.207576   0.5354     0          1          1.140366  
7900.5     0.19798    0.19798    0.5247     0          1          1.207769  
7901       0.181313   0.181313   0.5231     0          1          1.320807  
7901.5     0.163131   0.163131   0.532      0          1          1.455688  
7902       0.152525   0.152525   0.551      0          1          1.529832  
7902.5     0.15202    0.15202    0.5786     0          1          1.497858  
7903       0.155556   0.155556   0.6132     0          1          1.421912  
7903.5     0.157071   0.157071   0.6509     0          1          1.366808  
7904       0.156566   0.156566   0.6883     0          1          1.333442  
7904.5     0.151515   0.151515   0.719      0          1          1.348157  
7905       0.141919   0.141919   0.7373     0          1          1.42134   
7905.5     0.128788   0.128788   0.7436     0          1          1.559608  
7906       0.125253   0.125253   0.7419     0          1          1.605461  
7906.5     0.133838   0.133838   0.7373     0          1          1.507159  
7907       0.14798    0.14798    0.7336     0          1          1.366557  
7907.5     0.161616   0.161616   0.7321     0          1          1.252538  
7908       0.165152   0.165152   0.7289     0          1          1.228408  
7908.5     0.157576   0.157576   0.715      0          1          1.299923  
7909       0.155051   0.155051   0.6864     0          1          1.348334  
7909.5     0.165657   0.165657   0.6507     0          1          1.296165  
7910       0.185354   0.185354   0.6173     0          1          1.189352  
7910.5     0.208081   0.208081   0.5878     0          1          1.085709  
7911       0.227273   0.227273   0.5584     0          1          1.019859  
7911.5     0.236869   0.236869   0.524      0          1          1.010152  
7912       -9999      -9999      -9999      -9999      -9999      -9999     
7912.5     -9999      -9999      -9999      -9999      -9999      -9999     
7913       -9999      -9999      -9999      -9999      -9999      -9999     
7913.5     -9999      -9999      -9999      -9999      -9999      -9999     
7914       -9999      -9999      -9999      -9999      -9999      -9999     
7914.5     -9999      -9999      -9999      -9999      -9999      -9999     
7915       -9999      -9999      -9999      -9999      -9999      -9999
