~Version
 VERS              .         2.0                           : CWLS LOG ASCII STANDARD - VERSION 2.0
 WRAP              .         NO                            : ONE LINE PER DEPTH STEP
 DLM               .         SPACE                         : DELIMITING CHARACTER(SPACE TAB OR COMMA)
~Well Information
#_______________________________________________________________________________
#
#PARAMETER_NAME    .UNIT     VALUE                         : DESCRIPTION
#_______________________________________________________________________________
STRT               .ft       7350                          : First reference value
STOP               .ft       7915                          : Last reference value
STEP               .ft       0.5                           : Step increment
NULL               .         -9999                         : Missing value
COMP               .         COMPANY1                      : Company
WELL               .         Well1                         : Well name
FLD                .         FIELD1                        : Field
LOC                .                                       : Location
PROV               .                                       : Province
SRVC               .                                       : Service Company
DATE               .                                       : Date
UWI                .                                       : Unique Well ID
API                .                                       : 
CNTY               .                                       : 
COMMENT            .                                       : 
COMMENT2           .                                       : 
COMPANY            .         Unknown                       : 
COMPLETION_DATE    .                                       : 
COUNTRY            .         COUNTRY1                      : 
COUNTY             .         UNKNOWN                       : 
CREATION-TIME      .         2009/11/18 14_51              : 
CTRY               .         CO                            : 
DERRICK_FLOOR      .                                       : 
DRILLING_MEASURED_FROM_FIELD .                                       : 
ELEVATION          .                                       : 
ELEVATION_DATUM    .                                       : 
EREF               .FT       90                            : 
FIELD-NAME         .         FIELD1                        : 
FIELD_API          .                                       : 
FIELD_PWI          .                                       : 
FILE-ID            .         Well1                         : 
FILE-NUMBER        .         1                             : 
FILE-SET-NAME      .         WELL1                         : 
FILE-SET-NUMBER    .         2171                          : 
FILE-TYPE          .         EXPORT                        : 
GDAT               .                                       : 
GROUND_LEVEL       .                                       : 
GROUP              .                                       :  
HORIZONTAL_COORDINATE_SYSTEM .                                       : 
JOURNAL_FILENAME   .         22_6A-9_JOURNAL.DAT           : 
KB                 .m        90.                           : 
LIC                .                                       : 
LOCATION1          .                                       : 
LOCATION2          .                                       : 
LOG_MEASURE_FROM_FIELD .         KB                            : 
LONG_WELL_NAME     .                                       : 
LATI               .         30.684311                     : 
LONG               .         64.165074                     : 
NAME-SPACE-VERSION .         0                             : 
ORIGINALWELLNAME   .         Well1                         : 
PERMANENT_DATUM    .                                       : 
PRODUCER-CODE      .         999                           : 
PRODUCER-NAME      .         Techsia                       : 
PRODUCT            .         Techlog                       : 
PROGRAMS           .         WELL-Well1                    : 
RANGE              .                                       : 
SECTION            .                                       : 
SHORT_WELL_NAME    .                                       : 
SPUD_DATE          .                                       : 
SURVEY_DEPTH       .                                       : 
STAT               .         Test Well                     : 
TOWNSHIP           .                                       : 
TYPE               .                                       : 
TD                 .                                       : 
VERSION            .         2009.2.2                      : 
WELL-NAME          .         Well1                         : 
X                  .km       6129.9                        : 
Y                  .km       68827.8                       : 
~Parameter Information Block
#_______________________________________________________________________________
#
#PARAMETER_NAME    .UNIT     VALUE                         : DESCRIPTION
#_______________________________________________________________________________
SET                .         LQC                           : 
REAL_CREATION_DATE .         Mon Feb 8 2010-17_05_16       : 
REAL_CREATION_DATE .         Tue Aug 25 2009-09_34_50      : 
TLFamily_BVW_AR    .         Bulk Fluid Volume             : 
TLFamily_MD        .         Measured Depth                : 
TLFamily_PHIT_DUK  .         Porosity                      : 
TLFamily_RT_DUK    .         Formation Resistivity         : 
TLFamily_SH_AR     .         Oil Saturation                : 
TLFamily_SW_AR     .         Water Saturation              : 
TLFamily_SW_AR_UNCL .         Water Saturation Unclipped    : 
~Curve Information
#_______________________________________________________________________________
#
#LOGNAME           .UNIT     LOG_ID                        : DESCRIPTION
#_______________________________________________________________________________
MD                 .ft                                     :  
BVW_AR_TRUE        .v/v                                    :
PHIT_DUK           .v/v                                    : dukpet - total porosity [74] 
RT_DUK             .OHMM                                   : dukpet - true resistivity [76] 
SH_AR_TRUE         .v/v                                    :
SW_AR_TRUE         .v/v                                    :  
SW_AR_UNCL_TRUE    .v/v                                    :  
~Ascii
# ...
7766       0.2277634  0.240909   0.5783     0.05456644 0.9454336  0.9454336 
7766.5     0.234849   0.234849   0.5257     0          1          1.017192  
7767       0.219192   0.219192   0.4881     0          1          1.131049  
7767.5     0.192929   0.192929   0.4593     0          1          1.324692  
7768       0.169697   0.169697   0.4361     0          1          1.545587  
7768.5     0.171212   0.171212   0.4175     0          1          1.565663  
7769       0.195455   0.195455   0.4044     0          1          1.393504  
7769.5     0.219697   0.219697   0.3956     0          1          1.253454  
7770       0.230808   0.230808   0.3883     0          1          1.204276  
7770.5     0.232323   0.232323   0.3804     0          1          1.208782  
7771       0.230808   0.230808   0.3731     0          1          1.228562  
7771.5     0.229293   0.229293   0.3703     0          1          1.241346  
7772       0.226263   0.226263   0.3751     0          1          1.249895  
7772.5     0.221717   0.221717   0.3889     0          1          1.252687  
7773       0.217677   0.217677   0.4104     0          1          1.242065  
7773.5     0.216162   0.216162   0.438      0          1          1.210721  
7774       0.213636   0.213636   0.4758     0          1          1.175368  
7774.5     0.201515   0.201515   0.5288     0          1          1.181973  
7775       0.170202   0.170202   0.6022     0          1          1.311371  
7775.5     0.121212   0.121212   0.6962     0          1          1.712569  
7776       0.072222   0.072222   0.818      0          1          2.651639  
7776.5     0.038889   0.038889   0.9747     0          1          4.511265  
7777       0.019192   0.019192   1.1413     0          1          8.447739  
7777.5     0.00404    0.00404    1.2923     0          1          1         
7778       0.0001000  0.0001000  1.3952     0          1          1         
7778.5     0.0001000  0.0001000  1.444      0          1          1         
7779       0.0001000  0.0001000  1.4285     0          1          1         
7779.5     0.0001000  0.0001000  1.3567     0          1          1         
7780       0.0001000  0.0001000  1.2566     0          1          1         
7780.5     0.026263   0.026263   1.1507     0          1          6.148019  
7781       0.084848   0.084848   1.0523     0          1          1.989982  
7781.5     0.136869   0.136869   0.9562     0          1          1.29414   
7782       0.165152   0.165152   0.8639     0          1          1.128353  
7782.5     0.174748   0.174748   0.7812     0          1          1.121417  
7783       0.175758   0.175758   0.7087     0          1          1.170616  
7783.5     0.175758   0.175758   0.648      0          1          1.224216  
7784       0.177778   0.177778   0.5969     0          1          1.261049  
7784.5     0.179798   0.179798   0.5561     0          1          1.291812  
7785       0.180808   0.180808   0.5261     0          1          1.320714  
7785.5     0.182828   0.182828   0.505      0          1          1.333129  
7786       0.185859   0.185859   0.49       0          1          1.331309  
7786.5     0.191414   0.191414   0.4782     0          1          1.308525  
7787       0.196465   0.196465   0.4683     0          1          1.288289  
7787.5     0.19798    0.19798    0.4594     0          1          1.290755  
7788       0.196465   0.196465   0.451      0          1          1.312765  
7788.5     0.19495    0.19495    0.4434     0          1          1.334257  
7789       0.195455   0.195455   0.4365     0          1          1.341287  
7789.5     0.198485   0.198485   0.4302     0          1          1.330447  
7790       0.202525   0.202525   0.4251     0          1          1.311706  
7790.5     0.206061   0.206061   0.421      0          1          1.295459  
7791       0.208081   0.208081   0.418      0          1          1.287479  
7791.5     0.206566   0.206566   0.4165     0          1          1.299255  
7792       0.202525   0.202525   0.4169     0          1          1.324543  
7792.5     0.199495   0.199495   0.4198     0          1          1.340008  
7793       0.200505   0.200505   0.4256     0          1          1.324142  
7793.5     0.205051   0.205051   0.4341     0          1          1.282047  
7794       0.210606   0.210606   0.4436     0          1          1.234793  
7794.5     0.215152   0.215152   0.4519     0          1          1.197551  
7795       0.216667   0.216667   0.4584     0          1          1.180716  
7795.5     0.213636   0.213636   0.4633     0          1          1.191119  
7796       0.207071   0.207071   0.4668     0          1          1.224266  
7796.5     0.202525   0.202525   0.4693     0          1          1.248408  
7797       0.20303    0.20303    0.4711     0          1          1.242922  
7797.5     0.204546   0.204546   0.472      0          1          1.232533  
7798       0.20303    0.20303    0.4719     0          1          1.241868  
7798.5     0.19899    0.19899    0.4716     0          1          1.267484  
7799       0.193939   0.193939   0.4728     0          1          1.298843  
7799.5     0.192424   0.192424   0.4768     0          1          1.303567  
7800       0.193939   0.193939   0.484      0          1          1.283727  
7800.5     0.197475   0.197475   0.493      0          1          1.24918   
7801       0.20202    0.20202    0.5032     0          1          1.208637  
7801.5     0.208586   0.208586   0.5155     0          1          1.156541  
7802       0.215152   0.215152   0.5306     0          1          1.105176  
7802.5     0.217172   0.217172   0.548      0          1          1.077374  
7803       0.211111   0.211111   0.5656     0          1          1.090925  
7803.5     0.195455   0.195455   0.5775     0          1          1.166106  
7804       0.175758   0.175758   0.5767     0          1          1.297689  
7804.5     0.159091   0.159091   0.5636     0          1          1.450205  
7805       0.152525   0.152525   0.5431     0          1          1.540919  
7805.5     0.158586   0.158586   0.5195     0          1          1.515315  
7806       0.174242   0.174242   0.4957     0          1          1.411882  
7806.5     0.190404   0.190404   0.4726     0          1          1.323237  
7807       0.197475   0.197475   0.4506     0          1          1.306631  
7807.5     0.197475   0.197475   0.4317     0          1          1.334927  
7808       0.19495    0.19495    0.418      0          1          1.374198  
7808.5     0.190404   0.190404   0.4101     0          1          1.420495  
7809       0.180808   0.180808   0.4064     0          1          1.502679  
7809.5     0.168687   0.168687   0.4044     0          1          1.614632  
7810       0.165152   0.165152   0.4027     0          1          1.652669  
7810.5     0.177778   0.177778   0.4012     0          1          1.538162  
7811       0.201515   0.201515   0.3999     0          1          1.359182  
7811.5     0.220202   0.220202   0.3977     0          1          1.247273  
7812       0.228283   0.228283   0.3925     0          1          1.211064  
7812.5     0.230303   0.230303   0.3828     0          1          1.215556  
7813       0.231313   0.231313   0.3695     0          1          1.231837  
7813.5     0.229798   0.229798   0.3552     0          1          1.264672  
7814       0.226768   0.226768   0.3435     0          1          1.303213  
7814.5     0.224242   0.224242   0.3352     0          1          1.33411   
7815       0.223737   0.223737   0.3294     0          1          1.348842  
7815.5     0.225758   0.225758   0.326      0          1          1.34372   
7816       0.227273   0.227273   0.3255     0          1          1.335787  
7816.5     0.224748   0.224748   0.3292     0          1          1.343182  
7817       0.219697   0.219697   0.3375     0          1          1.357062  
7817.5     0.210606   0.210606   0.3497     0          1          1.390728  
