~Version
 VERS              .         2.0                           : CWLS LOG ASCII STANDARD - VERSION 2.0
 WRAP              .         NO                            : ONE LINE PER DEPTH STEP
 DLM               .         SPACE                         : DELIMITING CHARACTER(SPACE TAB OR COMMA)
~Well Information
#_______________________________________________________________________________
#
#PARAMETER_NAME    .UNIT     VALUE                         : DESCRIPTION
#_______________________________________________________________________________
STRT               .ft       7350                          : First reference value
STOP               .ft       7915                          : Last reference value
STEP               .ft       0.5                           : Step increment
NULL               .         -9999                         : Missing value
COMP               .         COMPANY1                      : Company
WELL               .         Well1                         : Well name
FLD                .         FIELD1                        : Field
LOC                .                                       : Location
PROV               .                                       : Province
SRVC               .                                       : Service Company
DATE               .                                       : Date
UWI                .                                       : Unique Well ID
API                .                                       : 
CNTY               .                                       : 
COMMENT            .                                       : 
COMMENT2           .                                       : 
COMPANY            .         Unknown                       : 
COMPLETION_DATE    .                                       : 
COUNTRY            .         COUNTRY1                      : 
COUNTY             .         UNKNOWN                       : 
CREATION-TIME      .         2009/11/18 14_51              : 
CTRY               .         CO                            : 
DERRICK_FLOOR      .                                       : 
DRILLING_MEASURED_FROM_FIELD .                                       : 
ELEVATION          .                                       : 
ELEVATION_DATUM    .                                       : 
EREF               .FT       90                            : 
FIELD-NAME         .         FIELD1                        : 
FIELD_API          .                                       : 
FIELD_PWI          .                                       : 
FILE-ID            .         Well1                         : 
FILE-NUMBER        .         1                             : 
FILE-SET-NAME      .         WELL1                         : 
FILE-SET-NUMBER    .         2171                          : 
FILE-TYPE          .         EXPORT                        : 
GDAT               .                                       : 
GROUND_LEVEL       .                                       : 
GROUP              .                                       :  
HORIZONTAL_COORDINATE_SYSTEM .                                       : 
JOURNAL_FILENAME   .         22_6A-9_JOURNAL.DAT           : 
KB                 .m        90.                           : 
LIC                .                                       : 
LOCATION1          .                                       : 
LOCATION2          .                                       : 
LOG_MEASURE_FROM_FIELD .         KB                            : 
LONG_WELL_NAME     .                                       : 
LATI               .         30.684311                     : 
LONG               .         64.165074                     : 
NAME-SPACE-VERSION .         0                             : 
ORIGINALWELLNAME   .         Well1                         : 
PERMANENT_DATUM    .                                       : 
PRODUCER-CODE      .         999                           : 
PRODUCER-NAME      .         Techsia                       : 
PRODUCT            .         Techlog                       : 
PROGRAMS           .         WELL-Well1                    : 
RANGE              .                                       : 
SECTION            .                                       : 
SHORT_WELL_NAME    .                                       : 
SPUD_DATE          .                                       : 
SURVEY_DEPTH       .                                       : 
STAT               .         Test Well                     : 
TOWNSHIP           .                                       : 
TYPE               .                                       : 
TD                 .                                       : 
VERSION            .         2009.2.2                      : 
WELL-NAME          .         Well1                         : 
X                  .km       6129.9                        : 
Y                  .km       68827.8                       : 
~Parameter Information Block
#_______________________________________________________________________________
#
#PARAMETER_NAME    .UNIT     VALUE                         : DESCRIPTION
#_______________________________________________________________________________
SET                .         LQC                           : 
REAL_CREATION_DATE .         Mon Feb 8 2010-17_05_16       : 
REAL_CREATION_DATE .         Tue Aug 25 2009-09_34_50      : 
TLFamily_BVW_AR    .         Bulk Fluid Volume             : 
TLFamily_MD        .         Measured Depth                : 
TLFamily_PHIT_DUK  .         Porosity                      : 
TLFamily_RT_DUK    .         Formation Resistivity         : 
TLFamily_SH_AR     .         Oil Saturation                : 
TLFamily_SW_AR     .         Water Saturation              : 
TLFamily_SW_AR_UNCL .         Water Saturation Unclipped    : 
~Curve Information
#_______________________________________________________________________________
#
#LOGNAME           .UNIT     LOG_ID                        : DESCRIPTION
#_______________________________________________________________________________
MD                 .ft                                     :  
BVW_AR_TRUE        .v/v                                    :
PHIT_DUK           .v/v                                    : dukpet - total porosity [74] 
RT_DUK             .OHMM                                   : dukpet - true resistivity [76] 
SH_AR_TRUE         .v/v                                    :
SW_AR_TRUE         .v/v                                    :  
SW_AR_UNCL_TRUE    .v/v                                    :  
~Ascii
# ...
7610       0.0377579  0.229869   21.0429    0.8357416  0.1642583  0.1642583 
7610.5     0.03644694 0.230337   22.5839    0.8417668  0.1582331  0.1582331 
7611       0.03537576 0.228933   23.9723    0.8454755  0.1545245  0.1545245 
7611.5     0.03457552 0.227528   25.0948    0.8480384  0.1519616  0.1519616 
7612       0.03417623 0.227528   25.6846    0.8497933  0.1502067  0.1502067 
7612.5     0.03415417 0.227996   25.7178    0.8501984  0.1498016  0.1498016 
7613       0.03435479 0.229401   25.4183    0.8502413  0.1497587  0.1497587 
7613.5     0.03463118 0.230805   25.0142    0.8499548  0.1500452  0.1500452 
7614       0.0349456  0.234551   24.5661    0.8510107  0.1489893  0.1489893 
7614.5     0.03531218 0.2397     24.0587    0.8526818  0.1473182  0.1473182 
7615       0.03577922 0.243446   23.4347    0.8530301  0.1469699  0.1469699 
7615.5     0.03636372 0.241573   22.6874    0.8494711  0.1505289  0.1505289 
7616       0.03727807 0.23736    21.5881    0.8429471  0.1570529  0.1570529 
7616.5     0.03935463 0.235019   19.37      0.8325471  0.167453   0.167453  
7617       0.04363194 0.234082   15.7584    0.813604   0.186396   0.186396  
7617.5     0.05026226 0.233614   11.8751    0.7848491  0.2151509  0.2151509 
7618       0.05809602 0.232678   8.8885     0.7503158  0.2496842  0.2496842 
7618.5     0.06526846 0.227528   7.0423     0.713141   0.286859   0.286859  
7619       0.0707207  0.212079   5.9983     0.6665361  0.3334639  0.3334639 
7619.5     0.07453698 0.192416   5.3998     0.6126258  0.3873741  0.3873741 
7620       0.07696331 0.18118    5.0647     0.5752108  0.4247892  0.4247892 
7620.5     0.07842152 0.18633    4.8781     0.5791256  0.4208744  0.4208744 
7621       0.07876539 0.203184   4.8356     0.6123445  0.3876555  0.3876555 
7621.5     0.07734142 0.220037   5.0153     0.6485072  0.3514928  0.3514928 
7622       0.07370829 0.231742   5.5219     0.6819382  0.3180619  0.3180619 
7622.5     0.06835593 0.238296   6.4205     0.7131469  0.286853   0.286853  
7623       0.06230479 0.240169   7.7282     0.7405794  0.2594206  0.2594206 
7623.5     0.05606781 0.238764   9.5432     0.7651747  0.2348252  0.2348252 
7624       0.05054181 0.235487   11.7441    0.7853733  0.2146267  0.2146267 
7624.5     0.04585982 0.232678   14.2645    0.8029044  0.1970956  0.1970956 
7625       0.04213649 0.231742   16.8968    0.818175   0.181825   0.181825  
7625.5     0.03957818 0.233614   19.1518    0.830583   0.169417   0.169417  
7626       0.03798439 0.236891   20.7927    0.8396546  0.1603454  0.1603454 
7626.5     0.03695921 0.240169   21.9622    0.8461117  0.1538883  0.1538883 
7627       0.03629698 0.2397     22.7709    0.8485733  0.1514267  0.1514267 
7627.5     0.0359599  0.235955   23.1998    0.8475985  0.1524015  0.1524015 
7628       0.03593072 0.230805   23.2375    0.8443244  0.1556757  0.1556757 
7628.5     0.03611929 0.226592   22.9955    0.8405977  0.1594023  0.1594023 
7629       0.03648218 0.222846   22.5403    0.8362898  0.1637103  0.1637103 
7629.5     0.03705542 0.219569   21.8483    0.8312356  0.1687644  0.1687644 
7630       0.03785119 0.217697   20.9393    0.826129   0.173871   0.173871  
7630.5     0.03881084 0.215824   19.9166    0.8201737  0.1798263  0.1798263 
7631       0.03981421 0.213951   18.9254    0.8139097  0.1860903  0.1860903 
7631.5     0.04076091 0.214888   18.0565    0.8103156  0.1896844  0.1896844 
7632       0.04162393 0.217228   17.3155    0.808386   0.191614   0.191614  
7632.5     0.04246741 0.217697   16.6345    0.8049242  0.1950758  0.1950758 
7633       0.04344638 0.217697   15.8933    0.8004273  0.1995727  0.1995727 
7633.5     0.04496559 0.220037   14.8375    0.7956454  0.2043547  0.2043547 
7634       0.04797207 0.22191    13.036     0.7838219  0.216178   0.216178  
7634.5     0.05314014 0.220506   10.6237    0.7590082  0.2409918  0.2409918 
7635       0.06025007 0.213015   8.2643     0.7171557  0.2828443  0.2828443 
7635.5     0.06843485 0.197097   6.4057     0.652786   0.347214   0.347214  
7636       0.07757846 0.183989   4.9847     0.5783528  0.4216472  0.4216472 
7636.5     0.08705422 0.182584   3.9586     0.52321    0.47679    0.47679   
7637       0.09682459 0.181648   3.2        0.4669659  0.5330341  0.5330341 
7637.5     0.1058196  0.168071   2.6791     0.3703874  0.6296126  0.6296126 
7638       0.1138227  0.15309    2.3156     0.2564982  0.7435018  0.7435018 
7638.5     0.1211165  0.153558   2.0451     0.2112654  0.7887346  0.7887346 
7639       0.1273773  0.166667   1.849      0.2357375  0.7642625  0.7642625 
7639.5     0.1306325  0.173221   1.758      0.2458624  0.7541376  0.7541376 
7640       0.1299651  0.169007   1.7761     0.2310073  0.7689927  0.7689927 
7640.5     0.126105   0.170412   1.8865     0.2599995  0.7400005  0.7400005 
7641       0.1207393  0.18867    2.0579     0.3600506  0.6399494  0.6399494 
7641.5     0.1153675  0.212079   2.254      0.4560162  0.5439838  0.5439838 
7642       0.1101988  0.224719   2.4704     0.509615   0.490385   0.490385  
7642.5     0.1050577  0.226592   2.7181     0.5363574  0.4636426  0.4636426 
7643       0.09983043 0.222846   3.0102     0.5520205  0.4479795  0.4479795 
7643.5     0.09494004 0.214888   3.3283     0.5581883  0.4418117  0.4418117 
7644       0.0906895  0.201779   3.6476     0.5505503  0.4494497  0.4494497 
7644.5     0.08747396 0.189138   3.9207     0.5375125  0.4624875  0.4624875 
7645       0.08562138 0.189138   4.0922     0.5473074  0.4526926  0.4526926 
7645.5     0.08484331 0.200375   4.1676     0.5765774  0.4234226  0.4234226 
7646       0.08441399 0.211142   4.2101     0.6002028  0.3997972  0.3997972 
7646.5     0.08341737 0.214419   4.3113     0.610961   0.3890391  0.3890391 
7647       0.08114809 0.212547   4.5558     0.6182111  0.3817889  0.3817889 
7647.5     0.07780354 0.20927    4.9559     0.6282146  0.3717854  0.3717854 
7648       0.07429043 0.205992   5.4357     0.6393528  0.3606472  0.3606472 
7648.5     0.07150766 0.20412    5.867      0.6496783  0.3503217  0.3503217 
7649       0.06989021 0.205056   6.1417     0.6591653  0.3408347  0.3408347 
7649.5     0.0692228  0.208333   6.2607     0.66773    0.33227    0.33227   
7650       0.06893546 0.212079   6.313      0.6749538  0.3250462  0.3250462 
7650.5     0.06844607 0.214419   6.4036     0.6807836  0.3192164  0.3192164 
7651       0.06742152 0.215356   6.5997     0.6869299  0.3130701  0.3130701 
7651.5     0.0658703  0.217228   6.9142     0.6967688  0.3032312  0.3032312 
7652       0.06412936 0.218633   7.2947     0.7066803  0.2933197  0.2933197 
7652.5     0.0626212  0.220506   7.6503     0.7160113  0.2839887  0.2839887 
7653       0.06155469 0.222846   7.9177     0.7237793  0.2762207  0.2762207 
7653.5     0.06086257 0.226124   8.0988     0.7308443  0.2691557  0.2691557 
7654       0.06044237 0.228464   8.2118     0.7354403  0.2645597  0.2645597 
7654.5     0.06022931 0.228933   8.27       0.736913   0.263087   0.263087  
7655       0.06020638 0.22706    8.2763     0.7348437  0.2651562  0.2651562 
7655.5     0.06048584 0.223783   8.2        0.7297121  0.2702879  0.2702879 
7656       0.06129358 0.220974   7.9853     0.7226208  0.2773792  0.2773792 
7656.5     0.06279711 0.22191    7.6075     0.7170154  0.2829846  0.2829846 
7657       0.06472707 0.224719   7.1606     0.7119644  0.2880356  0.2880356 
7657.5     0.06646463 0.224251   6.7911     0.7036151  0.296385   0.296385  
7658       0.06757683 0.218165   6.5694     0.690249   0.309751   0.309751  
7658.5     0.06812871 0.21161    6.4634     0.6780459  0.3219541  0.3219541 
7659       0.06842257 0.210206   6.408      0.6744975  0.3255025  0.3255025 
7659.5     0.0686846  0.214419   6.3592     0.6796711  0.3203289  0.3203289 
7660       0.0690356  0.218165   6.2947     0.6835624  0.3164376  0.3164376 
7660.5     0.06946399 0.220506   6.2173     0.6849791  0.3150209  0.3150209 
7661       0.07000256 0.22191    6.122      0.6845453  0.3154548  0.3154548 
7661.5     0.07089643 0.222846   5.9686     0.6818591  0.3181409  0.3181409 
