~Version
 VERS              .         2.0                           : CWLS LOG ASCII STANDARD - VERSION 2.0
 WRAP              .         NO                            : ONE LINE PER DEPTH STEP
 DLM               .         SPACE                         : DELIMITING CHARACTER(SPACE TAB OR COMMA)
~Well Information
#_______________________________________________________________________________
#
#PARAMETER_NAME    .UNIT     VALUE                         : DESCRIPTION
#_______________________________________________________________________________
STRT               .ft       7350                          : First reference value
STOP               .ft       7915                          : Last reference value
STEP               .ft       0.5                           : Step increment
NULL               .         -9999                         : Missing value
COMP               .         COMPANY1                      : Company
WELL               .         Well1                         : Well name
FLD                .         FIELD1                        : Field
LOC                .                                       : Location
PROV               .                                       : Province
SRVC               .                                       : Service Company
DATE               .                                       : Date
UWI                .                                       : Unique Well ID
API                .                                       : 
CNTY               .                                       : 
COMMENT            .                                       : 
COMMENT2           .                                       : 
COMPANY            .         Unknown                       : 
COMPLETION_DATE    .                                       : 
COUNTRY            .         COUNTRY1                      : 
COUNTY             .         UNKNOWN                       : 
CREATION-TIME      .         2009/11/18 14_51              : 
CTRY               .         CO                            : 
DERRICK_FLOOR      .                                       : 
DRILLING_MEASURED_FROM_FIELD .                                       : 
ELEVATION          .                                       : 
ELEVATION_DATUM    .                                       : 
EREF               .FT       90                            : 
FIELD-NAME         .         FIELD1                        : 
FIELD_API          .                                       : 
FIELD_PWI          .                                       : 
FILE-ID            .         Well1                         : 
FILE-NUMBER        .         1                             : 
FILE-SET-NAME      .         WELL1                         : 
FILE-SET-NUMBER    .         2171                          : 
FILE-TYPE          .         EXPORT                        : 
GDAT               .                                       : 
GROUND_LEVEL       .                                       : 
GROUP              .                                       :  
HORIZONTAL_COORDINATE_SYSTEM .                                       : 
JOURNAL_FILENAME   .         22_6A-9_JOURNAL.DAT           : 
KB                 .m        90.                           : 
LIC                .                                       : 
LOCATION1          .                                       : 
LOCATION2          .                                       : 
LOG_MEASURE_FROM_FIELD .         KB                            : 
LONG_WELL_NAME     .                                       : 
LATI               .         30.684311                     : 
LONG               .         64.165074                     : 
NAME-SPACE-VERSION .         0                             : 
ORIGINALWELLNAME   .         Well1                         : 
PERMANENT_DATUM    .                                       : 
PRODUCER-CODE      .         999                           : 
PRODUCER-NAME      .         Techsia                       : 
PRODUCT            .         Techlog                       : 
PROGRAMS           .         WELL-Well1                    : 
RANGE              .                                       : 
SECTION            .                                       : 
SHORT_WELL_NAME    .                                       : 
SPUD_DATE          .                                       : 
SURVEY_DEPTH       .                                       : 
STAT               .         Test Well                     : 
TOWNSHIP           .                                       : 
TYPE               .                                       : 
TD                 .                                       : 
VERSION            .         2009.2.2                      : 
WELL-NAME          .         Well1                         : 
X                  .km       6129.9                        : 
Y                  .km       68827.8                       : 
~Parameter Information Block
#_______________________________________________________________________________
#
#PARAMETER_NAME    .UNIT     VALUE                         : DESCRIPTION
#_______________________________________________________________________________
SET                .         LQC                           : 
REAL_CREATION_DATE .         Mon Feb 8 2010-17_05_16       : 
REAL_CREATION_DATE .         Tue Aug 25 2009-09_34_50      : 
TLFamily_BVW_AR    .         Bulk Fluid Volume             : 
TLFamily_MD        .         Measured Depth                : 
TLFamily_PHIT_DUK  .         Porosity                      : 
TLFamily_RT_DUK    .         Formation Resistivity         : 
TLFamily_SH_AR     .         Oil Saturation                : 
TLFamily_SW_AR     .         Water Saturation              : 
TLFamily_SW_AR_UNCL .         Water Saturation Unclipped    : 
~Curve Information
#_______________________________________________________________________________
#
#LOGNAME           .UNIT     LOG_ID                        : DESCRIPTION
#_______________________________________________________________________________
MD                 .ft                                     :  
BVW_AR_TRUE        .v/v                                    :
PHIT_DUK           .v/v                                    : dukpet - total porosity [74] 
RT_DUK             .OHMM                                   : dukpet - true resistivity [76] 
SH_AR_TRUE         .v/v                                    :
SW_AR_TRUE         .v/v                                    :  
SW_AR_UNCL_TRUE    .v/v                                    :  
~Ascii
# ...
7818       0.19899    0.19899    0.3649     0          1          1.440929  
7818.5     0.190909   0.190909   0.3832     0          1          1.46562   
7819       0.189394   0.189394   0.4037     0          1          1.439345  
7819.5     0.190404   0.190404   0.4227     0          1          1.399163  
7820       0.193939   0.193939   0.4401     0          1          1.346232  
7820.5     0.20101    0.20101    0.4514     0          1          1.282514  
7821       0.205556   0.205556   0.4508     0          1          1.254985  
7821.5     0.20202    0.20202    0.4389     0          1          1.294147  
7822       0.19697    0.19697    0.4228     0          1          1.352362  
7822.5     0.20202    0.20202    0.4082     0          1          1.34193   
7823       0.213636   0.213636   0.394      0          1          1.29163   
7823.5     0.220202   0.220202   0.377      0          1          1.281058  
7824       0.222727   0.222727   0.3578     0          1          1.300073  
7824.5     0.227273   0.227273   0.3372     0          1          1.312408  
7825       0.234849   0.234849   0.3178     0          1          1.308263  
7825.5     0.240404   0.240404   0.3021     0          1          1.310822  
7826       0.242929   0.242929   0.291      0          1          1.321706  
7826.5     0.242929   0.242929   0.2851     0          1          1.335312  
7827       0.243939   0.243939   0.2839     0          1          1.33259   
7827.5     0.24596    0.24596    0.2872     0          1          1.314026  
7828       0.24596    0.24596    0.2956     0          1          1.295221  
7828.5     0.236869   0.236869   0.3088     0          1          1.315872  
7829       0.214141   0.214141   0.3262     0          1          1.416181  
7829.5     0.184343   0.184343   0.3461     0          1          1.597104  
7830       0.161111   0.161111   0.3663     0          1          1.776303  
7830.5     0.157576   0.157576   0.384      0          1          1.773801  
7831       0.174242   0.174242   0.3968     0          1          1.578054  
7831.5     0.197475   0.197475   0.4027     0          1          1.382158  
7832       0.211616   0.211616   0.4022     0          1          1.290598  
7832.5     0.212626   0.212626   0.3976     0          1          1.291877  
7833       0.20303    0.20303    0.3913     0          1          1.363784  
7833.5     0.185354   0.185354   0.3873     0          1          1.501533  
7834       0.162626   0.162626   0.3888     0          1          1.708077  
7834.5     0.136364   0.136364   0.3979     0          1          2.013603  
7835       0.118182   0.118182   0.411      0          1          2.286064  
7835.5     0.123232   0.123232   0.4245     0          1          2.157239  
7836       0.14899    0.14899    0.4362     0          1          1.760195  
7836.5     0.171717   0.171717   0.4465     0          1          1.509512  
7837       0.180808   0.180808   0.4584     0          1          1.414883  
7837.5     0.182323   0.182323   0.4748     0          1          1.378681  
7838       0.181818   0.181818   0.4957     0          1          1.353051  
7838.5     0.179798   0.179798   0.5177     0          1          1.338865  
7839       0.178283   0.178283   0.5351     0          1          1.328107  
7839.5     0.178788   0.178788   0.5423     0          1          1.315535  
7840       0.178788   0.178788   0.5341     0          1          1.325595  
7840.5     0.179798   0.179798   0.5078     0          1          1.351853  
7841       0.187374   0.187374   0.4684     0          1          1.35065   
7841.5     0.20404    0.20404    0.425      0          1          1.302119  
7842       0.222727   0.222727   0.3839     0          1          1.255101  
7842.5     0.232828   0.232828   0.3489     0          1          1.259433  
7843       0.232828   0.232828   0.324      0          1          1.306932  
7843.5     0.227273   0.227273   0.3081     0          1          1.372989  
7844       0.220707   0.220707   0.3016     0          1          1.428989  
7844.5     0.209596   0.209596   0.305      0          1          1.496331  
7845       0.183838   0.183838   0.3172     0          1          1.672857  
7845.5     0.14596    0.14596    0.3365     0          1          2.045664  
7846       0.121212   0.121212   0.3616     0          1          2.376297  
7846.5     0.129798   0.129798   0.3896     0          1          2.137879  
7847       0.159091   0.159091   0.4138     0          1          1.692465  
7847.5     0.186364   0.186364   0.4326     0          1          1.413043  
7848       0.201515   0.201515   0.448      0          1          1.284145  
7848.5     0.20303    0.20303    0.461      0          1          1.256464  
7849       0.193939   0.193939   0.4712     0          1          1.301046  
7849.5     0.181313   0.181313   0.477      0          1          1.38316   
7850       0.173232   0.173232   0.4746     0          1          1.451338  
7850.5     0.173232   0.173232   0.4605     0          1          1.47339   
7851       0.185354   0.185354   0.4372     0          1          1.413249  
7851.5     0.208586   0.208586   0.412      0          1          1.29368   
7852       0.229293   0.229293   0.3894     0          1          1.21052   
7852.5     0.236364   0.236364   0.3708     0          1          1.203398  
7853       0.228788   0.228788   0.357      0          1          1.267049  
7853.5     0.212121   0.212121   0.3476     0          1          1.384959  
7854       0.191919   0.191919   0.3444     0          1          1.53784   
7854.5     0.173737   0.173737   0.3521     0          1          1.680101  
7855       0.164141   0.164141   0.3749     0          1          1.723399  
7855.5     0.163131   0.163131   0.4121     0          1          1.653952  
7856       0.163636   0.163636   0.4544     0          1          1.570228  
7856.5     0.159091   0.159091   0.4962     0          1          1.545563  
7857       0.15       0.15       0.529      0          1          1.587602  
7857.5     0.141414   0.141414   0.5492     0          1          1.652734  
7858       0.142424   0.142424   0.5615     0          1          1.62294   
7858.5     0.15101    0.15101    0.5716     0          1          1.517081  
7859       0.15202    0.15202    0.5782     0          1          1.498376  
7859.5     0.143434   0.143434   0.5754     0          1          1.591929  
7860       0.145455   0.145455   0.558      0          1          1.594097  
7860.5     0.164647   0.164647   0.5277     0          1          1.448149  
7861       0.186869   0.186869   0.4914     0          1          1.322226  
7861.5     0.20303    0.20303    0.4566     0          1          1.262503  
7862       0.213636   0.213636   0.4251     0          1          1.243485  
7862.5     0.221212   0.221212   0.3932     0          1          1.248663  
7863       0.226263   0.226263   0.36       0          1          1.275839  
7863.5     0.230808   0.230808   0.334      0          1          1.298484  
7864       0.231313   0.231313   0.3173     0          1          1.329308  
7864.5     0.227778   0.227778   0.3099     0          1          1.36596   
7865       0.224748   0.224748   0.3098     0          1          1.384599  
7865.5     0.222727   0.222727   0.3145     0          1          1.386684  
7866       0.222222   0.222222   0.3219     0          1          1.373767  
7866.5     0.221212   0.221212   0.3301     0          1          1.362791  
7867       0.219192   0.219192   0.3375     0          1          1.360188  
7867.5     0.218182   0.218182   0.3439     0          1          1.35371   
7868       0.219192   0.219192   0.3499     0          1          1.335869  
7868.5     0.220202   0.220202   0.3557     0          1          1.318856  
7869       0.218687   0.218687   0.3614     0          1          1.317479  
7869.5     0.215657   0.215657   0.3668     0          1          1.326119  
