~Version
 VERS              .         2.0                           : CWLS LOG ASCII STANDARD - VERSION 2.0
 WRAP              .         NO                            : ONE LINE PER DEPTH STEP
 DLM               .         SPACE                         : DELIMITING CHARACTER(SPACE TAB OR COMMA)
~Well Information
#_______________________________________________________________________________
#
#PARAMETER_NAME    .UNIT     VALUE                         : DESCRIPTION
#_______________________________________________________________________________
STRT               .ft       7350                          : First reference value
STOP               .ft       7915                          : Last reference value
STEP               .ft       0.5                           : Step increment
NULL               .         -9999                         : Missing value
COMP               .         COMPANY1                      : Company
WELL               .         Well1                         : Well name
FLD                .         FIELD1                        : Field
LOC                .                                       : Location
PROV               .                                       : Province
SRVC               .                                       : Service Company
DATE               .                                       : Date
UWI                .                                       : Unique Well ID
API                .                                       : 
CNTY               .                                       : 
COMMENT            .                                       : 
COMMENT2           .                                       : 
COMPANY            .         Unknown                       : 
COMPLETION_DATE    .                                       : 
COUNTRY            .         COUNTRY1                      : 
COUNTY             .         UNKNOWN                       : 
CREATION-TIME      .         2009/11/18 14_51              : 
CTRY               .         CO                            : 
DERRICK_FLOOR      .                                       : 
DRILLING_MEASURED_FROM_FIELD .                                       : 
ELEVATION          .                                       : 
ELEVATION_DATUM    .                                       : 
EREF               .FT       90                            : 
FIELD-NAME         .         FIELD1                        : 
FIELD_API          .                                       : 
FIELD_PWI          .                                       : 
FILE-ID            .         Well1                         : 
FILE-NUMBER        .         1                             : 
FILE-SET-NAME      .         WELL1                         : 
FILE-SET-NUMBER    .         2171                          : 
FILE-TYPE          .         EXPORT                        : 
GDAT               .                                       : 
GROUND_LEVEL       .                                       : 
GROUP              .                                       :  
HORIZONTAL_COORDINATE_SYSTEM .                                       : 
JOURNAL_FILENAME   .         22_6A-9_JOURNAL.DAT           : 
KB                 .m        90.                           : 
LIC                .                                       : 
LOCATION1          .                                       : 
LOCATION2          .                                       : 
LOG_MEASURE_FROM_FIELD .         KB                            : 
LONG_WELL_NAME     .                                       : 
LATI               .         30.684311                     : 
LONG               .         64.165074                     : 
NAME-SPACE-VERSION .         0                             : 
ORIGINALWELLNAME   .         Well1                         : 
PERMANENT_DATUM    .                                       : 
PRODUCER-CODE      .         999                           : 
PRODUCER-NAME      .         Techsia                       : 
PRODUCT            .         Techlog                       : 
PROGRAMS           .         WELL-Well1                    : 
RANGE              .                                       : 
SECTION            .                                       : 
SHORT_WELL_NAME    .                                       : 
SPUD_DATE          .                                       : 
SURVEY_DEPTH       .                                       : 
STAT               .         Test Well                     : 
TOWNSHIP           .                                       : 
TYPE               .                                       : 
TD                 .                                       : 
VERSION            .         2009.2.2                      : 
WELL-NAME          .         Well1                         : 
X                  .km       6129.9                        : 
Y                  .km       68827.8                       : 
~Parameter Information Block
#_______________________________________________________________________________
#
#PARAMETER_NAME    .UNIT     VALUE                         : DESCRIPTION
#_______________________________________________________________________________
SET                .         LQC                           : 
REAL_CREATION_DATE .         Mon Feb 8 2010-17_05_16       : 
REAL_CREATION_DATE .         Tue Aug 25 2009-09_34_50      : 
TLFamily_BVW_AR    .         Bulk Fluid Volume             : 
TLFamily_MD        .         Measured Depth                : 
TLFamily_PHIT_DUK  .         Porosity                      : 
TLFamily_RT_DUK    .         Formation Resistivity         : 
TLFamily_SH_AR     .         Oil Saturation                : 
TLFamily_SW_AR     .         Water Saturation              : 
TLFamily_SW_AR_UNCL .         Water Saturation Unclipped    : 
~Curve Information
#_______________________________________________________________________________
#
#LOGNAME           .UNIT     LOG_ID                        : DESCRIPTION
#_______________________________________________________________________________
MD                 .ft                                     :  
BVW_AR_TRUE        .v/v                                    :
PHIT_DUK           .v/v                                    : dukpet - total porosity [74] 
RT_DUK             .OHMM                                   : dukpet - true resistivity [76] 
SH_AR_TRUE         .v/v                                    :
SW_AR_TRUE         .v/v                                    :  
SW_AR_UNCL_TRUE    .v/v                                    :  
~Ascii
# ...
7714       0.210101   0.210101   0.5207     0          1          1.142454  
7714.5     0.222727   0.222727   0.4931     0          1          1.10744   
7715       0.229293   0.229293   0.4781     0          1          1.092472  
7715.5     0.227273   0.227273   0.4708     0          1          1.110694  
7716       0.218687   0.218687   0.4696     0          1          1.155776  
7716.5     0.209596   0.209596   0.4772     0          1          1.196265  
7717       0.208081   0.208081   0.4983     0          1          1.179187  
7717.5     0.214141   0.214141   0.5378     0          1          1.102936  
7718       0.217677   0.217677   0.6016     0          1          1.025874  
7718.5     0.2083635  0.212121   0.691      0.01771402 0.982286   0.982286  
7719       0.1929869  0.201515   0.8055     0.04231989 0.9576801  0.9576801 
7719.5     0.1784482  0.191414   0.9421     0.06773704 0.932263   0.932263  
7720       0.1667903  0.180303   1.0784     0.07494467 0.9250553  0.9250553 
7720.5     0.1581205  0.162121   1.1999     0.0246762  0.9753238  0.9753238 
7721       0.14596    0.14596    1.2805     0          1          1.048665  
7721.5     0.151515   0.151515   1.2989     0          1          1.003037  
7722       0.1543401  0.172727   1.2594     0.1064507  0.8935493  0.8935493 
7722.5     0.1604026  0.189899   1.166      0.1553269  0.8446731  0.8446731 
7723       0.1703501  0.190404   1.0338     0.105323   0.894677   0.894677  
7723.5     0.178788   0.178788   0.8764     0          1          1.034835  
7724       0.179798   0.179798   0.742      0          1          1.11834   
7724.5     0.199495   0.199495   0.6495     0          1          1.077306  
7725       0.221717   0.221717   0.5877     0          1          1.019022  
7725.5     0.230303   0.230303   0.5442     0          1          1.019487  
7726       0.226263   0.226263   0.509      0          1          1.072971  
7726.5     0.222222   0.222222   0.4804     0          1          1.124533  
7727       0.226768   0.226768   0.4619     0          1          1.123841  
7727.5     0.234849   0.234849   0.4587     0          1          1.088949  
7728       0.232323   0.232323   0.4721     0          1          1.085054  
7728.5     0.213131   0.213131   0.4972     0          1          1.15252   
7729       0.184849   0.184849   0.5289     0          1          1.288418  
7729.5     0.164647   0.164647   0.569      0          1          1.394603  
7730       0.158586   0.158586   0.6224     0          1          1.384398  
7730.5     0.155556   0.155556   0.6837     0          1          1.346608  
7731       0.146465   0.146465   0.7495     0          1          1.365969  
7731.5     0.138889   0.138889   0.8146     0          1          1.381722  
7732       0.143434   0.143434   0.8731     0          1          1.292339  
7732.5     0.15404    0.15404    0.9194     0          1          1.172668  
7733       0.159091   0.159091   0.9468     0          1          1.118886  
7733.5     0.158586   0.158586   0.9534     0          1          1.118557  
7734       0.157071   0.157071   0.9452     0          1          1.134234  
7734.5     0.156061   0.156061   0.9295     0          1          1.151176  
7735       0.156566   0.156566   0.9084     0          1          1.160712  
7735.5     0.160606   0.160606   0.8819     0          1          1.148389  
7736       0.165152   0.165152   0.8519     0          1          1.136272  
7736.5     0.166667   0.166667   0.8198     0          1          1.147776  
7737       0.164647   0.164647   0.7864     0          1          1.186274  
7737.5     0.160101   0.160101   0.7533     0          1          1.246472  
7738       0.157071   0.157071   0.7237     0          1          1.29624   
7738.5     0.162121   0.162121   0.7007     0          1          1.276307  
7739       0.175253   0.175253   0.6866     0          1          1.192733  
7739.5     0.187374   0.187374   0.682      0          1          1.119333  
7740       0.192424   0.192424   0.6869     0          1          1.086062  
7740.5     0.186364   0.186364   0.7004     0          1          1.110518  
7741       0.171212   0.171212   0.7212     0          1          1.191238  
7741.5     0.15       0.15       0.7483     0          1          1.334847  
7742       0.126263   0.126263   0.7821     0          1          1.551149  
7742.5     0.110606   0.110606   0.8208     0          1          1.728476  
7743       0.116667   0.116667   0.8605     0          1          1.600432  
7743.5     0.138889   0.138889   0.896      0          1          1.317464  
7744       0.155556   0.155556   0.922      0          1          1.159601  
7744.5     0.157071   0.157071   0.9332     0          1          1.141504  
7745       0.147475   0.147475   0.9228     0          1          1.222611  
7745.5     0.135859   0.135859   0.8835     0          1          1.356341  
7746       0.129798   0.129798   0.8132     0          1          1.479769  
7746.5     0.139899   0.139899   0.7241     0          1          1.454946  
7747       0.168687   0.168687   0.6354     0          1          1.288117  
7747.5     0.206566   0.206566   0.5547     0          1          1.12583   
7748       0.234849   0.234849   0.4881     0          1          1.055644  
7748.5     0.24798    0.24798    0.4343     0          1          1.059861  
7749       0.25202    0.25202    0.3923     0          1          1.097277  
7749.5     0.25303    0.25303    0.3579     0          1          1.144215  
7750       0.251515   0.251515   0.335      0          1          1.189801  
7750.5     0.246465   0.246465   0.3201     0          1          1.242117  
7751       0.240404   0.240404   0.3117     0          1          1.290478  
7751.5     0.236869   0.236869   0.3089     0          1          1.315659  
7752       0.238889   0.238889   0.3118     0          1          1.298454  
7752.5     0.242929   0.242929   0.3205     0          1          1.25941   
7753       0.24495    0.24495    0.3333     0          1          1.224801  
7753.5     0.24596    0.24596    0.3468     0          1          1.195795  
7754       0.248485   0.248485   0.3574     0          1          1.165959  
7754.5     0.25       0.25       0.3644     0          1          1.147708  
7755       0.24798    0.24798    0.3694     0          1          1.1492    
7755.5     0.24495    0.24495    0.374      0          1          1.156238  
7756       0.241414   0.241414   0.378      0          1          1.16695   
7756.5     0.234849   0.234849   0.3795     0          1          1.197198  
7757       0.227273   0.227273   0.3775     0          1          1.240379  
7757.5     0.226263   0.226263   0.3739     0          1          1.251899  
7758       0.232323   0.232323   0.3722     0          1          1.222025  
7758.5     0.236364   0.236364   0.375      0          1          1.19664   
7759       0.235859   0.235859   0.3842     0          1          1.184757  
7759.5     0.236869   0.236869   0.4008     0          1          1.155017  
7760       0.240909   0.240909   0.4238     0          1          1.104402  
7760.5     0.24495    0.24495    0.4585     0          1          1.044272  
7761       0.2424881  0.247475   0.5102     0.0201512  0.9798488  0.9798488 
7761.5     0.2280001  0.25       0.5771     0.08799946 0.9120005  0.9120005 
7762       0.215033   0.251515   0.6488     0.1450489  0.8549511  0.8549511 
7762.5     0.2048939  0.252525   0.7146     0.1886192  0.8113808  0.8113808 
7763       0.197797   0.25303    0.7668     0.2182866  0.7817134  0.7817134 
7763.5     0.1940133  0.25303    0.797      0.23324    0.76676    0.76676   
7764       0.1935645  0.25101    0.8007     0.2288574  0.7711426  0.7711426 
7764.5     0.1968621  0.24798    0.7741     0.2061372  0.7938628  0.7938628 
7765       0.2044367  0.24495    0.7178     0.1653941  0.8346059  0.8346059 
7765.5     0.2154819  0.242929   0.6461     0.1129841  0.8870159  0.8870159 
