~Version
 VERS              .         2.0                           : CWLS LOG ASCII STANDARD - VERSION 2.0
 WRAP              .         NO                            : ONE LINE PER DEPTH STEP
 DLM               .         SPACE                         : DELIMITING CHARACTER(SPACE TAB OR COMMA)
~Well Information
#_______________________________________________________________________________
#
#PARAMETER_NAME    .UNIT     VALUE                         : DESCRIPTION
#_______________________________________________________________________________
STRT               .ft       7350                          : First reference value
STOP               .ft       7915                          : Last reference value
STEP               .ft       0.5                           : Step increment
NULL               .         -9999                         : Missing value
COMP               .         COMPANY1                      : Company
WELL               .         Well1                         : Well name
FLD                .         FIELD1                        : Field
LOC                .                                       : Location
PROV               .                                       : Province
SRVC               .                                       : Service Company
DATE               .                                       : Date
UWI                .                                       : Unique Well ID
API                .                                       : 
CNTY               .                                       : 
COMMENT            .                                       : 
COMMENT2           .                                       : 
COMPANY            .         Unknown                       : 
COMPLETION_DATE    .                                       : 
COUNTRY            .         COUNTRY1                      : 
COUNTY             .         UNKNOWN                       : 
CREATION-TIME      .         2009/11/18 14_51              : 
CTRY               .         CO                            : 
DERRICK_FLOOR      .                                       : 
DRILLING_MEASURED_FROM_FIELD .                                       : 
ELEVATION          .                                       : 
ELEVATION_DATUM    .                                       : 
EREF               .FT       90                            : 
FIELD-NAME         .         FIELD1                        : 
FIELD_API          .                                       : 
FIELD_PWI          .                                       : 
FILE-ID            .         Well1                         : 
FILE-NUMBER        .         1                             : 
FILE-SET-NAME      .         WELL1                         : 
FILE-SET-NUMBER    .         2171                          : 
FILE-TYPE          .         EXPORT                        : 
GDAT               .                                       : 
GROUND_LEVEL       .                                       : 
GROUP              .                                       :  
HORIZONTAL_COORDINATE_SYSTEM .                                       : 
JOURNAL_FILENAME   .         22_6A-9_JOURNAL.DAT           : 
KB                 .m        90.                           : 
LIC                .                                       : 
LOCATION1          .                                       : 
LOCATION2          .                                       : 
LOG_MEASURE_FROM_FIELD .         KB                            : 
LONG_WELL_NAME     .                                       : 
LATI               .         30.684311                     : 
LONG               .         64.165074                     : 
NAME-SPACE-VERSION .         0                             : 
ORIGINALWELLNAME   .         Well1                         : 
PERMANENT_DATUM    .                                       : 
PRODUCER-CODE      .         999                           : 
PRODUCER-NAME      .         Techsia                       : 
PRODUCT            .         Techlog                       : 
PROGRAMS           .         WELL-Well1                    : 
RANGE              .                                       : 
SECTION            .                                       : 
SHORT_WELL_NAME    .                                       : 
SPUD_DATE          .                                       : 
SURVEY_DEPTH       .                                       : 
STAT               .         Test Well                     : 
TOWNSHIP           .                                       : 
TYPE               .                                       : 
TD                 .                                       : 
VERSION            .         2009.2.2                      : 
WELL-NAME          .         Well1                         : 
X                  .km       6129.9                        : 
Y                  .km       68827.8                       : 
~Parameter Information Block
#_______________________________________________________________________________
#
#PARAMETER_NAME    .UNIT     VALUE                         : DESCRIPTION
#_______________________________________________________________________________
SET                .         LQC                           : 
REAL_CREATION_DATE .         Mon Feb 8 2010-17_05_16       : 
REAL_CREATION_DATE .         Tue Aug 25 2009-09_34_50      : 
TLFamily_BVW_AR    .         Bulk Fluid Volume             : 
TLFamily_MD        .         Measured Depth                : 
TLFamily_PHIT_DUK  .         Porosity                      : 
TLFamily_RT_DUK    .         Formation Resistivity         : 
TLFamily_SH_AR     .         Oil Saturation                : 
TLFamily_SW_AR     .         Water Saturation              : 
TLFamily_SW_AR_UNCL .         Water Saturation Unclipped    : 
~Curve Information
#_______________________________________________________________________________
#
#LOGNAME           .UNIT     LOG_ID                        : DESCRIPTION
#_______________________________________________________________________________
MD                 .ft                                     :  
BVW_AR_TRUE        .v/v                                    :
PHIT_DUK           .v/v                                    : dukpet - total porosity [74] 
RT_DUK             .OHMM                                   : dukpet - true resistivity [76] 
SH_AR_TRUE         .v/v                                    :
SW_AR_TRUE         .v/v                                    :  
SW_AR_UNCL_TRUE    .v/v                                    :  
~Ascii
# ...
7558       0.04609829 0.235487   14.1173    0.8042427  0.1957573  0.1957573 
7558.5     0.04419835 0.232678   15.3571    0.810045   0.189955   0.189955  
7559       0.04332985 0.227996   15.9789    0.8099535  0.1900465  0.1900465 
7559.5     0.04313739 0.223315   16.1218    0.8068317  0.1931683  0.1931683 
7560       0.04329843 0.218633   16.0021    0.8019584  0.1980416  0.1980416 
7560.5     0.04361271 0.216292   15.7723    0.7983619  0.2016381  0.2016381 
7561       0.04402667 0.21676    15.4771    0.7968875  0.2031125  0.2031125 
7561.5     0.04452235 0.219101   15.1344    0.7967954  0.2032047  0.2032047 
7562       0.04502039 0.220506   14.8014    0.7958314  0.2041685  0.2041685 
7562.5     0.04549294 0.22191    14.4955    0.7949938  0.2050063  0.2050063 
7563       0.04598167 0.222846   14.189     0.7936617  0.2063383  0.2063383 
7563.5     0.0464305  0.223783   13.916     0.79252    0.20748    0.20748   
7564       0.04663233 0.222846   13.7958    0.7907419  0.2092581  0.2092581 
7564.5     0.04633189 0.22191    13.9753    0.7912132  0.2087869  0.2087869 
7565       0.04550518 0.22706    14.4877    0.7995896  0.2004104  0.2004104 
7565.5     0.04438661 0.237828   15.2271    0.8133668  0.1866333  0.1866333 
7566       0.04325979 0.246255   16.0307    0.8243293  0.1756707  0.1756707 
7566.5     0.04213724 0.249064   16.8962    0.8308176  0.1691824  0.1691824 
7567       0.04085491 0.247659   17.9735    0.8350356  0.1649644  0.1649644 
7567.5     0.03934244 0.24485    19.382     0.8393202  0.1606798  0.1606798 
7568       0.03766325 0.242041   21.1488    0.8443931  0.1556069  0.1556069 
7568.5     0.03608564 0.240637   23.0384    0.8500412  0.1499588  0.1499588 
7569       0.03500064 0.2397     24.4889    0.8539815  0.1460185  0.1460185 
7569.5     0.03453845 0.237828   25.1487    0.8547755  0.1452245  0.1452245 
7570       0.0344325  0.232678   25.3037    0.8520165  0.1479835  0.1479835 
7570.5     0.03430516 0.223783   25.4919    0.8467034  0.1532966  0.1532966 
7571       0.03396955 0.21676    25.9981    0.843285   0.156715   0.156715  
7571.5     0.03344712 0.215356   26.8166    0.8446891  0.1553108  0.1553108 
7572       0.0328067  0.218633   27.8738    0.8499463  0.1500537  0.1500537 
7572.5     0.03204355 0.220506   29.2173    0.8546817  0.1453183  0.1453183 
7573       0.03109591 0.219569   31.0252    0.8583775  0.1416225  0.1416225 
7573.5     0.02992452 0.217228   33.5017    0.8622437  0.1377563  0.1377563 
7574       0.02868853 0.217228   36.4506    0.8679336  0.1320664  0.1320664 
7574.5     0.02773472 0.219101   39.0008    0.8734158  0.1265842  0.1265842 
7575       0.02727842 0.220037   40.3165    0.8760281  0.123972   0.123972  
7575.5     0.02727592 0.220974   40.3239    0.876565   0.123435   0.123435  
7576       0.02752785 0.223783   39.5892    0.8769886  0.1230113  0.1230113 
7576.5     0.02786427 0.228933   38.639     0.8782864  0.1217136  0.1217136 
7577       0.02823792 0.231273   37.6232    0.8779022  0.1220978  0.1220978 
7577.5     0.02873939 0.229869   36.3217    0.8749749  0.1250251  0.1250251 
7578       0.02944349 0.227528   34.6053    0.870594   0.129406   0.129406  
7578.5     0.030392   0.226124   32.479     0.8655959  0.1344041  0.1344041 
7579       0.03191475 0.222846   29.4536    0.8567857  0.1432144  0.1432144 
7579.5     0.03462004 0.218165   25.0303    0.8413126  0.1586874  0.1586874 
7580       0.03886248 0.215356   19.8637    0.8195431  0.1804569  0.1804569 
7580.5     0.04395686 0.217697   15.5263    0.7980824  0.2019176  0.2019176 
7581       0.04897569 0.221442   12.5072    0.7788329  0.2211671  0.2211671 
7581.5     0.05295603 0.218165   10.6977    0.7572662  0.2427339  0.2427339 
7582       0.05552414 0.203652   9.731      0.7273577  0.2726423  0.2726423 
7582.5     0.05680412 0.189607   9.2974     0.7004113  0.2995887  0.2995887 
7583       0.05742103 0.191011   9.0987     0.6993836  0.3006164  0.3006164 
7583.5     0.05780443 0.205524   8.9784     0.7187461  0.2812539  0.2812539 
7584       0.057568   0.21676    9.0523     0.7344159  0.2655841  0.2655841 
7584.5     0.0559081  0.220037   9.5978     0.745915   0.254085   0.254085  
7585       0.05275643 0.221442   10.7788    0.7617596  0.2382404  0.2382404 
7585.5     0.04905341 0.223315   12.4676    0.7803398  0.2196602  0.2196602 
7586       0.04570723 0.223315   14.3599    0.795324   0.204676   0.204676  
7586.5     0.04315425 0.221442   16.1092    0.8051217  0.1948784  0.1948784 
7587       0.0416809  0.220506   17.2682    0.8109761  0.1890239  0.1890239 
7587.5     0.04125065 0.220037   17.6303    0.8125286  0.1874714  0.1874714 
7588       0.04145323 0.213015   17.4584    0.8053976  0.1946024  0.1946024 
7588.5     0.04191985 0.192416   17.0719    0.7821395  0.2178605  0.2178605 
7589       0.04255165 0.155431   16.5687    0.7262345  0.2737655  0.2737655 
7589.5     0.04336419 0.110019   15.9536    0.6058481  0.3941519  0.3941519 
7590       0.04443347 0.075375   15.195     0.4105012  0.5894988  0.5894988 
7590.5     0.0457383  0.072097   14.3404    0.3656006  0.6343994  0.6343994 
7591       0.04702928 0.101592   13.5639    0.537077   0.4629231  0.4629231 
7591.5     0.04811234 0.143727   12.9601    0.665252   0.3347481  0.3347481 
7592       0.04898705 0.176498   12.5014    0.7224498  0.2775502  0.2775502 
7592.5     0.0498515  0.192884   12.0716    0.7415468  0.2584532  0.2584532 
7593       0.05100094 0.200375   11.5336    0.7454726  0.2545274  0.2545274 
7593.5     0.05237876 0.20412    10.9348    0.7433923  0.2566077  0.2566077 
7594       0.05357972 0.203652   10.4501    0.7369055  0.2630945  0.2630945 
7594.5     0.05430053 0.198502   10.1745    0.7264484  0.2735516  0.2735516 
7595       0.05456232 0.191011   10.0771    0.7143499  0.2856502  0.2856502 
7595.5     0.05452878 0.184925   10.0895    0.7051303  0.2948697  0.2948697 
7596       0.05435023 0.184925   10.1559    0.7060958  0.2939042  0.2939042 
7596.5     0.05410176 0.18867    10.2494    0.7132466  0.2867534  0.2867534 
7597       0.05359587 0.194757   10.4438    0.7248064  0.2751936  0.2751936 
7597.5     0.05252958 0.203652   10.8721    0.7420621  0.2579379  0.2579379 
7598       0.05091273 0.21161    11.5736    0.759403   0.240597   0.240597  
7598.5     0.04895828 0.217228   12.5161    0.7746226  0.2253774  0.2253774 
7599       0.04690512 0.220037   13.6358    0.7868307  0.2131693  0.2131693 
7599.5     0.04491506 0.222378   14.8709    0.7980238  0.2019762  0.2019762 
7600       0.04310679 0.223783   16.1447    0.8073724  0.1926276  0.1926276 
7600.5     0.04151618 0.223315   17.4055    0.8140914  0.1859086  0.1859086 
7601       0.04011936 0.223783   18.6386    0.820722   0.179278   0.179278  
7601.5     0.03893635 0.22706    19.7884    0.8285195  0.1714805  0.1714805 
7602       0.03802299 0.231273   20.7505    0.8355926  0.1644074  0.1644074 
7602.5     0.03749326 0.233614   21.341     0.8395076  0.1604924  0.1604924 
7603       0.03748975 0.233146   21.345     0.8392006  0.1607995  0.1607995 
7603.5     0.03803482 0.231742   20.7376    0.8358743  0.1641257  0.1641257 
7604       0.03915381 0.229869   19.5692    0.829669   0.170331   0.170331  
7604.5     0.04074895 0.228933   18.0671    0.8220049  0.1779951  0.1779951 
7605       0.04236959 0.228464   16.7114    0.8145459  0.1854541  0.1854541 
7605.5     0.0434858  0.226124   15.8645    0.8076905  0.1923095  0.1923095 
7606       0.04400308 0.222378   15.4937    0.8021249  0.1978751  0.1978751 
7606.5     0.0442322  0.22191    15.3336    0.800675   0.199325   0.199325  
7607       0.04443508 0.225655   15.1939    0.803084   0.196916   0.196916  
7607.5     0.04459577 0.228464   15.0846    0.8048018  0.1951983  0.1951983 
7608       0.0443604  0.225655   15.2451    0.8034149  0.1965851  0.1965851 
7608.5     0.04328153 0.221442   16.0146    0.8045469  0.1954531  0.1954531 
7609       0.04145217 0.221442   17.4593    0.812808   0.187192   0.187192  
7609.5     0.0394516  0.225655   19.2749    0.8251686  0.1748315  0.1748315 
