~Version
 VERS              .         2.0                           : CWLS LOG ASCII STANDARD - VERSION 2.0
 WRAP              .         NO                            : ONE LINE PER DEPTH STEP
 DLM               .         SPACE                         : DELIMITING CHARACTER(SPACE TAB OR COMMA)
~Well Information
#_______________________________________________________________________________
#
#PARAMETER_NAME    .UNIT     VALUE                         : DESCRIPTION
#_______________________________________________________________________________
STRT               .ft       7350                          : First reference value
STOP               .ft       7915                          : Last reference value
STEP               .ft       0.5                           : Step increment
NULL               .         -9999                         : Missing value
COMP               .         COMPANY1                      : Company
WELL               .         Well1                         : Well name
FLD                .         FIELD1                        : Field
LOC                .                                       : Location
PROV               .                                       : Province
SRVC               .                                       : Service Company
DATE               .                                       : Date
UWI                .                                       : Unique Well ID
API                .                                       : 
CNTY               .                                       : 
COMMENT            .                                       : 
COMMENT2           .                                       : 
COMPANY            .         Unknown                       : 
COMPLETION_DATE    .                                       : 
COUNTRY            .         COUNTRY1                      : 
COUNTY             .         UNKNOWN                       : 
CREATION-TIME      .         2009/11/18 14_51              : 
CTRY               .         CO                            : 
DERRICK_FLOOR      .                                       : 
DRILLING_MEASURED_FROM_FIELD .                                       : 
ELEVATION          .                                       : 
ELEVATION_DATUM    .                                       : 
EREF               .FT       90                            : 
FIELD-NAME         .         FIELD1                        : 
FIELD_API          .                                       : 
FIELD_PWI          .                                       : 
FILE-ID            .         Well1                         : 
FILE-NUMBER        .         1                             : 
FILE-SET-NAME      .         WELL1                         : 
FILE-SET-NUMBER    .         2171                          : 
FILE-TYPE          .         EXPORT                        : 
GDAT               .                                       : 
GROUND_LEVEL       .                                       : 
GROUP              .                                       :  
HORIZONTAL_COORDINATE_SYSTEM .                                       : 
JOURNAL_FILENAME   .         22_6A-9_JOURNAL.DAT           : 
KB                 .m        90.                           : 
LIC                .                                       : 
LOCATION1          .                                       : 
LOCATION2          .                                       : 
LOG_MEASURE_FROM_FIELD .         KB                            : 
LONG_WELL_NAME     .                                       : 
LATI               .         30.684311                     : 
LONG               .         64.165074                     : 
NAME-SPACE-VERSION .         0                             : 
ORIGINALWELLNAME   .         Well1                         : 
PERMANENT_DATUM    .                                       : 
PRODUCER-CODE      .         999                           : 
PRODUCER-NAME      .         Techsia                       : 
PRODUCT            .         Techlog                       : 
PROGRAMS           .         WELL-Well1                    : 
RANGE              .                                       : 
SECTION            .                                       : 
SHORT_WELL_NAME    .                                       : 
SPUD_DATE          .                                       : 
SURVEY_DEPTH       .                                       : 
STAT               .         Test Well                     : 
TOWNSHIP           .                                       : 
TYPE               .                                       : 
TD                 .                                       : 
VERSION            .         2009.2.2                      : 
WELL-NAME          .         Well1                         : 
X                  .km       6129.9                        : 
Y                  .km       68827.8                       : 
~Parameter Information Block
#_______________________________________________________________________________
#
#PARAMETER_NAME    .UNIT     VALUE                         : DESCRIPTION
#_______________________________________________________________________________
SET                .         LQC                           : 
REAL_CREATION_DATE .         Mon Feb 8 2010-17_05_16       : 
REAL_CREATION_DATE .         Tue Aug 25 2009-09_34_50      : 
TLFamily_BVW_AR    .         Bulk Fluid Volume             : 
TLFamily_MD        .         Measured Depth                : 
TLFamily_PHIT_DUK  .         Porosity                      : 
TLFamily_RT_DUK    .         Formation Resistivity         : 
TLFamily_SH_AR     .         Oil Saturation                : 
TLFamily_SW_AR     .         Water Saturation              : 
TLFamily_SW_AR_UNCL .         Water Saturation Unclipped    : 
~Curve Information
#_______________________________________________________________________________
#
#LOGNAME           .UNIT     LOG_ID                        : DESCRIPTION
#_______________________________________________________________________________
MD                 .ft                                     :  
BVW_AR_TRUE        .v/v                                    :
PHIT_DUK           .v/v                                    : dukpet - total porosity [74] 
RT_DUK             .OHMM                                   : dukpet - true resistivity [76] 
SH_AR_TRUE         .v/v                                    :
SW_AR_TRUE         .v/v                                    :  
SW_AR_UNCL_TRUE    .v/v                                    :  
~Ascii
# ...
7506       0.03606225 0.231742   23.0683    0.8443862  0.1556138  0.1556138 
7506.5     0.0365219  0.233146   22.4913    0.8433518  0.1566482  0.1566482 
7507       0.03961067 0.234551   19.1204    0.8311213  0.1688787  0.1688787 
7507.5     0.04549718 0.236891   14.4928    0.8079405  0.1920595  0.1920595 
7508       0.05244884 0.238296   10.9056    0.7799005  0.2200995  0.2200995 
7508.5     0.05804608 0.231742   8.9038     0.7495228  0.2504772  0.2504772 
7509       0.06100245 0.212547   8.0617     0.7129931  0.2870069  0.2870069 
7509.5     0.06174291 0.190543   7.8695     0.6759634  0.3240366  0.3240366 
7510       0.06148251 0.189138   7.9363     0.6749331  0.325067   0.325067  
7510.5     0.06087084 0.21161    8.0966     0.7123442  0.2876558  0.2876558 
7511       0.05945328 0.235019   8.4873     0.7470278  0.2529722  0.2529722 
7511.5     0.05612224 0.242977   9.5247     0.7690225  0.2309776  0.2309776 
7512       0.05079525 0.2397     11.6272    0.7880883  0.2119117  0.2119117 
7512.5     0.04517663 0.235487   14.6992    0.8081566  0.1918434  0.1918434 
7513       0.04152214 0.234551   17.4005    0.8229718  0.1770282  0.1770282 
7513.5     0.04106819 0.237828   17.7873    0.8273197  0.1726802  0.1726802 
7514       0.04330222 0.242509   15.9993    0.8214408  0.1785592  0.1785592 
7514.5     0.04665585 0.243446   13.7819    0.8083524  0.1916476  0.1916476 
7515       0.04986678 0.233614   12.0642    0.7865419  0.213458   0.213458  
7515.5     0.05258038 0.216292   10.8511    0.7569009  0.2430991  0.2430991 
7516       0.05509886 0.203184   9.8818     0.7288228  0.2711772  0.2711772 
7516.5     0.05775557 0.200843   8.9936     0.7124343  0.2875657  0.2875657 
7517       0.06068673 0.206929   8.1458     0.7067268  0.2932732  0.2932732 
7517.5     0.06398654 0.217228   7.3273     0.7054406  0.2945594  0.2945594 
7518       0.06765514 0.223783   6.5542     0.6976752  0.3023247  0.3023247 
7518.5     0.07195175 0.220037   5.7948     0.6730015  0.3269984  0.3269984 
7519       0.07648086 0.206929   5.1288     0.6304005  0.3695995  0.3695995 
7519.5     0.08010774 0.187266   4.6749     0.5722249  0.4277751  0.4277751 
7520       0.08245151 0.168539   4.4129     0.5107868  0.4892132  0.4892132 
7520.5     0.08417242 0.169944   4.2343     0.504705   0.495295   0.495295  
7521       0.08559106 0.191947   4.0951     0.5540901  0.4459098  0.4459098 
7521.5     0.08567792 0.208333   4.0868     0.5887454  0.4112547  0.4112547 
7522       0.08325436 0.205056   4.3282     0.5939921  0.4060079  0.4060079 
7522.5     0.07834848 0.200843   4.8872     0.6099019  0.3900981  0.3900981 
7523       0.07181063 0.210206   5.8176     0.6583798  0.3416202  0.3416202 
7523.5     0.0651193  0.222846   7.0746     0.7077835  0.2922166  0.2922166 
7524       0.05915675 0.22706    8.5726     0.7394664  0.2605336  0.2605336 
7524.5     0.05395614 0.222378   10.3048    0.7573675  0.2426325  0.2426325 
7525       0.04932936 0.216292   12.3285    0.7719316  0.2280684  0.2280684 
7525.5     0.04529991 0.21161    14.6193    0.7859274  0.2140726  0.2140726 
7526       0.04252125 0.208333   16.5924    0.7958977  0.2041023  0.2041023 
7526.5     0.04113868 0.207865   17.7264    0.8020895  0.1979106  0.1979106 
7527       0.04068908 0.210674   18.1203    0.8068624  0.1931377  0.1931377 
7527.5     0.04054646 0.215824   18.248     0.8121318  0.1878682  0.1878682 
7528       0.04020162 0.220506   18.5624    0.8176847  0.1823153  0.1823153 
7528.5     0.03962994 0.224251   19.1018    0.8232787  0.1767214  0.1767214 
7529       0.03902738 0.227528   19.6962    0.8284722  0.1715278  0.1715278 
7529.5     0.03845917 0.229869   20.2825    0.832691   0.1673091  0.1673091 
7530       0.03794882 0.231742   20.8317    0.8362454  0.1637546  0.1637546 
7530.5     0.03755835 0.231273   21.2671    0.8376017  0.1623983  0.1623983 
7531       0.03740791 0.229869   21.4385    0.8372642  0.1627358  0.1627358 
7531.5     0.03773262 0.228464   21.0711    0.8348421  0.1651579  0.1651579 
7532       0.03863385 0.227528   20.0995    0.8302017  0.1697982  0.1697982 
7532.5     0.04002926 0.224719   18.7226    0.8218697  0.1781303  0.1781303 
7533       0.04194885 0.22191    17.0483    0.8109646  0.1890354  0.1890354 
7533.5     0.04463752 0.221442   15.0564    0.7984234  0.2015766  0.2015766 
7534       0.0483229  0.22191    12.8474    0.782241   0.217759   0.217759  
7534.5     0.05309019 0.220974   10.6437    0.7597446  0.2402554  0.2402554 
7535       0.05879336 0.216292   8.6789     0.728176   0.271824   0.271824  
7535.5     0.06410959 0.207397   7.2992     0.6908847  0.3091153  0.3091153 
7536       0.06753007 0.192416   6.5785     0.6490413  0.3509587  0.3509587 
7536.5     0.06893329 0.175562   6.3134     0.6073564  0.3926435  0.3926435 
7537       0.06910755 0.170412   6.2816     0.5944679  0.4055322  0.4055322 
7537.5     0.06873542 0.181648   6.3498     0.621601   0.378399   0.378399  
7538       0.06784379 0.199906   6.5178     0.6606215  0.3393784  0.3393784 
7538.5     0.06587888 0.21161    6.9124     0.6886779  0.3113221  0.3113221 
7539       0.06203168 0.214888   7.7964     0.7113302  0.2886698  0.2886698 
7539.5     0.0561296  0.215356   9.5222     0.7393637  0.2606364  0.2606364 
7540       0.05001042 0.217228   11.995     0.7697791  0.2302209  0.2302209 
7540.5     0.04617341 0.220506   14.0714    0.7906024  0.2093975  0.2093975 
7541       0.0467649  0.223783   13.7177    0.7910257  0.2089743  0.2089743 
7541.5     0.05196716 0.227528   11.1087    0.771601   0.228399   0.228399  
7542       0.0603491  0.230337   8.2372     0.7379965  0.2620035  0.2620035 
7542.5     0.0695328  0.227996   6.205      0.6950262  0.3049738  0.3049738 
7543       0.07704856 0.213483   5.0535     0.6390882  0.3609119  0.3609119 
7543.5     0.08120783 0.190543   4.5491     0.5738084  0.4261916  0.4261916 
7544       0.0822653  0.178839   4.4329     0.5400036  0.4599964  0.4599964 
7544.5     0.08200579 0.192416   4.461      0.5738099  0.4261901  0.4261901 
7545       0.08159709 0.220506   4.5058     0.6299552  0.3700448  0.3700448 
7545.5     0.08049522 0.240169   4.63       0.6648393  0.3351608  0.3351608 
7546       0.07726136 0.242041   5.0257     0.6807923  0.3192077  0.3192077 
7546.5     0.07071657 0.236423   5.999      0.7008896  0.2991104  0.2991104 
7547       0.06159515 0.232678   7.9073     0.7352773  0.2647227  0.2647227 
7547.5     0.0519536  0.230337   11.1145    0.7744453  0.2255547  0.2255547 
7548       0.04461426 0.22706    15.0721    0.8035133  0.1964867  0.1964867 
7548.5     0.04107778 0.223783   17.779     0.8164392  0.1835608  0.1835608 
7549       0.04133043 0.222378   17.5623    0.8141434  0.1858567  0.1858567 
7549.5     0.04427308 0.222846   15.3053    0.8013288  0.1986712  0.1986712 
7550       0.04870021 0.223783   12.6491    0.7823775  0.2176225  0.2176225 
7550.5     0.05399834 0.224251   10.2887    0.7592058  0.2407942  0.2407942 
7551       0.05927268 0.223315   8.5391     0.7345781  0.2654219  0.2654219 
7551.5     0.06330255 0.215356   7.4865     0.7060562  0.2939437  0.2939437 
7552       0.0661464  0.203184   6.8566     0.6744508  0.3255493  0.3255493 
7552.5     0.06881295 0.198502   6.3355     0.6533388  0.3466612  0.3466612 
7553       0.07173729 0.202715   5.8295     0.6461175  0.3538825  0.3538825 
7553.5     0.0739329  0.205056   5.4884     0.6394502  0.3605498  0.3605498 
7554       0.07414802 0.200843   5.4566     0.630816   0.369184   0.369184  
7554.5     0.07203073 0.198502   5.7821     0.6371285  0.3628716  0.3628716 
7555       0.06835486 0.204588   6.4207     0.6658902  0.3341098  0.3341098 
7555.5     0.06432764 0.219101   7.2498     0.7064019  0.2935981  0.2935981 
7556       0.06042765 0.23221    8.2158     0.7397715  0.2602285  0.2602285 
7556.5     0.05667382 0.23736    9.3402     0.7612326  0.2387674  0.2387674 
7557       0.0528541  0.236423   10.739     0.7764426  0.2235574  0.2235574 
7557.5     0.0491234  0.235955   12.4321    0.7918103  0.2081897  0.2081897 
